% program   : RTKPOST ver.2.4.2
% inp file  : Z:\home\emerson\Desktop\Connected_folders\gnssins\data\CAR_2890.18O
% inp file  : Z:\home\emerson\Desktop\Connected_folders\gnssins\data\CAR_2890.18N
% obs start : 2018/10/16 19:05:36.0 GPST (week2023 241536.0s)
% obs end   : 2018/10/16 20:01:25.0 GPST (week2023 244885.0s)
% pos mode  : single
% elev mask : 15.0 deg
% ionos opt : broadcast
% tropo opt : saastamoinen
% ephemeris : broadcast
%
% (lat/lon/height=WGS84/ellipsoidal,Q=1:fix,2:float,3:sbas,4:dgps,5:single,6:ppp,ns=# of satellites)
%  GPST                  latitude(deg) longitude(deg)  height(m)   Q  ns   sdn(m)   sde(m)   sdu(m)  sdne(m)  sdeu(m)  sdun(m) age(s)  ratio
2018/10/16 19:05:36.000   45.950286284  -66.641361288    -7.0933   5   4  24.7851   6.3412  28.1211 -11.2443 -12.3495  25.3667   0.00    0.0
2018/10/16 19:05:37.000   45.950288898  -66.641363248    -6.5646   5   4  24.8163   6.3455  28.1521 -11.2578 -12.3621  25.3992   0.00    0.0
2018/10/16 19:05:38.000   45.950278786  -66.641358988    -8.3072   5   4  24.8477   6.3498  28.1832 -11.2715 -12.3747  25.4318   0.00    0.0
2018/10/16 19:05:39.000   45.950268309  -66.641355623    -9.8100   5   4  24.8791   6.3542  28.2144 -11.2851 -12.3874  25.4644   0.00    0.0
2018/10/16 19:05:40.000   45.950258876  -66.641351426   -10.7570   5   4  24.9106   6.3586  28.2456 -11.2988 -12.4001  25.4972   0.00    0.0
2018/10/16 19:05:41.000   45.950254054  -66.641348685   -11.5528   5   4  24.9422   6.3629  28.2770 -11.3125 -12.4129  25.5300   0.00    0.0
2018/10/16 19:05:42.000   45.950255093  -66.641348111   -11.1240   5   4  24.9739   6.3673  28.3084 -11.3263 -12.4256  25.5629   0.00    0.0
2018/10/16 19:05:43.000   45.950259452  -66.641347178   -10.5774   5   4  25.0057   6.3717  28.3399 -11.3401 -12.4384  25.5959   0.00    0.0
2018/10/16 19:05:44.000   45.950266529  -66.641350666    -9.3747   5   4  25.0375   6.3762  28.3716 -11.3539 -12.4513  25.6290   0.00    0.0
2018/10/16 19:05:45.000   45.950275963  -66.641355208    -7.9407   5   4  25.0694   6.3806  28.4033 -11.3678 -12.4642  25.6621   0.00    0.0
2018/10/16 19:05:46.000   45.950273006  -66.641355693    -8.4855   5   4  25.1014   6.3851  28.4351 -11.3817 -12.4771  25.6954   0.00    0.0
2018/10/16 19:05:47.000   45.950271015  -66.641356133    -8.9874   5   4  25.1335   6.3895  28.4669 -11.3956 -12.4901  25.7287   0.00    0.0
2018/10/16 19:05:48.000   45.950274322  -66.641357713    -8.5719   5   4  25.1657   6.3940  28.4989 -11.4096 -12.5031  25.7621   0.00    0.0
2018/10/16 19:05:49.000   45.950270438  -66.641355772    -9.0077   5   4  25.1979   6.3985  28.5310 -11.4236 -12.5162  25.7957   0.00    0.0
2018/10/16 19:05:50.000   45.950267497  -66.641357508    -9.2722   5   4  25.2303   6.4030  28.5631 -11.4377 -12.5292  25.8293   0.00    0.0
2018/10/16 19:05:51.000   45.950263208  -66.641355780   -10.0942   5   4  25.2627   6.4076  28.5954 -11.4518 -12.5424  25.8630   0.00    0.0
2018/10/16 19:05:52.000   45.950267166  -66.641356024    -9.7061   5   4  25.2952   6.4121  28.6277 -11.4659 -12.5555  25.8967   0.00    0.0
2018/10/16 19:05:53.000   45.950275869  -66.641357748    -8.4060   5   4  25.3278   6.4167  28.6602 -11.4801 -12.5687  25.9306   0.00    0.0
2018/10/16 19:05:54.000   45.950270629  -66.641354342    -9.1230   5   4  25.3605   6.4213  28.6927 -11.4943 -12.5820  25.9646   0.00    0.0
2018/10/16 19:05:55.000   45.950273451  -66.641355709    -8.9902   5   4  25.3933   6.4259  28.7253 -11.5085 -12.5953  25.9986   0.00    0.0
2018/10/16 19:05:56.000   45.950264433  -66.641352261   -10.3169   5   4  25.4262   6.4305  28.7581 -11.5228 -12.6086  26.0328   0.00    0.0
2018/10/16 19:05:57.000   45.950261277  -66.641348664   -10.9762   5   4  25.4591   6.4351  28.7909 -11.5371 -12.6220  26.0670   0.00    0.0
2018/10/16 19:05:58.000   45.950267378  -66.641349308   -10.2409   5   4  25.4922   6.4398  28.8238 -11.5514 -12.6354  26.1013   0.00    0.0
2018/10/16 19:05:59.000   45.950273010  -66.641351012    -9.5010   5   4  25.5253   6.4444  28.8568 -11.5658 -12.6488  26.1358   0.00    0.0
2018/10/16 19:06:00.000   45.950270165  -66.641351544    -9.8060   5   4  25.5585   6.4491  28.8899 -11.5803 -12.6623  26.1703   0.00    0.0
2018/10/16 19:06:01.000   45.950281687  -66.641355428    -8.0980   5   4  25.5918   6.4538  28.9231 -11.5947 -12.6759  26.2049   0.00    0.0
2018/10/16 19:06:02.000   45.950280114  -66.641356861    -8.6004   5   4  25.6252   6.4585  28.9564 -11.6092 -12.6894  26.2396   0.00    0.0
2018/10/16 19:06:03.000   45.950281003  -66.641358273    -8.4727   5   4  25.6587   6.4633  28.9898 -11.6238 -12.7030  26.2744   0.00    0.0
2018/10/16 19:06:04.000   45.950297026  -66.641364557    -6.1376   5   4  25.6923   6.4680  29.0233 -11.6383 -12.7167  26.3092   0.00    0.0
2018/10/16 19:06:05.000   45.950292091  -66.641363672    -6.5874   5   4  25.7259   6.4728  29.0569 -11.6530 -12.7304  26.3442   0.00    0.0
2018/10/16 19:06:06.000   45.950281308  -66.641359323    -8.0723   5   4  25.7597   6.4776  29.0906 -11.6676 -12.7441  26.3793   0.00    0.0
2018/10/16 19:06:07.000   45.950281161  -66.641357860    -8.0186   5   4  25.7935   6.4824  29.1243 -11.6823 -12.7579  26.4145   0.00    0.0
2018/10/16 19:06:08.000   45.950277575  -66.641357032    -8.7330   5   4  25.8275   6.4872  29.1582 -11.6971 -12.7717  26.4497   0.00    0.0
2018/10/16 19:06:09.000   45.950267223  -66.641353591    -9.9595   5   4  25.8615   6.4920  29.1922 -11.7119 -12.7856  26.4851   0.00    0.0
2018/10/16 19:06:10.000   45.950266824  -66.641354850    -9.9473   5   4  25.8957   6.4969  29.2263 -11.7267 -12.7995  26.5206   0.00    0.0
2018/10/16 19:06:11.000   45.950274365  -66.641358267    -8.7783   5   4  25.9299   6.5017  29.2605 -11.7415 -12.8135  26.5561   0.00    0.0
2018/10/16 19:06:12.000   45.950258611  -66.641352074   -10.9224   5   4  25.9642   6.5066  29.2948 -11.7564 -12.8275  26.5918   0.00    0.0
2018/10/16 19:06:13.000   45.950254340  -66.641350325   -11.4189   5   4  25.9986   6.5115  29.3291 -11.7714 -12.8415  26.6275   0.00    0.0
2018/10/16 19:06:14.000   45.950248888  -66.641347068   -11.6689   5   4  26.0331   6.5164  29.3636 -11.7864 -12.8556  26.6634   0.00    0.0
2018/10/16 19:06:15.000   45.950247067  -66.641344649   -11.8620   5   4  26.0677   6.5214  29.3982 -11.8014 -12.8697  26.6993   0.00    0.0
2018/10/16 19:06:16.000   45.950251348  -66.641345717   -11.1659   5   4  26.1024   6.5263  29.4329 -11.8165 -12.8839  26.7353   0.00    0.0
2018/10/16 19:06:17.000   45.950265794  -66.641351006    -9.2046   5   4  26.1371   6.5313  29.4677 -11.8316 -12.8981  26.7715   0.00    0.0
2018/10/16 19:06:18.000   45.950266759  -66.641351928    -9.2158   5   4  26.1720   6.5363  29.5026 -11.8467 -12.9123  26.8077   0.00    0.0
2018/10/16 19:06:19.000   45.950255578  -66.641346773   -10.8464   5   4  26.2070   6.5413  29.5376 -11.8619 -12.9266  26.8440   0.00    0.0
2018/10/16 19:06:20.000   45.950258015  -66.641346864   -10.4097   5   4  26.2421   6.5463  29.5727 -11.8771 -12.9410  26.8805   0.00    0.0
2018/10/16 19:06:21.000   45.950253820  -66.641345659   -10.8352   5   4  26.2772   6.5514  29.6079 -11.8924 -12.9554  26.9170   0.00    0.0
2018/10/16 19:06:22.000   45.950250536  -66.641343234   -11.3169   5   4  26.3125   6.5564  29.6432 -11.9077 -12.9698  26.9537   0.00    0.0
2018/10/16 19:06:23.000   45.950254032  -66.641346999   -10.7970   5   4  26.3479   6.5615  29.6786 -11.9231 -12.9843  26.9904   0.00    0.0
2018/10/16 19:06:24.000   45.950257228  -66.641347802   -10.1284   5   4  26.3833   6.5666  29.7141 -11.9385 -12.9988  27.0272   0.00    0.0
2018/10/16 19:06:25.000   45.950255183  -66.641347331   -10.5098   5   4  26.4189   6.5717  29.7498 -11.9539 -13.0134  27.0642   0.00    0.0
2018/10/16 19:06:26.000   45.950255851  -66.641349728   -10.4654   5   4  26.4545   6.5769  29.7855 -11.9694 -13.0280  27.1012   0.00    0.0
2018/10/16 19:06:27.000   45.950258948  -66.641350813    -9.8088   5   4  26.4903   6.5820  29.8213 -11.9849 -13.0427  27.1384   0.00    0.0
2018/10/16 19:06:28.000   45.950255753  -66.641348718   -10.3737   5   4  26.5261   6.5872  29.8573 -12.0005 -13.0574  27.1756   0.00    0.0
2018/10/16 19:06:29.000   45.950251623  -66.641347754   -10.8195   5   4  26.5621   6.5924  29.8933 -12.0161 -13.0721  27.2130   0.00    0.0
2018/10/16 19:06:30.000   45.950246962  -66.641345571   -11.3252   5   4  26.5982   6.5976  29.9295 -12.0317 -13.0869  27.2505   0.00    0.0
2018/10/16 19:06:31.000   45.950250630  -66.641347864   -11.0241   5   4  26.6343   6.6028  29.9658 -12.0474 -13.1018  27.2880   0.00    0.0
2018/10/16 19:06:32.000   45.950248851  -66.641347397   -11.4099   5   4  26.6706   6.6081  30.0022 -12.0632 -13.1167  27.3257   0.00    0.0
2018/10/16 19:06:33.000   45.950243728  -66.641346041   -12.0898   5   4  26.7069   6.6133  30.0387 -12.0790 -13.1316  27.3635   0.00    0.0
2018/10/16 19:06:34.000   45.950254317  -66.641350261   -10.6493   5   4  26.7434   6.6186  30.0753 -12.0948 -13.1466  27.4013   0.00    0.0
2018/10/16 19:06:35.000   45.950255762  -66.641351097   -10.4439   5   4  26.7799   6.6239  30.1120 -12.1107 -13.1616  27.4393   0.00    0.0
2018/10/16 19:06:36.000   45.950260639  -66.641351124    -9.8392   5   4  26.8166   6.6292  30.1488 -12.1266 -13.1767  27.4774   0.00    0.0
2018/10/16 19:06:37.000   45.950272470  -66.641354449    -8.0856   5   4  26.8533   6.6346  30.1857 -12.1426 -13.1918  27.5156   0.00    0.0
2018/10/16 19:06:38.000   45.950281775  -66.641358811    -6.7820   5   4  26.8902   6.6399  30.2228 -12.1586 -13.2070  27.5539   0.00    0.0
2018/10/16 19:06:39.000   45.950266736  -66.641354191    -9.0923   5   4  26.9272   6.6453  30.2599 -12.1746 -13.2222  27.5924   0.00    0.0
2018/10/16 19:06:40.000   45.950261557  -66.641352098    -9.7637   5   4  26.9643   6.6507  30.2972 -12.1907 -13.2375  27.6309   0.00    0.0
2018/10/16 19:06:41.000   45.950248178  -66.641347731   -11.7340   5   4  27.0015   6.6561  30.3346 -12.2069 -13.2528  27.6695   0.00    0.0
2018/10/16 19:06:42.000   45.950236020  -66.641343649   -13.0374   5   4  27.0388   6.6616  30.3721 -12.2231 -13.2682  27.7083   0.00    0.0
2018/10/16 19:06:43.000   45.950234124  -66.641342475   -13.0878   5   4  27.0762   6.6670  30.4097 -12.2393 -13.2836  27.7472   0.00    0.0
2018/10/16 19:06:44.000   45.950239924  -66.641344230   -12.2663   5   4  27.1137   6.6725  30.4474 -12.2556 -13.2990  27.7861   0.00    0.0
2018/10/16 19:06:45.000   45.950240281  -66.641343691   -12.1954   5   4  27.1513   6.6780  30.4853 -12.2719 -13.3146  27.8252   0.00    0.0
2018/10/16 19:06:46.000   45.950246529  -66.641345438   -11.3304   5   4  27.1890   6.6835  30.5232 -12.2883 -13.3301  27.8644   0.00    0.0
2018/10/16 19:06:47.000   45.950226097  -66.641337359   -14.1740   5   4  27.2268   6.6891  30.5613 -12.3047 -13.3457  27.9037   0.00    0.0
2018/10/16 19:06:48.000   45.950234337  -66.641340234   -13.6263   5   4  27.2648   6.6946  30.5995 -12.3212 -13.3614  27.9431   0.00    0.0
2018/10/16 19:06:49.000   45.950236418  -66.641340415   -13.4100   5   4  27.3028   6.7002  30.6378 -12.3377 -13.3771  27.9826   0.00    0.0
2018/10/16 19:06:50.000   45.950240737  -66.641341333   -12.9741   5   4  27.3410   6.7058  30.6763 -12.3543 -13.3929  28.0223   0.00    0.0
2018/10/16 19:06:51.000   45.950242867  -66.641340683   -12.8613   5   4  27.3792   6.7114  30.7148 -12.3709 -13.4087  28.0620   0.00    0.0
2018/10/16 19:06:52.000   45.950240091  -66.641336676   -13.5305   5   4  27.4176   6.7170  30.7535 -12.3875 -13.4245  28.1019   0.00    0.0
2018/10/16 19:06:53.000   45.950255644  -66.641341847   -11.5047   5   4  27.4561   6.7227  30.7922 -12.4042 -13.4405  28.1419   0.00    0.0
2018/10/16 19:06:54.000   45.950252876  -66.641340130   -12.1010   5   4  27.4946   6.7284  30.8311 -12.4210 -13.4564  28.1820   0.00    0.0
2018/10/16 19:06:55.000   45.950260167  -66.641341714   -11.3449   5   4  27.5333   6.7341  30.8702 -12.4378 -13.4724  28.2222   0.00    0.0
2018/10/16 19:06:56.000   45.950259470  -66.641343604   -11.4413   5   4  27.5722   6.7398  30.9093 -12.4546 -13.4885  28.2625   0.00    0.0
2018/10/16 19:06:57.000   45.950263914  -66.641347770   -10.4690   5   4  27.6111   6.7455  30.9486 -12.4715 -13.5046  28.3030   0.00    0.0
2018/10/16 19:06:58.000   45.950263078  -66.641348598   -10.7354   5   4  27.6501   6.7513  30.9880 -12.4885 -13.5208  28.3435   0.00    0.0
2018/10/16 19:06:59.000   45.950249006  -66.641342191   -12.5303   5   4  27.6893   6.7571  31.0275 -12.5055 -13.5370  28.3842   0.00    0.0
2018/10/16 19:07:00.000   45.950242528  -66.641339717   -13.6143   5   4  27.7286   6.7629  31.0671 -12.5225 -13.5533  28.4251   0.00    0.0
2018/10/16 19:07:01.000   45.950239068  -66.641338325   -13.6906   5   4  27.7680   6.7687  31.1069 -12.5396 -13.5696  28.4660   0.00    0.0
2018/10/16 19:07:02.000   45.950248004  -66.641342583   -12.4006   5   4  27.8074   6.7746  31.1468 -12.5568 -13.5860  28.5070   0.00    0.0
2018/10/16 19:07:03.000   45.950242813  -66.641342958   -13.1314   5   4  27.8471   6.7804  31.1868 -12.5740 -13.6024  28.5482   0.00    0.0
2018/10/16 19:07:04.000   45.950245956  -66.641343908   -12.6975   5   4  27.8868   6.7863  31.2269 -12.5912 -13.6189  28.5895   0.00    0.0
2018/10/16 19:07:05.000   45.950251094  -66.641344552   -12.1232   5   4  27.9266   6.7923  31.2672 -12.6085 -13.6355  28.6309   0.00    0.0
2018/10/16 19:07:06.000   45.950271764  -66.641349561    -9.5330   5   4  27.9666   6.7982  31.3075 -12.6258 -13.6521  28.6724   0.00    0.0
2018/10/16 19:07:07.000   45.950269558  -66.641348310    -9.9476   5   4  28.0066   6.8041  31.3480 -12.6432 -13.6687  28.7140   0.00    0.0
2018/10/16 19:07:08.000   45.950269894  -66.641346605   -10.2236   5   4  28.0468   6.8101  31.3887 -12.6607 -13.6854  28.7558   0.00    0.0
2018/10/16 19:07:09.000   45.950274306  -66.641348010    -9.8319   5   4  28.0872   6.8161  31.4295 -12.6782 -13.7022  28.7977   0.00    0.0
2018/10/16 19:07:10.000   45.950274214  -66.641346252    -9.8906   5   4  28.1276   6.8221  31.4703 -12.6957 -13.7190  28.8397   0.00    0.0
2018/10/16 19:07:11.000   45.950276809  -66.641347234    -9.5903   5   4  28.1681   6.8282  31.5114 -12.7133 -13.7358  28.8818   0.00    0.0
2018/10/16 19:07:12.000   45.950275953  -66.641349838    -9.4739   5   4  28.2088   6.8343  31.5525 -12.7310 -13.7528  28.9241   0.00    0.0
2018/10/16 19:07:13.000   45.950284901  -66.641352694    -8.1989   5   4  28.2496   6.8403  31.5938 -12.7487 -13.7697  28.9665   0.00    0.0
2018/10/16 19:07:14.000   45.950270697  -66.641346579    -9.8495   5   4  28.2905   6.8465  31.6352 -12.7665 -13.7868  29.0090   0.00    0.0
2018/10/16 19:07:15.000   45.950267128  -66.641345670   -10.2756   5   4  28.3316   6.8526  31.6768 -12.7843 -13.8039  29.0517   0.00    0.0
2018/10/16 19:07:16.000   45.950268558  -66.641347216    -9.7493   5   4  28.3727   6.8588  31.7184 -12.8021 -13.8210  29.0944   0.00    0.0
2018/10/16 19:07:17.000   45.950273175  -66.641347705    -9.0862   5   4  28.4140   6.8649  31.7603 -12.8201 -13.8382  29.1373   0.00    0.0
2018/10/16 19:07:18.000   45.950287955  -66.641353678    -7.1517   5   4  28.4554   6.8711  31.8022 -12.8380 -13.8555  29.1804   0.00    0.0
2018/10/16 19:07:19.000   45.950292183  -66.641355552    -6.7515   5   4  28.4969   6.8774  31.8443 -12.8561 -13.8728  29.2235   0.00    0.0
2018/10/16 19:07:20.000   45.950301220  -66.641359514    -5.8967   5   4  28.5386   6.8836  31.8865 -12.8741 -13.8901  29.2668   0.00    0.0
2018/10/16 19:07:21.000   45.950291695  -66.641356119    -7.3035   5   4  28.5804   6.8899  31.9288 -12.8923 -13.9076  29.3102   0.00    0.0
2018/10/16 19:07:22.000   45.950287725  -66.641352923    -8.1358   5   4  28.6223   6.8962  31.9713 -12.9105 -13.9251  29.3538   0.00    0.0
2018/10/16 19:07:23.000   45.950281903  -66.641349218    -8.9339   5   4  28.6643   6.9025  32.0139 -12.9287 -13.9426  29.3974   0.00    0.0
2018/10/16 19:07:24.000   45.950277492  -66.641346837    -9.4628   5   4  28.7065   6.9089  32.0567 -12.9470 -13.9602  29.4413   0.00    0.0
2018/10/16 19:07:25.000   45.950275388  -66.641345269    -9.4961   5   4  28.7488   6.9152  32.0996 -12.9654 -13.9779  29.4852   0.00    0.0
2018/10/16 19:07:26.000   45.950269549  -66.641342100   -10.4411   5   4  28.7912   6.9216  32.1426 -12.9838 -13.9956  29.5293   0.00    0.0
2018/10/16 19:07:27.000   45.950267726  -66.641341353   -10.4021   5   4  28.8337   6.9280  32.1858 -13.0022 -14.0134  29.5735   0.00    0.0
2018/10/16 19:07:28.000   45.950271203  -66.641342986    -9.6159   5   4  28.8764   6.9345  32.2291 -13.0207 -14.0312  29.6178   0.00    0.0
2018/10/16 19:07:29.000   45.950278337  -66.641347243    -8.4643   5   4  28.9192   6.9409  32.2725 -13.0393 -14.0491  29.6623   0.00    0.0
2018/10/16 19:07:30.000   45.950283662  -66.641348347    -7.9833   5   4  28.9621   6.9474  32.3161 -13.0579 -14.0671  29.7069   0.00    0.0
2018/10/16 19:07:31.000   45.950288835  -66.641349204    -7.2987   5   4  29.0052   6.9539  32.3598 -13.0766 -14.0851  29.7517   0.00    0.0
2018/10/16 19:07:32.000   45.950281667  -66.641348162    -8.4578   5   4  29.0484   6.9605  32.4037 -13.0954 -14.1032  29.7965   0.00    0.0
2018/10/16 19:07:33.000   45.950279319  -66.641351145    -8.6063   5   4  29.0917   6.9670  32.4477 -13.1142 -14.1213  29.8416   0.00    0.0
2018/10/16 19:07:34.000   45.950275602  -66.641350442    -8.8077   5   4  29.1352   6.9736  32.4919 -13.1330 -14.1395  29.8867   0.00    0.0
2018/10/16 19:07:35.000   45.950261474  -66.641343840   -10.5141   5   4  29.1788   6.9802  32.5362 -13.1520 -14.1577  29.9320   0.00    0.0
2018/10/16 19:07:36.000   45.950260292  -66.641343366   -10.7220   5   4  29.2225   6.9869  32.5806 -13.1709 -14.1761  29.9775   0.00    0.0
2018/10/16 19:07:37.000   45.950254726  -66.641342531   -11.4807   5   4  29.2664   6.9935  32.6252 -13.1900 -14.1944  30.0231   0.00    0.0
2018/10/16 19:07:38.000   45.950237483  -66.641338756   -13.4619   5   4  29.3104   7.0002  32.6700 -13.2091 -14.2129  30.0688   0.00    0.0
2018/10/16 19:07:39.000   45.950224467  -66.641335733   -15.0023   5   4  29.3545   7.0069  32.7149 -13.2282 -14.2314  30.1147   0.00    0.0
2018/10/16 19:07:40.000   45.950217420  -66.641332947   -15.7536   5   4  29.3988   7.0137  32.7599 -13.2474 -14.2500  30.1607   0.00    0.0
2018/10/16 19:07:41.000   45.950228494  -66.641338624   -14.5809   5   4  29.4432   7.0204  32.8051 -13.2667 -14.2686  30.2068   0.00    0.0
2018/10/16 19:07:42.000   45.950252770  -66.641347139   -11.3765   5   4  29.4877   7.0272  32.8504 -13.2860 -14.2873  30.2531   0.00    0.0
2018/10/16 19:07:43.000   45.950265545  -66.641349570    -9.6335   5   4  29.5324   7.0340  32.8959 -13.3054 -14.3060  30.2995   0.00    0.0
2018/10/16 19:07:44.000   45.950273462  -66.641351909    -8.5294   5   4  29.5772   7.0408  32.9415 -13.3249 -14.3249  30.3461   0.00    0.0
2018/10/16 19:07:45.000   45.950266523  -66.641349548    -9.8234   5   4  29.6221   7.0477  32.9873 -13.3444 -14.3437  30.3928   0.00    0.0
2018/10/16 19:07:46.000   45.950264386  -66.641349414   -10.3114   5   4  29.6672   7.0546  33.0332 -13.3639 -14.3627  30.4396   0.00    0.0
2018/10/16 19:07:47.000   45.950272783  -66.641350747    -9.5841   5   4  29.7125   7.0615  33.0793 -13.3836 -14.3817  30.4867   0.00    0.0
2018/10/16 19:07:48.000   45.950282120  -66.641355166    -8.4130   5   4  29.7578   7.0685  33.1255 -13.4032 -14.4008  30.5338   0.00    0.0
2018/10/16 19:07:49.000   45.950275629  -66.641352648    -9.3208   5   4  29.8034   7.0754  33.1719 -13.4230 -14.4199  30.5811   0.00    0.0
2018/10/16 19:07:50.000   45.950274262  -66.641350436    -9.5409   5   4  29.8490   7.0824  33.2184 -13.4428 -14.4391  30.6286   0.00    0.0
2018/10/16 19:07:51.000   45.950261919  -66.641343631   -11.2307   5   4  29.8948   7.0895  33.2651 -13.4627 -14.4584  30.6762   0.00    0.0
2018/10/16 19:07:52.000   45.950260215  -66.641342424   -11.5777   5   4  29.9408   7.0965  33.3120 -13.4826 -14.4777  30.7239   0.00    0.0
2018/10/16 19:07:53.000   45.950250015  -66.641339130   -12.8101   5   4  29.9869   7.1036  33.3590 -13.5026 -14.4971  30.7718   0.00    0.0
2018/10/16 19:07:54.000   45.950230164  -66.641331043   -15.5034   5   4  30.0332   7.1107  33.4061 -13.5227 -14.5166  30.8199   0.00    0.0
2018/10/16 19:07:55.000   45.950240684  -66.641335240   -13.7158   5   4  30.0796   7.1178  33.4535 -13.5428 -14.5362  30.8681   0.00    0.0
2018/10/16 19:07:56.000   45.950235922  -66.641335926   -14.3447   5   4  30.1261   7.1250  33.5009 -13.5630 -14.5558  30.9165   0.00    0.0
2018/10/16 19:07:57.000   45.950245225  -66.641338944   -13.0004   5   4  30.1728   7.1322  33.5486 -13.5833 -14.5754  30.9650   0.00    0.0
2018/10/16 19:07:58.000   45.950251407  -66.641342242   -12.2422   5   4  30.2196   7.1394  33.5964 -13.6036 -14.5952  31.0136   0.00    0.0
2018/10/16 19:07:59.000   45.950258709  -66.641345181   -11.3426   5   4  30.2666   7.1466  33.6443 -13.6240 -14.6150  31.0625   0.00    0.0
2018/10/16 19:08:00.000   45.950258348  -66.641343960   -11.4469   5   4  30.3137   7.1539  33.6924 -13.6444 -14.6349  31.1114   0.00    0.0
2018/10/16 19:08:01.000   45.950249447  -66.641339631   -12.5449   5   4  30.3610   7.1612  33.7407 -13.6649 -14.6548  31.1606   0.00    0.0
2018/10/16 19:08:02.000   45.950245070  -66.641339854   -13.0641   5   4  30.4084   7.1685  33.7892 -13.6855 -14.6748  31.2099   0.00    0.0
2018/10/16 19:08:03.000   45.950259426  -66.641345535   -11.0250   5   4  30.4560   7.1759  33.8378 -13.7062 -14.6949  31.2593   0.00    0.0
2018/10/16 19:08:04.000   45.950270981  -66.641351030    -9.5692   5   4  30.5037   7.1832  33.8866 -13.7269 -14.7151  31.3089   0.00    0.0
2018/10/16 19:08:05.000   45.950270027  -66.641350662    -9.5591   5   4  30.5516   7.1907  33.9355 -13.7476 -14.7353  31.3587   0.00    0.0
2018/10/16 19:08:06.000   45.950272158  -66.641353256    -9.3667   5   4  30.5996   7.1981  33.9846 -13.7685 -14.7556  31.4086   0.00    0.0
2018/10/16 19:08:07.000   45.950266974  -66.641350658   -10.2173   5   4  30.6478   7.2056  34.0339 -13.7894 -14.7759  31.4587   0.00    0.0
2018/10/16 19:08:08.000   45.950261350  -66.641348402   -11.2088   5   4  30.6962   7.2131  34.0833 -13.8104 -14.7964  31.5090   0.00    0.0
2018/10/16 19:08:09.000   45.950261102  -66.641347912   -11.2024   5   4  30.7447   7.2206  34.1329 -13.8314 -14.8169  31.5594   0.00    0.0
2018/10/16 19:08:10.000   45.950264874  -66.641346482   -10.8063   5   4  30.7934   7.2282  34.1827 -13.8525 -14.8375  31.6099   0.00    0.0
2018/10/16 19:08:11.000   45.950286031  -66.641351901    -7.8274   5   4  30.8422   7.2357  34.2327 -13.8737 -14.8581  31.6607   0.00    0.0
2018/10/16 19:08:12.000   45.950282109  -66.641348551    -8.3946   5   4  30.8912   7.2433  34.2828 -13.8950 -14.8788  31.7116   0.00    0.0
2018/10/16 19:08:13.000   45.950286550  -66.641350660    -7.7731   5   4  30.9403   7.2510  34.3331 -13.9163 -14.8996  31.7626   0.00    0.0
2018/10/16 19:08:14.000   45.950288945  -66.641352756    -7.1999   5   4  30.9896   7.2587  34.3835 -13.9377 -14.9205  31.8139   0.00    0.0
2018/10/16 19:08:15.000   45.950279796  -66.641350673    -8.4840   5   4  31.0391   7.2664  34.4342 -13.9591 -14.9415  31.8653   0.00    0.0
2018/10/16 19:08:16.000   45.950287079  -66.641354674    -7.4512   5   4  31.0887   7.2741  34.4850 -13.9807 -14.9625  31.9169   0.00    0.0
2018/10/16 19:08:17.000   45.950293368  -66.641359007    -6.4708   5   4  31.1385   7.2819  34.5360 -14.0023 -14.9836  31.9686   0.00    0.0
2018/10/16 19:08:18.000   45.950294522  -66.641359541    -6.0851   5   4  31.1884   7.2897  34.5871 -14.0239 -15.0047  32.0205   0.00    0.0
2018/10/16 19:08:19.000   45.950299926  -66.641361994    -5.2677   5   4  31.2385   7.2975  34.6385 -14.0457 -15.0260  32.0726   0.00    0.0
2018/10/16 19:08:20.000   45.950300664  -66.641362976    -5.1758   5   4  31.2888   7.3053  34.6900 -14.0675 -15.0473  32.1248   0.00    0.0
2018/10/16 19:08:21.000   45.950303427  -66.641363583    -4.7021   5   4  31.3393   7.3132  34.7417 -14.0894 -15.0687  32.1772   0.00    0.0
2018/10/16 19:08:22.000   45.950305883  -66.641364592    -4.2144   5   4  31.3899   7.3212  34.7936 -14.1113 -15.0901  32.2298   0.00    0.0
2018/10/16 19:08:23.000   45.950296111  -66.641360917    -5.6805   5   4  31.4407   7.3291  34.8456 -14.1333 -15.1117  32.2826   0.00    0.0
2018/10/16 19:08:24.000   45.950278462  -66.641354329    -7.8751   5   4  31.4916   7.3371  34.8979 -14.1555 -15.1333  32.3356   0.00    0.0
2018/10/16 19:08:25.000   45.950271161  -66.641350257    -8.8209   5   4  31.5428   7.3451  34.9503 -14.1776 -15.1550  32.3887   0.00    0.0
2018/10/16 19:08:26.000   45.950278630  -66.641351737    -8.2418   5   4  31.5940   7.3531  35.0029 -14.1999 -15.1768  32.4420   0.00    0.0
2018/10/16 19:08:27.000   45.950261967  -66.641345791   -10.7367   5   4  31.6455   7.3612  35.0557 -14.2222 -15.1986  32.4955   0.00    0.0
2018/10/16 19:08:28.000   45.950252720  -66.641343183   -12.3227   5   4  31.6972   7.3693  35.1087 -14.2446 -15.2206  32.5492   0.00    0.0
2018/10/16 19:08:29.000   45.950250847  -66.641342977   -12.8689   5   4  31.7490   7.3775  35.1619 -14.2671 -15.2426  32.6030   0.00    0.0
2018/10/16 19:08:30.000   45.950263168  -66.641346555   -11.3099   5   4  31.8009   7.3856  35.2152 -14.2896 -15.2647  32.6570   0.00    0.0
2018/10/16 19:08:31.000   45.950260429  -66.641345051   -11.4904   5   4  31.8531   7.3938  35.2687 -14.3122 -15.2868  32.7112   0.00    0.0
2018/10/16 19:08:32.000   45.950264652  -66.641349676   -10.7769   5   4  31.9054   7.4021  35.3225 -14.3349 -15.3091  32.7656   0.00    0.0
2018/10/16 19:08:33.000   45.950273186  -66.641353309    -9.4811   5   4  31.9579   7.4104  35.3764 -14.3577 -15.3314  32.8201   0.00    0.0
2018/10/16 19:08:34.000   45.950280621  -66.641355180    -8.1661   5   4  32.0106   7.4187  35.4305 -14.3805 -15.3538  32.8749   0.00    0.0
2018/10/16 19:08:35.000   45.950291858  -66.641358177    -6.6703   5   4  32.0634   7.4270  35.4848 -14.4035 -15.3763  32.9298   0.00    0.0
2018/10/16 19:08:36.000   45.950298169  -66.641362245    -5.5924   5   4  32.1164   7.4354  35.5393 -14.4265 -15.3989  32.9849   0.00    0.0
2018/10/16 19:08:37.000   45.950299830  -66.641366150    -4.9534   5   4  32.1696   7.4438  35.5940 -14.4495 -15.4215  33.0402   0.00    0.0
2018/10/16 19:08:38.000   45.950285756  -66.641361697    -6.5930   5   4  32.2230   7.4522  35.6488 -14.4727 -15.4443  33.0957   0.00    0.0
2018/10/16 19:08:39.000   45.950288681  -66.641361469    -6.1505   5   4  32.2766   7.4607  35.7039 -14.4959 -15.4671  33.1514   0.00    0.0
2018/10/16 19:08:40.000   45.950280438  -66.641358439    -7.3350   5   4  32.3304   7.4692  35.7592 -14.5193 -15.4900  33.2072   0.00    0.0
2018/10/16 19:08:41.000   45.950279068  -66.641356871    -7.2565   5   4  32.3843   7.4777  35.8147 -14.5427 -15.5130  33.2633   0.00    0.0
2018/10/16 19:08:42.000   45.950267670  -66.641352395    -9.0694   5   4  32.4385   7.4863  35.8703 -14.5661 -15.5361  33.3195   0.00    0.0
2018/10/16 19:08:43.000   45.950267052  -66.641352524    -8.8406   5   4  32.4928   7.4949  35.9262 -14.5897 -15.5592  33.3760   0.00    0.0
2018/10/16 19:08:44.000   45.950278740  -66.641354451    -7.8184   5   4  32.5473   7.5035  35.9823 -14.6133 -15.5824  33.4326   0.00    0.0
2018/10/16 19:08:45.000   45.950279125  -66.641356008    -7.9419   5   4  32.6019   7.5122  36.0385 -14.6370 -15.6058  33.4894   0.00    0.0
2018/10/16 19:08:46.000   45.950281078  -66.641357818    -7.7865   5   4  32.6568   7.5209  36.0950 -14.6608 -15.6292  33.5465   0.00    0.0
2018/10/16 19:08:47.000   45.950282865  -66.641359695    -7.6120   5   4  32.7119   7.5297  36.1517 -14.6847 -15.6527  33.6037   0.00    0.0
2018/10/16 19:08:48.000   45.950269408  -66.641356820    -9.5958   5   4  32.7671   7.5385  36.2086 -14.7087 -15.6763  33.6611   0.00    0.0
2018/10/16 19:08:49.000   45.950269920  -66.641358391    -9.5055   5   4  32.8226   7.5473  36.2657 -14.7327 -15.6999  33.7187   0.00    0.0
2018/10/16 19:08:50.000   45.950251389  -66.641352541   -12.0927   5   4  32.8782   7.5561  36.3230 -14.7569 -15.7237  33.7765   0.00    0.0
2018/10/16 19:08:51.000   45.950250526  -66.641352349   -12.0962   5   4  32.9341   7.5650  36.3805 -14.7811 -15.7475  33.8346   0.00    0.0
2018/10/16 19:08:52.000   45.950245111  -66.641349967   -12.7314   5   4  32.9901   7.5740  36.4382 -14.8054 -15.7715  33.8928   0.00    0.0
2018/10/16 19:08:53.000   45.950239862  -66.641348335   -13.4298   5   4  33.0463   7.5829  36.4961 -14.8298 -15.7955  33.9512   0.00    0.0
2018/10/16 19:08:54.000   45.950247530  -66.641350072   -12.0962   5   4  33.1027   7.5919  36.5542 -14.8542 -15.8196  34.0098   0.00    0.0
2018/10/16 19:08:55.000   45.950247560  -66.641351168   -11.8504   5   4  33.1593   7.6010  36.6126 -14.8788 -15.8438  34.0686   0.00    0.0
2018/10/16 19:08:56.000   45.950250281  -66.641351029   -11.3624   5   4  33.2161   7.6100  36.6711 -14.9034 -15.8681  34.1277   0.00    0.0
2018/10/16 19:08:57.000   45.950254381  -66.641351670   -11.0705   5   4  33.2731   7.6191  36.7299 -14.9281 -15.8925  34.1869   0.00    0.0
2018/10/16 19:08:58.000   45.950247780  -66.641350698   -12.1075   5   4  33.3303   7.6283  36.7889 -14.9529 -15.9169  34.2464   0.00    0.0
2018/10/16 19:08:59.000   45.950249426  -66.641352245   -11.6856   5   4  33.3877   7.6375  36.8481 -14.9778 -15.9415  34.3060   0.00    0.0
2018/10/16 19:09:00.000   45.950247093  -66.641352004   -12.0844   5   4  33.4453   7.6467  36.9076 -15.0028 -15.9662  34.3659   0.00    0.0
2018/10/16 19:09:01.000   45.950260831  -66.641356837   -10.4379   5   4  33.5031   7.6559  36.9672 -15.0279 -15.9909  34.4260   0.00    0.0
2018/10/16 19:09:02.000   45.950262820  -66.641356607   -10.0326   5   4  33.5611   7.6652  37.0271 -15.0530 -16.0157  34.4862   0.00    0.0
2018/10/16 19:09:03.000   45.950266506  -66.641358848    -9.4988   5   4  33.6194   7.6746  37.0871 -15.0783 -16.0407  34.5467   0.00    0.0
2018/10/16 19:09:04.000   45.950257610  -66.641356600   -10.9725   5   4  33.6778   7.6840  37.1475 -15.1036 -16.0657  34.6075   0.00    0.0
2018/10/16 19:09:05.000   45.950257082  -66.641356639   -11.0869   5   4  33.7364   7.6934  37.2080 -15.1290 -16.0908  34.6684   0.00    0.0
2018/10/16 19:09:06.000   45.950247114  -66.641352461   -12.5081   5   4  33.7953   7.7028  37.2688 -15.1546 -16.1160  34.7296   0.00    0.0
2018/10/16 19:09:07.000   45.950248004  -66.641352447   -11.8643   5   4  33.8543   7.7123  37.3297 -15.1802 -16.1414  34.7909   0.00    0.0
2018/10/16 19:09:08.000   45.950255532  -66.641356137   -10.3413   5   4  33.9136   7.7219  37.3910 -15.2059 -16.1668  34.8525   0.00    0.0
2018/10/16 19:09:09.000   45.950261345  -66.641357711    -9.3626   5   4  33.9731   7.7314  37.4524 -15.2316 -16.1923  34.9143   0.00    0.0
2018/10/16 19:09:10.000   45.950246573  -66.641350894   -11.2442   5   4  34.0328   7.7410  37.5141 -15.2575 -16.2179  34.9764   0.00    0.0
2018/10/16 19:09:11.000   45.950248357  -66.641349898   -10.9598   5   4  34.0927   7.7507  37.5760 -15.2835 -16.2436  35.0386   0.00    0.0
2018/10/16 19:09:12.000   45.950252734  -66.641349493   -10.7124   5   4  34.1528   7.7604  37.6381 -15.3096 -16.2694  35.1011   0.00    0.0
2018/10/16 19:09:13.000   45.950262876  -66.641353173    -9.6733   5   4  34.2131   7.7701  37.7005 -15.3357 -16.2953  35.1638   0.00    0.0
2018/10/16 19:09:14.000   45.950264249  -66.641354302    -9.6695   5   4  34.2737   7.7799  37.7631 -15.3620 -16.3213  35.2267   0.00    0.0
2018/10/16 19:09:15.000   45.950256061  -66.641353898   -10.4717   5   4  34.3344   7.7897  37.8259 -15.3883 -16.3474  35.2899   0.00    0.0
2018/10/16 19:09:16.000   45.950261316  -66.641356677    -9.7074   5   4  34.3954   7.7995  37.8890 -15.4148 -16.3736  35.3532   0.00    0.0
2018/10/16 19:09:17.000   45.950263146  -66.641358762    -9.2794   5   4  34.4566   7.8094  37.9523 -15.4413 -16.3998  35.4168   0.00    0.0
2018/10/16 19:09:18.000   45.950259523  -66.641358386    -9.4721   5   4  34.5181   7.8194  38.0159 -15.4680 -16.4262  35.4807   0.00    0.0
2018/10/16 19:09:19.000   45.950243386  -66.641351280   -11.7566   5   4  34.5798   7.8294  38.0797 -15.4947 -16.4528  35.5448   0.00    0.0
2018/10/16 19:09:20.000   45.950236242  -66.641348061   -12.4587   5   4  34.6417   7.8394  38.1437 -15.5215 -16.4794  35.6091   0.00    0.0
2018/10/16 19:09:21.000   45.950200781  -66.641335821   -16.9914   5   4  34.7038   7.8495  38.2080 -15.5485 -16.5061  35.6737   0.00    0.0
2018/10/16 19:09:22.000   45.950211759  -66.641338705   -15.7840   5   4  34.7661   7.8596  38.2725 -15.5755 -16.5329  35.7385   0.00    0.0
2018/10/16 19:09:23.000   45.950221476  -66.641341610   -14.5612   5   4  34.8287   7.8697  38.3373 -15.6026 -16.5598  35.8035   0.00    0.0
2018/10/16 19:09:24.000   45.950220150  -66.641339949   -14.5905   5   4  34.8915   7.8799  38.4024 -15.6299 -16.5868  35.8687   0.00    0.0
2018/10/16 19:09:25.000   45.950244293  -66.641350252   -11.4846   5   4  34.9545   7.8901  38.4676 -15.6572 -16.6139  35.9342   0.00    0.0
2018/10/16 19:09:26.000   45.950250794  -66.641353287   -10.6301   5   4  35.0177   7.9004  38.5331 -15.6846 -16.6411  35.9999   0.00    0.0
2018/10/16 19:09:27.000   45.950251156  -66.641352376   -10.8152   5   4  35.0812   7.9107  38.5989 -15.7121 -16.6685  36.0659   0.00    0.0
2018/10/16 19:09:28.000   45.950252731  -66.641352551   -10.7763   5   4  35.1450   7.9211  38.6650 -15.7398 -16.6959  36.1322   0.00    0.0
2018/10/16 19:09:29.000   45.950246304  -66.641350112   -11.7614   5   4  35.2089   7.9315  38.7312 -15.7675 -16.7235  36.1986   0.00    0.0
2018/10/16 19:09:30.000   45.950270072  -66.641358761    -8.9382   5   4  35.2731   7.9419  38.7978 -15.7953 -16.7511  36.2653   0.00    0.0
2018/10/16 19:09:31.000   45.950277848  -66.641360803    -8.1031   5   4  35.3375   7.9524  38.8646 -15.8233 -16.7789  36.3323   0.00    0.0
2018/10/16 19:09:32.000   45.950261686  -66.641356234   -10.0075   5   4  35.4023   7.9630  38.9317 -15.8513 -16.8068  36.3995   0.00    0.0
2018/10/16 19:09:33.000   45.950255923  -66.641353186   -10.6034   5   4  35.4672   7.9736  38.9990 -15.8795 -16.8347  36.4670   0.00    0.0
2018/10/16 19:09:34.000   45.950242687  -66.641347501   -11.8259   5   4  35.5324   7.9842  39.0666 -15.9077 -16.8628  36.5347   0.00    0.0
2018/10/16 19:09:35.000   45.950241124  -66.641348145   -11.8879   5   4  35.5978   7.9949  39.1344 -15.9361 -16.8910  36.6027   0.00    0.0
2018/10/16 19:09:36.000   45.950233993  -66.641346173   -12.9578   5   4  35.6635   8.0056  39.2025 -15.9646 -16.9194  36.6710   0.00    0.0
2018/10/16 19:09:37.000   45.950233478  -66.641346018   -13.0397   5   4  35.7294   8.0164  39.2709 -15.9931 -16.9478  36.7394   0.00    0.0
2018/10/16 19:09:38.000   45.950246556  -66.641350404   -11.6080   5   4  35.7955   8.0272  39.3396 -16.0218 -16.9763  36.8082   0.00    0.0
2018/10/16 19:09:39.000   45.950256047  -66.641352883   -10.1854   5   4  35.8619   8.0381  39.4085 -16.0506 -17.0050  36.8772   0.00    0.0
2018/10/16 19:09:40.000   45.950262242  -66.641354447    -8.9492   5   4  35.9285   8.0490  39.4777 -16.0795 -17.0337  36.9464   0.00    0.0
2018/10/16 19:09:41.000   45.950260674  -66.641354329    -9.2995   5   4  35.9955   8.0599  39.5471 -16.1085 -17.0626  37.0160   0.00    0.0
2018/10/16 19:09:42.000   45.950228576  -66.641342002   -13.4274   5   4  36.0627   8.0710  39.6169 -16.1376 -17.0916  37.0858   0.00    0.0
2018/10/16 19:09:43.000   45.950240807  -66.641344223   -11.9887   5   4  36.1301   8.0820  39.6869 -16.1668 -17.1208  37.1559   0.00    0.0
2018/10/16 19:09:44.000   45.950243799  -66.641344017   -11.8826   5   4  36.1977   8.0931  39.7572 -16.1962 -17.1500  37.2262   0.00    0.0
2018/10/16 19:09:45.000   45.950234995  -66.641341168   -13.1130   5   4  36.2657   8.1043  39.8277 -16.2256 -17.1793  37.2968   0.00    0.0
2018/10/16 19:09:46.000   45.950229297  -66.641337770   -13.9598   5   4  36.3339   8.1155  39.8986 -16.2552 -17.2088  37.3677   0.00    0.0
2018/10/16 19:09:47.000   45.950224529  -66.641338364   -14.2781   5   4  36.4024   8.1267  39.9697 -16.2849 -17.2384  37.4388   0.00    0.0
2018/10/16 19:09:48.000   45.950225115  -66.641340072   -13.6457   5   4  36.4711   8.1380  40.0411 -16.3147 -17.2681  37.5102   0.00    0.0
2018/10/16 19:09:49.000   45.950208613  -66.641335367   -15.6620   5   4  36.5401   8.1494  40.1129 -16.3446 -17.2979  37.5819   0.00    0.0
2018/10/16 19:09:50.000   45.950221129  -66.641340527   -13.8714   5   4  36.6093   8.1607  40.1848 -16.3746 -17.3279  37.6539   0.00    0.0
2018/10/16 19:09:51.000   45.950215808  -66.641338672   -15.0309   5   4  36.6789   8.1722  40.2571 -16.4047 -17.3579  37.7261   0.00    0.0
2018/10/16 19:09:52.000   45.950216869  -66.641339407   -15.3262   5   4  36.7486   8.1837  40.3297 -16.4350 -17.3881  37.7987   0.00    0.0
2018/10/16 19:09:53.000   45.950232925  -66.641345614   -13.1498   5   4  36.8187   8.1952  40.4025 -16.4653 -17.4184  37.8714   0.00    0.0
2018/10/16 19:09:54.000   45.950242281  -66.641347535   -11.9700   5   4  36.8890   8.2068  40.4757 -16.4958 -17.4489  37.9445   0.00    0.0
2018/10/16 19:09:55.000   45.950245452  -66.641347819   -11.4818   5   4  36.9596   8.2185  40.5492 -16.5264 -17.4794  38.0179   0.00    0.0
2018/10/16 19:09:56.000   45.950256703  -66.641351262    -9.9591   5   4  37.0305   8.2302  40.6229 -16.5572 -17.5101  38.0915   0.00    0.0
2018/10/16 19:09:57.000   45.950242210  -66.641345080   -12.1188   5   4  37.1017   8.2419  40.6969 -16.5880 -17.5409  38.1655   0.00    0.0
2018/10/16 19:09:58.000   45.950239397  -66.641343504   -12.6234   5   4  37.1731   8.2537  40.7713 -16.6190 -17.5719  38.2397   0.00    0.0
2018/10/16 19:09:59.000   45.950243262  -66.641345497   -11.8609   5   4  37.2448   8.2656  40.8459 -16.6501 -17.6030  38.3143   0.00    0.0
2018/10/16 19:10:00.000   45.950234923  -66.641344097   -12.7389   5   4  37.3168   8.2775  40.9209 -16.6813 -17.6341  38.3891   0.00    0.0
2018/10/16 19:10:01.000   45.950229982  -66.641341603   -13.4715   5   4  37.3891   8.2895  40.9962 -16.7126 -17.6655  38.4642   0.00    0.0
2018/10/16 19:10:02.000   45.950220154  -66.641337104   -15.0303   5   4  37.4617   8.3015  41.0717 -16.7441 -17.6969  38.5396   0.00    0.0
2018/10/16 19:10:03.000   45.950222616  -66.641337839   -14.9642   5   4  37.5346   8.3136  41.1476 -16.7757 -17.7285  38.6154   0.00    0.0
2018/10/16 19:10:04.000   45.950237849  -66.641341800   -13.2154   5   4  37.6077   8.3257  41.2238 -16.8074 -17.7602  38.6914   0.00    0.0
2018/10/16 19:10:05.000   45.950236731  -66.641340925   -13.4280   5   4  37.6811   8.3379  41.3003 -16.8392 -17.7921  38.7677   0.00    0.0
2018/10/16 19:10:06.000   45.950217038  -66.641334026   -16.6135   5   4  37.7549   8.3501  41.3771 -16.8712 -17.8241  38.8443   0.00    0.0
2018/10/16 19:10:07.000   45.950210819  -66.641332291   -17.1655   5   4  37.8289   8.3624  41.4543 -16.9032 -17.8562  38.9212   0.00    0.0
2018/10/16 19:10:08.000   45.950222109  -66.641335937   -15.4021   5   4  37.9032   8.3747  41.5317 -16.9354 -17.8884  38.9985   0.00    0.0
2018/10/16 19:10:09.000   45.950230675  -66.641338062   -14.2878   5   4  37.9778   8.3871  41.6095 -16.9678 -17.9208  39.0760   0.00    0.0
2018/10/16 19:10:10.000   45.950238479  -66.641340799   -12.9602   5   4  38.0528   8.3996  41.6876 -17.0003 -17.9533  39.1538   0.00    0.0
2018/10/16 19:10:11.000   45.950242610  -66.641341018   -12.6593   5   4  38.1280   8.4121  41.7660 -17.0329 -17.9860  39.2320   0.00    0.0
2018/10/16 19:10:12.000   45.950246741  -66.641341984   -12.1288   5   4  38.2035   8.4246  41.8448 -17.0656 -18.0188  39.3105   0.00    0.0
2018/10/16 19:10:13.000   45.950246985  -66.641341551   -12.5415   5   4  38.2793   8.4373  41.9239 -17.0985 -18.0517  39.3893   0.00    0.0
2018/10/16 19:10:14.000   45.950247518  -66.641341022   -12.5541   5   4  38.3554   8.4499  42.0033 -17.1314 -18.0848  39.4684   0.00    0.0
2018/10/16 19:10:15.000   45.950229831  -66.641334278   -15.1083   5   4  38.4319   8.4627  42.0830 -17.1646 -18.1180  39.5478   0.00    0.0
2018/10/16 19:10:16.000   45.950253403  -66.641343011   -12.0819   5   4  38.5086   8.4755  42.1631 -17.1978 -18.1513  39.6276   0.00    0.0
2018/10/16 19:10:17.000   45.950265306  -66.641346295   -10.6589   5   4  38.5857   8.4883  42.2435 -17.2312 -18.1848  39.7076   0.00    0.0
2018/10/16 19:10:18.000   45.950281480  -66.641352590    -8.3238   5   4  38.6630   8.5012  42.3243 -17.2648 -18.2184  39.7880   0.00    0.0
2018/10/16 19:10:19.000   45.950304575  -66.641361156    -5.2780   5   4  38.7407   8.5142  42.4054 -17.2984 -18.2522  39.8688   0.00    0.0
2018/10/16 19:10:20.000   45.950316294  -66.641365663    -3.4397   5   4  38.8187   8.5272  42.4868 -17.3322 -18.2861  39.9498   0.00    0.0
2018/10/16 19:10:21.000   45.950307696  -66.641361889    -4.5601   5   4  38.8971   8.5403  42.5686 -17.3662 -18.3202  40.0312   0.00    0.0
2018/10/16 19:10:22.000   45.950273044  -66.641349545    -9.1164   5   4  38.9758   8.5535  42.6508 -17.4003 -18.3544  40.1130   0.00    0.0
2018/10/16 19:10:23.000   45.950259555  -66.641345504   -11.0885   5   4  39.0548   8.5667  42.7332 -17.4345 -18.3888  40.1951   0.00    0.0
2018/10/16 19:10:24.000   45.950261597  -66.641345926   -10.7264   5   4  39.1341   8.5800  42.8161 -17.4689 -18.4233  40.2775   0.00    0.0
2018/10/16 19:10:25.000   45.950257501  -66.641345736   -11.0483   5   4  39.2137   8.5933  42.8993 -17.5034 -18.4579  40.3602   0.00    0.0
2018/10/16 19:10:26.000   45.950254594  -66.641345805   -11.2392   5   4  39.2937   8.6067  42.9828 -17.5381 -18.4927  40.4433   0.00    0.0
2018/10/16 19:10:27.000   45.950248117  -66.641342559   -12.1335   5   4  39.3740   8.6202  43.0667 -17.5729 -18.5277  40.5268   0.00    0.0
2018/10/16 19:10:28.000   45.950236835  -66.641339290   -13.8330   5   4  39.4547   8.6337  43.1510 -17.6078 -18.5628  40.6106   0.00    0.0
2018/10/16 19:10:29.000   45.950219167  -66.641331900   -16.1811   5   4  39.5357   8.6473  43.2356 -17.6429 -18.5981  40.6947   0.00    0.0
2018/10/16 19:10:30.000   45.950194534  -66.641321000   -19.3434   5   4  39.6170   8.6610  43.3206 -17.6782 -18.6335  40.7793   0.00    0.0
2018/10/16 19:10:31.000   45.950206668  -66.641322081   -17.9235   5   4  39.6986   8.6747  43.4060 -17.7136 -18.6691  40.8641   0.00    0.0
2018/10/16 19:10:32.000   45.950194521  -66.641316365   -19.6588   5   4  39.7807   8.6884  43.4917 -17.7491 -18.7048  40.9493   0.00    0.0
2018/10/16 19:10:33.000   45.950216420  -66.641322908   -17.0675   5   4  39.8630   8.7023  43.5778 -17.7848 -18.7407  41.0348   0.00    0.0
2018/10/16 19:10:34.000   45.950237043  -66.641329233   -14.5577   5   4  39.9456   8.7162  43.6643 -17.8206 -18.7767  41.1207   0.00    0.0
2018/10/16 19:10:35.000   45.950241257  -66.641330604   -14.2599   5   4  40.0286   8.7301  43.7512 -17.8566 -18.8129  41.2070   0.00    0.0
2018/10/16 19:10:36.000   45.950233833  -66.641328839   -15.1291   5   4  40.1120   8.7442  43.8384 -17.8927 -18.8492  41.2937   0.00    0.0
2018/10/16 19:10:37.000   45.950246898  -66.641332203   -13.2033   5   4  40.1958   8.7583  43.9260 -17.9290 -18.8858  41.3807   0.00    0.0
2018/10/16 19:10:38.000   45.950278523  -66.641343690    -9.3746   5   4  40.2798   8.7724  44.0140 -17.9654 -18.9224  41.4680   0.00    0.0
2018/10/16 19:10:39.000   45.950282710  -66.641345922    -8.8517   5   4  40.3643   8.7867  44.1024 -18.0020 -18.9593  41.5558   0.00    0.0
2018/10/16 19:10:40.000   45.950280396  -66.641346493    -9.0930   5   4  40.4491   8.8010  44.1912 -18.0388 -18.9963  41.6439   0.00    0.0
2018/10/16 19:10:41.000   45.950286471  -66.641347580    -8.1596   5   4  40.5342   8.8154  44.2803 -18.0757 -19.0334  41.7324   0.00    0.0
2018/10/16 19:10:42.000   45.950274552  -66.641344824    -9.5164   5   4  40.6198   8.8298  44.3699 -18.1127 -19.0708  41.8213   0.00    0.0
2018/10/16 19:10:43.000   45.950288080  -66.641350300    -8.0270   5   4  40.7057   8.8443  44.4598 -18.1500 -19.1082  41.9106   0.00    0.0
2018/10/16 19:10:44.000   45.950294715  -66.641354570    -7.1692   5   4  40.7920   8.8589  44.5502 -18.1874 -19.1459  42.0002   0.00    0.0
2018/10/16 19:10:45.000   45.950289779  -66.641353888    -7.7132   5   4  40.8786   8.8735  44.6410 -18.2249 -19.1837  42.0903   0.00    0.0
2018/10/16 19:10:46.000   45.950316029  -66.641362708    -4.4451   5   4  40.9656   8.8882  44.7321 -18.2626 -19.2217  42.1807   0.00    0.0
2018/10/16 19:10:47.000   45.950299928  -66.641354597    -6.5894   5   4  41.0530   8.9030  44.8237 -18.3005 -19.2599  42.2715   0.00    0.0
2018/10/16 19:10:48.000   45.950301868  -66.641354389    -6.5438   5   4  41.1408   8.9179  44.9157 -18.3385 -19.2983  42.3627   0.00    0.0
2018/10/16 19:10:49.000   45.950301384  -66.641352174    -6.9551   5   4  41.2290   8.9328  45.0081 -18.3767 -19.3368  42.4543   0.00    0.0
2018/10/16 19:10:50.000   45.950273664  -66.641342536   -10.5943   5   4  41.3176   8.9478  45.1009 -18.4151 -19.3755  42.5464   0.00    0.0
2018/10/16 19:10:51.000   45.950281868  -66.641345045    -9.7462   5   4  41.4065   8.9629  45.1941 -18.4536 -19.4143  42.6388   0.00    0.0
2018/10/16 19:10:52.000   45.950259277  -66.641339125   -12.6081   5   4  41.4959   8.9780  45.2878 -18.4924 -19.4534  42.7316   0.00    0.0
2018/10/16 19:10:53.000   45.950241787  -66.641333155   -14.7976   5   4  41.5856   8.9933  45.3818 -18.5313 -19.4926  42.8249   0.00    0.0
2018/10/16 19:10:54.000   45.950238389  -66.641331517   -15.2229   5   4  41.6758   9.0086  45.4763 -18.5703 -19.5320  42.9185   0.00    0.0
2018/10/16 19:10:55.000   45.950211816  -66.641323878   -18.5562   5   4  41.7663   9.0239  45.5712 -18.6095 -19.5716  43.0126   0.00    0.0
2018/10/16 19:10:56.000   45.950216187  -66.641326063   -17.5446   5   4  41.8572   9.0394  45.6666 -18.6489 -19.6114  43.1071   0.00    0.0
2018/10/16 19:10:57.000   45.950229257  -66.641330149   -15.6194   5   4  41.9485   9.0549  45.7624 -18.6885 -19.6513  43.2019   0.00    0.0
2018/10/16 19:10:58.000   45.950232094  -66.641334007   -15.2982   5   4  42.0403   9.0705  45.8586 -18.7282 -19.6914  43.2972   0.00    0.0
2018/10/16 19:10:59.000   45.950229319  -66.641334875   -15.5799   5   4  42.1324   9.0862  45.9553 -18.7681 -19.7317  43.3930   0.00    0.0
2018/10/16 19:11:00.000   45.950252364  -66.641343176   -13.0101   5   4  42.2249   9.1019  46.0524 -18.8082 -19.7722  43.4891   0.00    0.0
2018/10/16 19:11:01.000   45.950266181  -66.641348605   -10.9116   5   4  42.3178   9.1177  46.1499 -18.8485 -19.8129  43.5857   0.00    0.0
2018/10/16 19:11:02.000   45.950245002  -66.641341319   -13.4457   5   4  42.4112   9.1336  46.2479 -18.8890 -19.8538  43.6827   0.00    0.0
2018/10/16 19:11:03.000   45.950223574  -66.641333037   -15.9874   5   4  42.5051   9.1496  46.3464 -18.9296 -19.8949  43.7802   0.00    0.0
2018/10/16 19:11:04.000   45.950220007  -66.641332247   -16.6789   5   4  42.5993   9.1657  46.4453 -18.9704 -19.9361  43.8781   0.00    0.0
2018/10/16 19:11:05.000   45.950216817  -66.641333863   -16.8514   5   4  42.6939   9.1818  46.5447 -19.0114 -19.9776  43.9764   0.00    0.0
2018/10/16 19:11:06.000   45.950210909  -66.641332868   -17.5121   5   4  42.7890   9.1980  46.6445 -19.0526 -20.0192  44.0752   0.00    0.0
2018/10/16 19:11:07.000   45.950217916  -66.641334229   -16.7943   5   4  42.8845   9.2143  46.7448 -19.0940 -20.0610  44.1744   0.00    0.0
2018/10/16 19:11:08.000   45.950228727  -66.641337452   -15.8167   5   4  42.9804   9.2307  46.8456 -19.1356 -20.1031  44.2741   0.00    0.0
2018/10/16 19:11:09.000   45.950264443  -66.641349019   -11.0478   5   4  43.0767   9.2472  46.9468 -19.1773 -20.1453  44.3742   0.00    0.0
2018/10/16 19:11:10.000   45.950258135  -66.641346308   -11.5384   5   4  43.1735   9.2637  47.0485 -19.2192 -20.1877  44.4748   0.00    0.0
2018/10/16 19:11:11.000   45.950265701  -66.641347478   -10.4700   5   4  43.2708   9.2803  47.1507 -19.2614 -20.2303  44.5758   0.00    0.0
2018/10/16 19:11:12.000   45.950271972  -66.641348209    -9.9621   5   4  43.3685   9.2971  47.2534 -19.3037 -20.2732  44.6773   0.00    0.0
2018/10/16 19:11:13.000   45.950267148  -66.641346313   -10.5660   5   4  43.4666   9.3139  47.3565 -19.3462 -20.3162  44.7793   0.00    0.0
2018/10/16 19:11:14.000   45.950254830  -66.641343043   -12.1038   5   4  43.5652   9.3307  47.4602 -19.3889 -20.3594  44.8818   0.00    0.0
2018/10/16 19:11:15.000   45.950243441  -66.641339768   -13.1241   5   4  43.6643   9.3477  47.5643 -19.4319 -20.4029  44.9847   0.00    0.0
2018/10/16 19:11:16.000   45.950257495  -66.641345383   -10.8418   5   4  43.7638   9.3648  47.6689 -19.4750 -20.4465  45.0881   0.00    0.0
2018/10/16 19:11:17.000   45.950274638  -66.641351838    -8.2563   5   4  43.8637   9.3819  47.7740 -19.5183 -20.4904  45.1919   0.00    0.0
2018/10/16 19:11:18.000   45.950262009  -66.641346943    -9.7668   5   4  43.9642   9.3991  47.8796 -19.5618 -20.5344  45.2963   0.00    0.0
2018/10/16 19:11:19.000   45.950252965  -66.641344270   -10.9702   5   4  44.0651   9.4164  47.9858 -19.6055 -20.5787  45.4012   0.00    0.0
2018/10/16 19:11:20.000   45.950221812  -66.641333368   -14.9046   5   4  44.1666   9.4338  48.0924 -19.6494 -20.6232  45.5065   0.00    0.0
2018/10/16 19:11:21.000   45.950202352  -66.641325867   -17.6690   5   4  44.2684   9.4513  48.1996 -19.6936 -20.6679  45.6124   0.00    0.0
2018/10/16 19:11:22.000   45.950203111  -66.641326141   -18.1039   5   4  44.3708   9.4689  48.3072 -19.7379 -20.7128  45.7187   0.00    0.0
2018/10/16 19:11:23.000   45.950196041  -66.641320323   -19.1533   5   4  44.4736   9.4866  48.4154 -19.7825 -20.7580  45.8255   0.00    0.0
2018/10/16 19:11:24.000   45.950217282  -66.641328184   -16.8213   5   4  44.5768   9.5043  48.5241 -19.8272 -20.8033  45.9328   0.00    0.0
2018/10/16 19:11:25.000   45.950228423  -66.641332162   -15.2689   5   4  44.6806   9.5222  48.6333 -19.8721 -20.8489  46.0406   0.00    0.0
2018/10/16 19:11:26.000   45.950236737  -66.641333203   -14.3277   5   4  44.7849   9.5401  48.7431 -19.9173 -20.8947  46.1490   0.00    0.0
2018/10/16 19:11:27.000   45.950235546  -66.641333279   -14.4745   5   4  44.8896   9.5581  48.8534 -19.9627 -20.9407  46.2578   0.00    0.0
2018/10/16 19:11:28.000   45.950232778  -66.641331954   -14.9373   5   4  44.9949   9.5763  48.9642 -20.0083 -20.9870  46.3672   0.00    0.0
2018/10/16 19:11:29.000   45.950245437  -66.641337124   -13.2294   5   4  45.1007   9.5945  49.0756 -20.0541 -21.0334  46.4771   0.00    0.0
2018/10/16 19:11:30.000   45.950248490  -66.641337982   -12.8699   5   4  45.2069   9.6128  49.1875 -20.1001 -21.0801  46.5875   0.00    0.0
2018/10/16 19:11:31.000   45.950250795  -66.641340753   -11.8341   5   4  45.3137   9.6312  49.2999 -20.1464 -21.1271  46.6984   0.00    0.0
2018/10/16 19:11:32.000   45.950262778  -66.641345962    -9.8667   5   4  45.4210   9.6497  49.4130 -20.1929 -21.1742  46.8099   0.00    0.0
2018/10/16 19:11:33.000   45.950274384  -66.641350036    -8.2686   5   4  45.5288   9.6683  49.5265 -20.2396 -21.2216  46.9219   0.00    0.0
2018/10/16 19:11:34.000   45.950271222  -66.641351500    -8.5126   5   4  45.6371   9.6870  49.6407 -20.2865 -21.2693  47.0344   0.00    0.0
2018/10/16 19:11:35.000   45.950269529  -66.641351020    -8.9013   5   4  45.7460   9.7058  49.7554 -20.3336 -21.3171  47.1475   0.00    0.0
2018/10/16 19:11:36.000   45.950267355  -66.641350499    -9.1669   5   4  45.8554   9.7247  49.8706 -20.3810 -21.3652  47.2612   0.00    0.0
2018/10/16 19:11:37.000   45.950249118  -66.641344320   -11.3879   5   4  45.9653   9.7437  49.9865 -20.4287 -21.4136  47.3754   0.00    0.0
2018/10/16 19:11:38.000   45.950273368  -66.641352633    -8.3454   5   4  46.0757   9.7628  50.1029 -20.4765 -21.4622  47.4901   0.00    0.0
2018/10/16 19:11:39.000   45.950275901  -66.641353989    -8.2376   5   4  46.1867   9.7820  50.2199 -20.5246 -21.5110  47.6055   0.00    0.0
2018/10/16 19:11:40.000   45.950272653  -66.641351631    -8.7652   5   4  46.2982   9.8013  50.3375 -20.5729 -21.5601  47.7213   0.00    0.0
2018/10/16 19:11:41.000   45.950270252  -66.641350690    -9.1798   5   4  46.4103   9.8207  50.4557 -20.6214 -21.6094  47.8378   0.00    0.0
2018/10/16 19:11:42.000   45.950236093  -66.641338284   -13.4797   5   4  46.5230   9.8402  50.5744 -20.6702 -21.6590  47.9549   0.00    0.0
2018/10/16 19:11:43.000   45.950230517  -66.641337125   -14.4508   5   4  46.6362   9.8598  50.6938 -20.7193 -21.7088  48.0725   0.00    0.0
2018/10/16 19:11:44.000   45.950221454  -66.641331907   -16.1082   5   4  46.7500   9.8795  50.8138 -20.7686 -21.7589  48.1906   0.00    0.0
2018/10/16 19:11:45.000   45.950226930  -66.641334191   -15.5953   5   4  46.8643   9.8993  50.9344 -20.8181 -21.8092  48.3094   0.00    0.0
2018/10/16 19:11:46.000   45.950214643  -66.641328622   -17.0798   5   4  46.9792   9.9193  51.0556 -20.8678 -21.8598  48.4288   0.00    0.0
2018/10/16 19:11:47.000   45.950206138  -66.641327418   -17.8459   5   4  47.0947   9.9393  51.1774 -20.9179 -21.9107  48.5487   0.00    0.0
2018/10/16 19:11:48.000   45.950209455  -66.641328844   -17.2435   5   4  47.2107   9.9594  51.2998 -20.9681 -21.9618  48.6693   0.00    0.0
2018/10/16 19:11:49.000   45.950210684  -66.641330725   -16.5909   5   4  47.3273   9.9797  51.4229 -21.0186 -22.0132  48.7904   0.00    0.0
2018/10/16 19:11:50.000   45.950207285  -66.641330939   -16.6436   5   4  47.4445  10.0000  51.5466 -21.0694 -22.0648  48.9122   0.00    0.0
2018/10/16 19:11:51.000   45.950222832  -66.641337232   -14.3838   5   4  47.5623  10.0205  51.6709 -21.1204 -22.1167  49.0345   0.00    0.0
2018/10/16 19:11:52.000   45.950235820  -66.641341964   -12.6311   5   4  47.6806  10.0411  51.7958 -21.1717 -22.1688  49.1575   0.00    0.0
2018/10/16 19:11:53.000   45.950240036  -66.641343938   -11.9788   5   4  47.7996  10.0618  51.9215 -21.2232 -22.2213  49.2811   0.00    0.0
2018/10/16 19:11:54.000   45.950243747  -66.641343876   -11.6943   5   4  47.9192  10.0826  52.0477 -21.2750 -22.2740  49.4054   0.00    0.0
2018/10/16 19:11:55.000   45.950242389  -66.641342998   -12.0074   5   4  48.0394  10.1035  52.1746 -21.3270 -22.3270  49.5302   0.00    0.0
2018/10/16 19:11:56.000   45.950244153  -66.641344517   -12.0754   5   4  48.1602  10.1245  52.3022 -21.3794 -22.3802  49.6557   0.00    0.0
2018/10/16 19:11:57.000   45.950252141  -66.641346521   -11.1063   5   4  48.2816  10.1457  52.4305 -21.4319 -22.4338  49.7819   0.00    0.0
2018/10/16 19:11:58.000   45.950233344  -66.641339442   -13.6781   5   4  48.4036  10.1669  52.5594 -21.4848 -22.4876  49.9087   0.00    0.0
2018/10/16 19:11:59.000   45.950228690  -66.641337356   -14.1922   5   4  48.5263  10.1883  52.6890 -21.5380 -22.5417  50.0361   0.00    0.0
2018/10/16 19:12:00.000   45.950261386  -66.641349022   -10.0932   5   4  48.6496  10.2098  52.8192 -21.5913 -22.5961  50.1642   0.00    0.0
2018/10/16 19:12:01.000   45.950289199  -66.641358404    -6.4572   5   4  48.7734  10.2314  52.9502 -21.6450 -22.6508  50.2929   0.00    0.0
2018/10/16 19:12:02.000   45.950326692  -66.641370319    -1.5850   5   4  48.8979  10.2532  53.0818 -21.6989 -22.7057  50.4223   0.00    0.0
2018/10/16 19:12:03.000   45.950309106  -66.641365462    -3.6552   5   4  49.0232  10.2750  53.2142 -21.7532 -22.7610  50.5524   0.00    0.0
2018/10/16 19:12:04.000   45.950289233  -66.641358827    -6.1749   5   4  49.1491  10.2970  53.3472 -21.8077 -22.8165  50.6832   0.00    0.0
2018/10/16 19:12:05.000   45.950263097  -66.641351782    -9.4433   5   4  49.2757  10.3191  53.4810 -21.8625 -22.8724  50.8147   0.00    0.0
2018/10/16 19:12:06.000   45.950263773  -66.641352073    -9.4858   5   4  49.4029  10.3413  53.6155 -21.9176 -22.9285  50.9468   0.00    0.0
2018/10/16 19:12:07.000   45.950267214  -66.641353007    -9.3027   5   4  49.5307  10.3637  53.7506 -21.9730 -22.9850  51.0796   0.00    0.0
2018/10/16 19:12:08.000   45.950256799  -66.641348430   -10.6208   5   4  49.6593  10.3862  53.8866 -22.0287 -23.0417  51.2132   0.00    0.0
2018/10/16 19:16:26.000   45.950446879  -66.641194336    -1.5915   5   5   4.3155   3.1640   8.8222   1.4439  -2.0694  -2.5722   0.00    0.0
2018/10/16 19:16:27.000   45.950476021  -66.641202696    -1.8347   5   5   4.3152   3.1638   8.8231   1.4430  -2.0677  -2.5708   0.00    0.0
2018/10/16 19:16:28.000   45.950499392  -66.641226915    -1.5975   5   5   4.3150   3.1635   8.8240   1.4420  -2.0661  -2.5694   0.00    0.0
2018/10/16 19:16:29.000   45.950516815  -66.641257318    -1.8012   5   5   4.3147   3.1632   8.8248   1.4411  -2.0644  -2.5680   0.00    0.0
2018/10/16 19:16:30.000   45.950530106  -66.641287578    -1.6480   5   5   4.3144   3.1630   8.8257   1.4402  -2.0627  -2.5666   0.00    0.0
2018/10/16 19:16:31.000   45.950542605  -66.641319881    -1.7069   5   5   4.3141   3.1627   8.8265   1.4392  -2.0610  -2.5652   0.00    0.0
2018/10/16 19:16:32.000   45.950558963  -66.641359067    -1.6128   5   5   4.3138   3.1625   8.8274   1.4383  -2.0594  -2.5638   0.00    0.0
2018/10/16 19:16:33.000   45.950577484  -66.641402771    -1.6004   5   5   4.3136   3.1622   8.8283   1.4373  -2.0577  -2.5624   0.00    0.0
2018/10/16 19:16:34.000   45.950597472  -66.641450749    -1.5036   5   5   4.3133   3.1619   8.8291   1.4364  -2.0560  -2.5610   0.00    0.0
2018/10/16 19:16:35.000   45.950617518  -66.641499767    -1.5655   5   5   4.3130   3.1617   8.8300   1.4354  -2.0543  -2.5596   0.00    0.0
2018/10/16 19:16:36.000   45.950638400  -66.641552111    -1.5644   5   5   4.3127   3.1614   8.8309   1.4345  -2.0527  -2.5582   0.00    0.0
2018/10/16 19:16:37.000   45.950662185  -66.641604699    -1.5992   5   5   4.3125   3.1611   8.8317   1.4336  -2.0510  -2.5568   0.00    0.0
2018/10/16 19:16:38.000   45.950678826  -66.641654130    -1.9426   5   5   4.3122   3.1609   8.8326   1.4326  -2.0493  -2.5553   0.00    0.0
2018/10/16 19:16:39.000   45.950702504  -66.641704450    -1.7117   5   5   4.3119   3.1606   8.8335   1.4317  -2.0476  -2.5539   0.00    0.0
2018/10/16 19:16:40.000   45.950719830  -66.641750789    -1.6595   5   5   4.3116   3.1604   8.8343   1.4307  -2.0459  -2.5525   0.00    0.0
2018/10/16 19:16:41.000   45.950737730  -66.641796621    -1.6177   5   5   4.3113   3.1601   8.8352   1.4298  -2.0442  -2.5511   0.00    0.0
2018/10/16 19:16:42.000   45.950751967  -66.641842809    -1.9031   5   5   4.3111   3.1598   8.8360   1.4288  -2.0426  -2.5497   0.00    0.0
2018/10/16 19:16:43.000   45.950756716  -66.641888222    -1.6496   5   5   4.3108   3.1596   8.8369   1.4279  -2.0409  -2.5483   0.00    0.0
2018/10/16 19:16:44.000   45.950751282  -66.641928383    -1.5171   5   5   4.3105   3.1593   8.8378   1.4269  -2.0392  -2.5468   0.00    0.0
2018/10/16 19:16:45.000   45.950741922  -66.641961410    -1.5170   5   5   4.3102   3.1591   8.8387   1.4260  -2.0375  -2.5454   0.00    0.0
2018/10/16 19:16:46.000   45.950730251  -66.641985084    -1.3049   5   5   4.3100   3.1588   8.8395   1.4250  -2.0358  -2.5440   0.00    0.0
2018/10/16 19:16:47.000   45.950718257  -66.642001585    -1.3656   5   5   4.3097   3.1585   8.8404   1.4241  -2.0341  -2.5426   0.00    0.0
2018/10/16 19:16:48.000   45.950706635  -66.642012032    -1.2885   5   5   4.3094   3.1583   8.8413   1.4232  -2.0324  -2.5411   0.00    0.0
2018/10/16 19:16:49.000   45.950693493  -66.642017122    -1.3630   5   5   4.3091   3.1580   8.8421   1.4222  -2.0307  -2.5397   0.00    0.0
