% program   : RTKPOST ver.2.4.2
% inp file  : Z:\home\emerson\Desktop\Connected_folders\gnssins\data\CAR_2890.18O
% inp file  : Z:\home\emerson\Desktop\Connected_folders\gnssins\data\CAR_2890.18N
% obs start : 2018/10/16 19:05:36.0 GPST (week2023 241536.0s)
% obs end   : 2018/10/16 20:01:25.0 GPST (week2023 244885.0s)
% pos mode  : single
% elev mask : 15.0 deg
% ionos opt : iono-free
% tropo opt : saastamoinen
% ephemeris : broadcast
% navi sys  : gps glonass
%
% (lat/lon/height=WGS84/ellipsoidal,Q=1:fix,2:float,3:sbas,4:dgps,5:single,6:ppp,ns=# of satellites)
%  GPST                  latitude(deg) longitude(deg)  height(m)   Q  ns   sdn(m)   sde(m)   sdu(m)  sdne(m)  sdeu(m)  sdun(m) age(s)  ratio
2018/10/16 19:05:36.000   45.950339888  -66.641364206    -0.1010   5   4  22.6832   5.8307  24.9861 -10.3228 -11.2454  22.8677   0.00    0.0
2018/10/16 19:05:37.000   45.950350714  -66.641371358     1.8054   5   4  22.7120   5.8347  25.0149 -10.3354 -11.2571  22.8977   0.00    0.0
2018/10/16 19:05:38.000   45.950328783  -66.641362127    -2.1615   5   4  22.7409   5.8387  25.0437 -10.3481 -11.2688  22.9278   0.00    0.0
2018/10/16 19:05:39.000   45.950304312  -66.641354180    -5.6339   5   4  22.7698   5.8428  25.0727 -10.3608 -11.2805  22.9579   0.00    0.0
2018/10/16 19:05:40.000   45.950281968  -66.641344317    -7.8909   5   4  22.7988   5.8469  25.1017 -10.3735 -11.2923  22.9882   0.00    0.0
2018/10/16 19:05:41.000   45.950269614  -66.641337949    -9.9129   5   4  22.8279   5.8510  25.1308 -10.3862 -11.3041  23.0185   0.00    0.0
2018/10/16 19:05:42.000   45.950269354  -66.641335960    -9.3135   5   4  22.8571   5.8551  25.1599 -10.3990 -11.3160  23.0489   0.00    0.0
2018/10/16 19:05:43.000   45.950280392  -66.641333783    -7.8100   5   4  22.8863   5.8592  25.1892 -10.4119 -11.3278  23.0793   0.00    0.0
2018/10/16 19:05:44.000   45.950299521  -66.641342356    -4.3332   5   4  22.9156   5.8633  25.2185 -10.4247 -11.3397  23.1099   0.00    0.0
2018/10/16 19:05:45.000   45.950322307  -66.641353570    -0.8874   5   4  22.9449   5.8675  25.2479 -10.4376 -11.3517  23.1405   0.00    0.0
2018/10/16 19:05:46.000   45.950314306  -66.641355314    -2.3353   5   4  22.9744   5.8716  25.2774 -10.4505 -11.3637  23.1712   0.00    0.0
2018/10/16 19:05:47.000   45.950310020  -66.641357199    -3.4211   5   4  23.0039   5.8758  25.3070 -10.4635 -11.3757  23.2020   0.00    0.0
2018/10/16 19:05:48.000   45.950318029  -66.641362164    -2.4300   5   4  23.0336   5.8800  25.3367 -10.4765 -11.3877  23.2328   0.00    0.0
2018/10/16 19:05:49.000   45.950310375  -66.641359589    -3.2648   5   4  23.0632   5.8842  25.3665 -10.4895 -11.3998  23.2638   0.00    0.0
2018/10/16 19:05:50.000   45.950304074  -66.641364784    -3.7313   5   4  23.0930   5.8884  25.3963 -10.5025 -11.4120  23.2948   0.00    0.0
2018/10/16 19:05:51.000   45.950292230  -66.641359521    -5.8503   5   4  23.1229   5.8927  25.4262 -10.5156 -11.4241  23.3260   0.00    0.0
2018/10/16 19:05:52.000   45.950301359  -66.641359641    -4.8970   5   4  23.1528   5.8969  25.4562 -10.5288 -11.4363  23.3571   0.00    0.0
2018/10/16 19:05:53.000   45.950323856  -66.641364238    -1.3137   5   4  23.1828   5.9012  25.4863 -10.5419 -11.4486  23.3884   0.00    0.0
2018/10/16 19:05:54.000   45.950313123  -66.641357313    -2.6245   5   4  23.2129   5.9055  25.5165 -10.5551 -11.4608  23.4198   0.00    0.0
2018/10/16 19:05:55.000   45.950324560  -66.641363133    -1.5000   5   4  23.2430   5.9098  25.5468 -10.5683 -11.4731  23.4512   0.00    0.0
2018/10/16 19:05:56.000   45.950302220  -66.641355127    -4.6013   5   4  23.2733   5.9141  25.5771 -10.5816 -11.4855  23.4828   0.00    0.0
2018/10/16 19:05:57.000   45.950293817  -66.641346787    -6.1903   5   4  23.3036   5.9184  25.6076 -10.5949 -11.4979  23.5144   0.00    0.0
2018/10/16 19:05:58.000   45.950307751  -66.641348387    -4.4112   5   4  23.3340   5.9227  25.6381 -10.6082 -11.5103  23.5461   0.00    0.0
2018/10/16 19:05:59.000   45.950317370  -66.641351263    -3.1397   5   4  23.3645   5.9271  25.6687 -10.6216 -11.5227  23.5778   0.00    0.0
2018/10/16 19:06:00.000   45.950305784  -66.641351661    -4.5745   5   4  23.3951   5.9315  25.6994 -10.6350 -11.5352  23.6097   0.00    0.0
2018/10/16 19:06:01.000   45.950334257  -66.641362999    -0.3157   5   4  23.4257   5.9358  25.7302 -10.6484 -11.5478  23.6416   0.00    0.0
2018/10/16 19:06:02.000   45.950330939  -66.641367784    -1.3667   5   4  23.4565   5.9402  25.7611 -10.6619 -11.5603  23.6737   0.00    0.0
2018/10/16 19:06:03.000   45.950326915  -66.641369379    -1.7075   5   4  23.4873   5.9447  25.7921 -10.6754 -11.5730  23.7058   0.00    0.0
2018/10/16 19:06:04.000   45.950359301  -66.641383008     3.2578   5   4  23.5181   5.9491  25.8232 -10.6890 -11.5856  23.7380   0.00    0.0
2018/10/16 19:06:05.000   45.950342267  -66.641379904     1.5780   5   4  23.5491   5.9535  25.8543 -10.7025 -11.5983  23.7703   0.00    0.0
2018/10/16 19:06:06.000   45.950314381  -66.641369867    -2.2061   5   4  23.5802   5.9580  25.8855 -10.7162 -11.6110  23.8027   0.00    0.0
2018/10/16 19:06:07.000   45.950315394  -66.641368192    -1.8916   5   4  23.6114   5.9625  25.9169 -10.7298 -11.6238  23.8351   0.00    0.0
2018/10/16 19:06:08.000   45.950308067  -66.641367873    -3.4350   5   4  23.6426   5.9670  25.9483 -10.7435 -11.6366  23.8677   0.00    0.0
2018/10/16 19:06:09.000   45.950277877  -66.641358351    -6.9247   5   4  23.6740   5.9715  25.9798 -10.7573 -11.6494  23.9004   0.00    0.0
2018/10/16 19:06:10.000   45.950279141  -66.641363349    -6.1735   5   4  23.7054   5.9760  26.0114 -10.7710 -11.6623  23.9331   0.00    0.0
2018/10/16 19:06:11.000   45.950300984  -66.641374359    -2.6364   5   4  23.7368   5.9806  26.0431 -10.7848 -11.6752  23.9659   0.00    0.0
2018/10/16 19:06:12.000   45.950256434  -66.641358603    -8.6840   5   4  23.7684   5.9851  26.0749 -10.7987 -11.6882  23.9988   0.00    0.0
2018/10/16 19:06:13.000   45.950242732  -66.641354808   -10.1429   5   4  23.8001   5.9897  26.1068 -10.8125 -11.7012  24.0318   0.00    0.0
2018/10/16 19:06:14.000   45.950223987  -66.641345783   -11.1723   5   4  23.8319   5.9943  26.1388 -10.8265 -11.7142  24.0649   0.00    0.0
2018/10/16 19:06:15.000   45.950220750  -66.641340675   -11.1818   5   4  23.8637   5.9989  26.1708 -10.8404 -11.7273  24.0981   0.00    0.0
2018/10/16 19:06:16.000   45.950230909  -66.641344522    -9.3738   5   4  23.8956   6.0035  26.2030 -10.8544 -11.7404  24.1314   0.00    0.0
2018/10/16 19:06:17.000   45.950263401  -66.641357351    -5.0035   5   4  23.9276   6.0082  26.2352 -10.8684 -11.7536  24.1647   0.00    0.0
2018/10/16 19:06:18.000   45.950263980  -66.641359448    -5.2361   5   4  23.9597   6.0128  26.2676 -10.8825 -11.7668  24.1982   0.00    0.0
2018/10/16 19:06:19.000   45.950231496  -66.641344603    -9.9247   5   4  23.9919   6.0175  26.3000 -10.8966 -11.7800  24.2317   0.00    0.0
2018/10/16 19:06:20.000   45.950243692  -66.641346994    -7.7412   5   4  24.0242   6.0222  26.3326 -10.9107 -11.7933  24.2653   0.00    0.0
2018/10/16 19:06:21.000   45.950232340  -66.641344300    -8.8704   5   4  24.0565   6.0269  26.3652 -10.9249 -11.8066  24.2991   0.00    0.0
2018/10/16 19:06:22.000   45.950220274  -66.641337477   -10.5988   5   4  24.0890   6.0316  26.3980 -10.9391 -11.8200  24.3329   0.00    0.0
2018/10/16 19:06:23.000   45.950234863  -66.641349015    -8.2095   5   4  24.1215   6.0363  26.4308 -10.9534 -11.8334  24.3668   0.00    0.0
2018/10/16 19:06:24.000   45.950246881  -66.641352197    -5.6950   5   4  24.1541   6.0411  26.4637 -10.9676 -11.8468  24.4008   0.00    0.0
2018/10/16 19:06:25.000   45.950235319  -66.641348574    -7.2761   5   4  24.1869   6.0459  26.4968 -10.9820 -11.8603  24.4349   0.00    0.0
2018/10/16 19:06:26.000   45.950224693  -66.641350258    -8.6147   5   4  24.2197   6.0507  26.5299 -10.9964 -11.8739  24.4691   0.00    0.0
2018/10/16 19:06:27.000   45.950224482  -66.641350670    -7.9714   5   4  24.2526   6.0555  26.5631 -11.0108 -11.8874  24.5034   0.00    0.0
2018/10/16 19:06:28.000   45.950209753  -66.641343528   -10.1696   5   4  24.2856   6.0603  26.5964 -11.0252 -11.9010  24.5378   0.00    0.0
2018/10/16 19:06:29.000   45.950194349  -66.641339614   -11.8268   5   4  24.3187   6.0651  26.6298 -11.0397 -11.9147  24.5723   0.00    0.0
2018/10/16 19:06:30.000   45.950182207  -66.641334273   -12.9105   5   4  24.3519   6.0700  26.6634 -11.0543 -11.9284  24.6068   0.00    0.0
2018/10/16 19:06:31.000   45.950196176  -66.641341922   -11.2558   5   4  24.3851   6.0749  26.6970 -11.0688 -11.9421  24.6415   0.00    0.0
2018/10/16 19:06:32.000   45.950190949  -66.641340991   -12.0629   5   4  24.4185   6.0798  26.7307 -11.0834 -11.9559  24.6763   0.00    0.0
2018/10/16 19:06:33.000   45.950173775  -66.641336694   -14.2521   5   4  24.4519   6.0847  26.7645 -11.0981 -11.9697  24.7111   0.00    0.0
2018/10/16 19:06:34.000   45.950199790  -66.641346945   -10.6590   5   4  24.4855   6.0896  26.7984 -11.1128 -11.9836  24.7461   0.00    0.0
2018/10/16 19:06:35.000   45.950207589  -66.641351008    -9.3522   5   4  24.5191   6.0945  26.8325 -11.1275 -11.9975  24.7811   0.00    0.0
2018/10/16 19:06:36.000   45.950220651  -66.641351897    -7.5737   5   4  24.5528   6.0995  26.8666 -11.1423 -12.0115  24.8163   0.00    0.0
2018/10/16 19:06:37.000   45.950244151  -66.641359218    -3.7868   5   4  24.5866   6.1045  26.9008 -11.1571 -12.0255  24.8515   0.00    0.0
2018/10/16 19:06:38.000   45.950266629  -66.641370511    -0.4264   5   4  24.6206   6.1095  26.9352 -11.1719 -12.0395  24.8869   0.00    0.0
2018/10/16 19:06:39.000   45.950222436  -66.641357007    -7.0168   5   4  24.6546   6.1145  26.9696 -11.1868 -12.0536  24.9224   0.00    0.0
2018/10/16 19:06:40.000   45.950205154  -66.641350920    -9.2068   5   4  24.6887   6.1195  27.0041 -11.2018 -12.0677  24.9579   0.00    0.0
2018/10/16 19:06:41.000   45.950161464  -66.641336660   -15.3901   5   4  24.7230   6.1246  27.0388 -11.2168 -12.0819  24.9936   0.00    0.0
2018/10/16 19:06:42.000   45.950131000  -66.641326606   -18.5019   5   4  24.7573   6.1297  27.0735 -11.2318 -12.0961  25.0294   0.00    0.0
2018/10/16 19:06:43.000   45.950129940  -66.641326472   -17.9098   5   4  24.7917   6.1348  27.1084 -11.2469 -12.1104  25.0652   0.00    0.0
2018/10/16 19:06:44.000   45.950144017  -66.641332040   -15.6580   5   4  24.8262   6.1399  27.1433 -11.2620 -12.1247  25.1012   0.00    0.0
2018/10/16 19:06:45.000   45.950145328  -66.641331103   -15.1947   5   4  24.8608   6.1450  27.1784 -11.2771 -12.1391  25.1372   0.00    0.0
2018/10/16 19:06:46.000   45.950162045  -66.641336086   -12.6936   5   4  24.8955   6.1501  27.2136 -11.2923 -12.1535  25.1734   0.00    0.0
2018/10/16 19:06:47.000   45.950106884  -66.641315114   -20.1962   5   4  24.9304   6.1553  27.2488 -11.3075 -12.1679  25.2097   0.00    0.0
2018/10/16 19:06:48.000   45.950125199  -66.641322473   -19.0378   5   4  24.9653   6.1605  27.2842 -11.3228 -12.1824  25.2460   0.00    0.0
2018/10/16 19:06:49.000   45.950127221  -66.641321931   -18.6586   5   4  25.0003   6.1657  27.3197 -11.3381 -12.1969  25.2825   0.00    0.0
2018/10/16 19:06:50.000   45.950135007  -66.641323930   -17.8688   5   4  25.0354   6.1709  27.3553 -11.3535 -12.2115  25.3191   0.00    0.0
2018/10/16 19:06:51.000   45.950134928  -66.641321342   -18.2728   5   4  25.0706   6.1761  27.3910 -11.3689 -12.2261  25.3558   0.00    0.0
2018/10/16 19:06:52.000   45.950122549  -66.641309435   -20.6153   5   4  25.1059   6.1814  27.4268 -11.3843 -12.2408  25.3926   0.00    0.0
2018/10/16 19:06:53.000   45.950155767  -66.641319942   -16.3638   5   4  25.1413   6.1867  27.4628 -11.3998 -12.2555  25.4294   0.00    0.0
2018/10/16 19:06:54.000   45.950141010  -66.641312848   -18.7947   5   4  25.1768   6.1920  27.4988 -11.4154 -12.2703  25.4664   0.00    0.0
2018/10/16 19:06:55.000   45.950153238  -66.641315603   -17.5460   5   4  25.2124   6.1973  27.5350 -11.4310 -12.2851  25.5035   0.00    0.0
2018/10/16 19:06:56.000   45.950151423  -66.641321064   -17.6503   5   4  25.2481   6.2026  27.5712 -11.4466 -12.3000  25.5407   0.00    0.0
2018/10/16 19:06:57.000   45.950158169  -66.641330079   -15.6626   5   4  25.2839   6.2080  27.6076 -11.4622 -12.3149  25.5781   0.00    0.0
2018/10/16 19:06:58.000   45.950157224  -66.641332830   -16.1489   5   4  25.3198   6.2133  27.6441 -11.4780 -12.3299  25.6155   0.00    0.0
2018/10/16 19:06:59.000   45.950123961  -66.641318325   -20.3067   5   4  25.3559   6.2187  27.6807 -11.4937 -12.3449  25.6530   0.00    0.0
2018/10/16 19:07:00.000   45.950108238  -66.641311523   -23.0684   5   4  25.3920   6.2241  27.7174 -11.5095 -12.3599  25.6907   0.00    0.0
2018/10/16 19:07:01.000   45.950097132  -66.641307695   -23.5010   5   4  25.4283   6.2296  27.7542 -11.5254 -12.3750  25.7285   0.00    0.0
2018/10/16 19:07:02.000   45.950116994  -66.641317037   -20.7285   5   4  25.4646   6.2350  27.7911 -11.5413 -12.3902  25.7663   0.00    0.0
2018/10/16 19:07:03.000   45.950098391  -66.641315487   -23.3867   5   4  25.5010   6.2405  27.8282 -11.5572 -12.4054  25.8043   0.00    0.0
2018/10/16 19:07:04.000   45.950103380  -66.641316671   -22.7370   5   4  25.5376   6.2460  27.8654 -11.5732 -12.4206  25.8424   0.00    0.0
2018/10/16 19:07:05.000   45.950113765  -66.641318196   -21.7577   5   4  25.5742   6.2515  27.9026 -11.5893 -12.4359  25.8806   0.00    0.0
2018/10/16 19:07:06.000   45.950157258  -66.641327838   -16.4082   5   4  25.6110   6.2570  27.9400 -11.6053 -12.4513  25.9189   0.00    0.0
2018/10/16 19:07:07.000   45.950143316  -66.641321686   -18.6298   5   4  25.6479   6.2626  27.9776 -11.6215 -12.4667  25.9573   0.00    0.0
2018/10/16 19:07:08.000   45.950136581  -66.641314849   -20.3401   5   4  25.6848   6.2681  28.0152 -11.6376 -12.4821  25.9958   0.00    0.0
2018/10/16 19:07:09.000   45.950147101  -66.641319131   -19.6054   5   4  25.7219   6.2737  28.0529 -11.6539 -12.4976  26.0345   0.00    0.0
2018/10/16 19:07:10.000   45.950150315  -66.641316085   -19.3262   5   4  25.7591   6.2793  28.0908 -11.6701 -12.5132  26.0732   0.00    0.0
2018/10/16 19:07:11.000   45.950154427  -66.641317659   -18.8312   5   4  25.7964   6.2850  28.1288 -11.6865 -12.5288  26.1121   0.00    0.0
2018/10/16 19:07:12.000   45.950148969  -66.641323209   -18.9090   5   4  25.8339   6.2906  28.1669 -11.7028 -12.5444  26.1511   0.00    0.0
2018/10/16 19:07:13.000   45.950170828  -66.641329587   -15.8315   5   4  25.8714   6.2963  28.2051 -11.7192 -12.5601  26.1902   0.00    0.0
2018/10/16 19:07:14.000   45.950134355  -66.641313432   -20.2046   5   4  25.9090   6.3020  28.2435 -11.7357 -12.5759  26.2294   0.00    0.0
2018/10/16 19:07:15.000   45.950128225  -66.641312182   -20.9340   5   4  25.9468   6.3077  28.2819 -11.7522 -12.5917  26.2687   0.00    0.0
2018/10/16 19:07:16.000   45.950131714  -66.641316088   -19.6093   5   4  25.9847   6.3135  28.3205 -11.7688 -12.6075  26.3082   0.00    0.0
2018/10/16 19:07:17.000   45.950144972  -66.641317631   -17.7253   5   4  26.0226   6.3192  28.3592 -11.7854 -12.6234  26.3478   0.00    0.0
2018/10/16 19:07:18.000   45.950181286  -66.641331542   -13.2242   5   4  26.0607   6.3250  28.3981 -11.8020 -12.6394  26.3874   0.00    0.0
2018/10/16 19:07:19.000   45.950183492  -66.641332495   -13.4772   5   4  26.0989   6.3308  28.4370 -11.8187 -12.6554  26.4272   0.00    0.0
2018/10/16 19:07:20.000   45.950202006  -66.641340823   -11.9277   5   4  26.1372   6.3366  28.4761 -11.8355 -12.6714  26.4672   0.00    0.0
2018/10/16 19:07:21.000   45.950183806  -66.641334493   -14.7195   5   4  26.1757   6.3425  28.5153 -11.8523 -12.6876  26.5072   0.00    0.0
2018/10/16 19:07:22.000   45.950180232  -66.641329254   -15.8843   5   4  26.2142   6.3483  28.5546 -11.8691 -12.7037  26.5474   0.00    0.0
2018/10/16 19:07:23.000   45.950167126  -66.641320561   -17.5896   5   4  26.2529   6.3542  28.5941 -11.8860 -12.7200  26.5877   0.00    0.0
2018/10/16 19:07:24.000   45.950155261  -66.641314251   -19.0539   5   4  26.2917   6.3601  28.6337 -11.9030 -12.7362  26.6281   0.00    0.0
2018/10/16 19:07:25.000   45.950157282  -66.641312369   -18.0314   5   4  26.3306   6.3660  28.6734 -11.9200 -12.7526  26.6686   0.00    0.0
2018/10/16 19:07:26.000   45.950147424  -66.641305349   -19.7555   5   4  26.3696   6.3720  28.7132 -11.9371 -12.7689  26.7093   0.00    0.0
2018/10/16 19:07:27.000   45.950143414  -66.641303036   -19.7269   5   4  26.4088   6.3780  28.7532 -11.9542 -12.7854  26.7500   0.00    0.0
2018/10/16 19:07:28.000   45.950160310  -66.641308943   -16.7124   5   4  26.4480   6.3840  28.7932 -11.9713 -12.8019  26.7909   0.00    0.0
2018/10/16 19:07:29.000   45.950187514  -66.641322371   -12.7406   5   4  26.4874   6.3900  28.8335 -11.9885 -12.8184  26.8319   0.00    0.0
2018/10/16 19:07:30.000   45.950206059  -66.641326256   -11.0506   5   4  26.5268   6.3960  28.8738 -12.0058 -12.8350  26.8731   0.00    0.0
2018/10/16 19:07:31.000   45.950225500  -66.641330387    -8.5558   5   4  26.5664   6.4021  28.9143 -12.0231 -12.8516  26.9143   0.00    0.0
2018/10/16 19:07:32.000   45.950216214  -66.641330433   -10.3146   5   4  26.6062   6.4082  28.9549 -12.0405 -12.8684  26.9557   0.00    0.0
2018/10/16 19:07:33.000   45.950222816  -66.641341126    -9.0751   5   4  26.6460   6.4143  28.9956 -12.0579 -12.8851  26.9972   0.00    0.0
2018/10/16 19:07:34.000   45.950226899  -66.641343743    -7.7975   5   4  26.6860   6.4204  29.0365 -12.0753 -12.9019  27.0389   0.00    0.0
2018/10/16 19:07:35.000   45.950194532  -66.641327009   -11.7033   5   4  26.7261   6.4266  29.0775 -12.0929 -12.9188  27.0807   0.00    0.0
2018/10/16 19:07:36.000   45.950187556  -66.641323822   -12.8750   5   4  26.7664   6.4328  29.1186 -12.1105 -12.9358  27.1226   0.00    0.0
2018/10/16 19:07:37.000   45.950179713  -66.641322920   -14.0675   5   4  26.8067   6.4390  29.1599 -12.1281 -12.9527  27.1646   0.00    0.0
2018/10/16 19:07:38.000   45.950145956  -66.641315522   -17.7601   5   4  26.8472   6.4452  29.2013 -12.1458 -12.9698  27.2068   0.00    0.0
2018/10/16 19:07:39.000   45.950117664  -66.641308183   -21.1593   5   4  26.8878   6.4514  29.2428 -12.1635 -12.9869  27.2491   0.00    0.0
2018/10/16 19:07:40.000   45.950103427  -66.641301085   -22.6498   5   4  26.9286   6.4577  29.2845 -12.1813 -13.0041  27.2915   0.00    0.0
2018/10/16 19:07:41.000   45.950136947  -66.641316403   -19.0914   5   4  26.9694   6.4640  29.3263 -12.1992 -13.0213  27.3340   0.00    0.0
2018/10/16 19:07:42.000   45.950206593  -66.641339800   -10.0479   5   4  27.0103   6.4703  29.3682 -12.2170 -13.0385  27.3767   0.00    0.0
2018/10/16 19:07:43.000   45.950250380  -66.641350359    -4.2241   5   4  27.0514   6.4766  29.4103 -12.2350 -13.0559  27.4195   0.00    0.0
2018/10/16 19:07:44.000   45.950283407  -66.641360971     0.0671   5   4  27.0926   6.4830  29.4525 -12.2530 -13.0733  27.4624   0.00    0.0
2018/10/16 19:07:45.000   45.950271415  -66.641355419    -2.5913   5   4  27.1339   6.4894  29.4949 -12.2711 -13.0907  27.5055   0.00    0.0
2018/10/16 19:07:46.000   45.950270922  -66.641355463    -3.2609   5   4  27.1754   6.4958  29.5374 -12.2892 -13.1082  27.5487   0.00    0.0
2018/10/16 19:07:47.000   45.950297293  -66.641359173    -0.9717   5   4  27.2170   6.5022  29.5800 -12.3073 -13.1258  27.5920   0.00    0.0
2018/10/16 19:07:48.000   45.950319948  -66.641368483     1.6640   5   4  27.2587   6.5087  29.6228 -12.3256 -13.1434  27.6355   0.00    0.0
2018/10/16 19:07:49.000   45.950306760  -66.641362691    -0.3784   5   4  27.3006   6.5152  29.6657 -12.3439 -13.1611  27.6791   0.00    0.0
2018/10/16 19:07:50.000   45.950309136  -66.641358526    -0.2241   5   4  27.3426   6.5217  29.7088 -12.3622 -13.1789  27.7229   0.00    0.0
2018/10/16 19:07:51.000   45.950276867  -66.641340597    -4.7600   5   4  27.3848   6.5282  29.7520 -12.3806 -13.1967  27.7668   0.00    0.0
2018/10/16 19:07:52.000   45.950277670  -66.641338919    -4.9403   5   4  27.4271   6.5348  29.7953 -12.3991 -13.2145  27.8108   0.00    0.0
2018/10/16 19:07:53.000   45.950259924  -66.641332552    -6.9609   5   4  27.4695   6.5414  29.8388 -12.4176 -13.2325  27.8550   0.00    0.0
2018/10/16 19:07:54.000   45.950214744  -66.641312262   -13.0322   5   4  27.5121   6.5480  29.8824 -12.4362 -13.2505  27.8993   0.00    0.0
2018/10/16 19:07:55.000   45.950245710  -66.641323646    -7.9538   5   4  27.5547   6.5546  29.9262 -12.4548 -13.2685  27.9438   0.00    0.0
2018/10/16 19:07:56.000   45.950233876  -66.641324549    -9.5396   5   4  27.5975   6.5613  29.9701 -12.4735 -13.2866  27.9884   0.00    0.0
2018/10/16 19:07:57.000   45.950257918  -66.641331010    -6.2714   5   4  27.6404   6.5680  30.0142 -12.4923 -13.3048  28.0331   0.00    0.0
2018/10/16 19:07:58.000   45.950277908  -66.641340463    -3.9846   5   4  27.6835   6.5747  30.0584 -12.5111 -13.3230  28.0779   0.00    0.0
2018/10/16 19:07:59.000   45.950298967  -66.641348891    -1.4938   5   4  27.7267   6.5814  30.1028 -12.5299 -13.3413  28.1229   0.00    0.0
2018/10/16 19:08:00.000   45.950299394  -66.641345976    -1.5929   5   4  27.7700   6.5882  30.1473 -12.5489 -13.3597  28.1681   0.00    0.0
2018/10/16 19:08:01.000   45.950281965  -66.641336133    -3.7803   5   4  27.8135   6.5950  30.1919 -12.5679 -13.3781  28.2134   0.00    0.0
2018/10/16 19:08:02.000   45.950271758  -66.641335526    -5.1714   5   4  27.8572   6.6018  30.2367 -12.5869 -13.3966  28.2588   0.00    0.0
2018/10/16 19:08:03.000   45.950303463  -66.641347330    -0.5231   5   4  27.9009   6.6086  30.2817 -12.6060 -13.4152  28.3044   0.00    0.0
2018/10/16 19:08:04.000   45.950339091  -66.641363523     3.9778   5   4  27.9448   6.6155  30.3268 -12.6252 -13.4338  28.3501   0.00    0.0
2018/10/16 19:08:05.000   45.950341081  -66.641364421     4.6312   5   4  27.9888   6.6224  30.3721 -12.6444 -13.4525  28.3960   0.00    0.0
2018/10/16 19:08:06.000   45.950343941  -66.641369279     4.8722   5   4  28.0330   6.6293  30.4175 -12.6637 -13.4712  28.4420   0.00    0.0
2018/10/16 19:08:07.000   45.950327760  -66.641360864     2.3416   5   4  28.0774   6.6363  30.4631 -12.6831 -13.4900  28.4882   0.00    0.0
2018/10/16 19:08:08.000   45.950315176  -66.641355606     0.0389   5   4  28.1219   6.6433  30.5088 -12.7025 -13.5089  28.5345   0.00    0.0
2018/10/16 19:08:09.000   45.950314507  -66.641353971     0.1199   5   4  28.1665   6.6503  30.5547 -12.7220 -13.5279  28.5810   0.00    0.0
2018/10/16 19:08:10.000   45.950321870  -66.641348207     0.9583   5   4  28.2113   6.6573  30.6007 -12.7415 -13.5469  28.6276   0.00    0.0
2018/10/16 19:08:11.000   45.950377683  -66.641361526     9.0137   5   4  28.2561   6.6643  30.6469 -12.7611 -13.5659  28.6744   0.00    0.0
2018/10/16 19:08:12.000   45.950364534  -66.641351529     7.1360   5   4  28.3012   6.6714  30.6932 -12.7808 -13.5851  28.7213   0.00    0.0
2018/10/16 19:08:13.000   45.950374876  -66.641356374     8.5419   5   4  28.3464   6.6785  30.7398 -12.8005 -13.6043  28.7684   0.00    0.0
2018/10/16 19:08:14.000   45.950380076  -66.641360656     9.8245   5   4  28.3917   6.6857  30.7864 -12.8203 -13.6236  28.8156   0.00    0.0
2018/10/16 19:08:15.000   45.950348903  -66.641352066     5.5132   5   4  28.4372   6.6928  30.8332 -12.8401 -13.6429  28.8630   0.00    0.0
2018/10/16 19:08:16.000   45.950364609  -66.641361318     7.8441   5   4  28.4829   6.7000  30.8802 -12.8601 -13.6623  28.9105   0.00    0.0
2018/10/16 19:08:17.000   45.950384631  -66.641374234    10.8981   5   4  28.5287   6.7072  30.9274 -12.8800 -13.6818  28.9582   0.00    0.0
2018/10/16 19:08:18.000   45.950390344  -66.641376366    12.1863   5   4  28.5746   6.7145  30.9747 -12.9001 -13.7013  29.0061   0.00    0.0
2018/10/16 19:08:19.000   45.950398645  -66.641379299    13.3400   5   4  28.6207   6.7218  31.0222 -12.9202 -13.7210  29.0541   0.00    0.0
2018/10/16 19:08:20.000   45.950392129  -66.641378200    12.2926   5   4  28.6669   6.7291  31.0698 -12.9404 -13.7406  29.1022   0.00    0.0
2018/10/16 19:08:21.000   45.950402639  -66.641381371    13.9313   5   4  28.7133   6.7364  31.1176 -12.9606 -13.7604  29.1505   0.00    0.0
2018/10/16 19:08:22.000   45.950410176  -66.641383945    15.4012   5   4  28.7599   6.7438  31.1656 -12.9809 -13.7802  29.1990   0.00    0.0
2018/10/16 19:08:23.000   45.950382282  -66.641372925    11.4049   5   4  28.8066   6.7512  31.2137 -13.0013 -13.8001  29.2477   0.00    0.0
2018/10/16 19:08:24.000   45.950332608  -66.641353265     5.0677   5   4  28.8535   6.7586  31.2620 -13.0218 -13.8201  29.2965   0.00    0.0
2018/10/16 19:08:25.000   45.950319445  -66.641343925     3.2564   5   4  28.9005   6.7660  31.3104 -13.0423 -13.8401  29.3455   0.00    0.0
2018/10/16 19:08:26.000   45.950346849  -66.641349724     5.9021   5   4  28.9477   6.7735  31.3591 -13.0629 -13.8602  29.3946   0.00    0.0
2018/10/16 19:08:27.000   45.950313385  -66.641336844     0.7925   5   4  28.9950   6.7810  31.4079 -13.0835 -13.8804  29.4439   0.00    0.0
2018/10/16 19:08:28.000   45.950291773  -66.641330557    -3.0096   5   4  29.0426   6.7886  31.4569 -13.1043 -13.9007  29.4933   0.00    0.0
2018/10/16 19:08:29.000   45.950278420  -66.641326865    -5.6345   5   4  29.0902   6.7961  31.5060 -13.1251 -13.9210  29.5430   0.00    0.0
2018/10/16 19:08:30.000   45.950307606  -66.641334960    -1.8736   5   4  29.1380   6.8037  31.5553 -13.1459 -13.9414  29.5927   0.00    0.0
2018/10/16 19:08:31.000   45.950300402  -66.641330412    -2.3500   5   4  29.1860   6.8114  31.6048 -13.1668 -13.9619  29.6427   0.00    0.0
2018/10/16 19:08:32.000   45.950310754  -66.641341309    -0.5742   5   4  29.2341   6.8190  31.6545 -13.1878 -13.9824  29.6928   0.00    0.0
2018/10/16 19:08:33.000   45.950340353  -66.641353143     3.7024   5   4  29.2823   6.8267  31.7043 -13.2089 -14.0030  29.7431   0.00    0.0
2018/10/16 19:08:34.000   45.950366826  -66.641360389     7.9556   5   4  29.3308   6.8344  31.7543 -13.2300 -14.0237  29.7935   0.00    0.0
2018/10/16 19:08:35.000   45.950400216  -66.641369730    12.2746   5   4  29.3793   6.8422  31.8045 -13.2512 -14.0445  29.8441   0.00    0.0
2018/10/16 19:08:36.000   45.950413330  -66.641379395    14.5076   5   4  29.4281   6.8499  31.8549 -13.2725 -14.0653  29.8949   0.00    0.0
2018/10/16 19:08:37.000   45.950412355  -66.641387776    15.1719   5   4  29.4770   6.8577  31.9054 -13.2938 -14.0862  29.9458   0.00    0.0
2018/10/16 19:08:38.000   45.950372151  -66.641374671    10.2490   5   4  29.5262   6.8656  31.9561 -13.3152 -14.1072  29.9970   0.00    0.0
2018/10/16 19:08:39.000   45.950378025  -66.641372833    11.0791   5   4  29.5755   6.8735  32.0070 -13.3367 -14.1283  30.0483   0.00    0.0
2018/10/16 19:08:40.000   45.950359028  -66.641365484     8.1103   5   4  29.6249   6.8814  32.0581 -13.3583 -14.1494  30.0998   0.00    0.0
2018/10/16 19:08:41.000   45.950361085  -66.641362475     8.9696   5   4  29.6745   6.8893  32.1094 -13.3799 -14.1706  30.1514   0.00    0.0
2018/10/16 19:08:42.000   45.950335739  -66.641352026     4.7889   5   4  29.7243   6.8973  32.1608 -13.4016 -14.1919  30.2033   0.00    0.0
2018/10/16 19:08:43.000   45.950326347  -66.641349407     4.2094   5   4  29.7743   6.9053  32.2125 -13.4234 -14.2133  30.2553   0.00    0.0
2018/10/16 19:08:44.000   45.950352089  -66.641352894     6.1144   5   4  29.8244   6.9133  32.2643 -13.4453 -14.2348  30.3075   0.00    0.0
2018/10/16 19:08:45.000   45.950365784  -66.641361619     7.3144   5   4  29.8747   6.9214  32.3163 -13.4672 -14.2563  30.3598   0.00    0.0
2018/10/16 19:08:46.000   45.950379733  -66.641368910     8.7772   5   4  29.9251   6.9295  32.3685 -13.4892 -14.2779  30.4124   0.00    0.0
2018/10/16 19:08:47.000   45.950391091  -66.641375415     9.9939   5   4  29.9757   6.9376  32.4209 -13.5113 -14.2996  30.4651   0.00    0.0
2018/10/16 19:08:48.000   45.950363978  -66.641370419     5.7936   5   4  30.0266   6.9457  32.4734 -13.5334 -14.3214  30.5180   0.00    0.0
2018/10/16 19:08:49.000   45.950362070  -66.641373119     5.4970   5   4  30.0776   6.9539  32.5262 -13.5557 -14.3432  30.5711   0.00    0.0
2018/10/16 19:08:50.000   45.950313427  -66.641357151    -1.4142   5   4  30.1288   6.9622  32.5791 -13.5780 -14.3651  30.6244   0.00    0.0
2018/10/16 19:08:51.000   45.950314247  -66.641357518    -0.9606   5   4  30.1801   6.9704  32.6322 -13.6004 -14.3872  30.6779   0.00    0.0
2018/10/16 19:08:52.000   45.950298381  -66.641350417    -2.9060   5   4  30.2317   6.9787  32.6856 -13.6229 -14.4093  30.7315   0.00    0.0
2018/10/16 19:08:53.000   45.950279852  -66.641344417    -5.3512   5   4  30.2834   6.9871  32.7391 -13.6454 -14.4314  30.7853   0.00    0.0
2018/10/16 19:08:54.000   45.950302389  -66.641350301    -1.5822   5   4  30.3352   6.9954  32.7928 -13.6680 -14.4537  30.8394   0.00    0.0
2018/10/16 19:08:55.000   45.950301770  -66.641353491    -1.1080   5   4  30.3873   7.0038  32.8467 -13.6907 -14.4760  30.8936   0.00    0.0
2018/10/16 19:08:56.000   45.950310859  -66.641353925     0.4948   5   4  30.4395   7.0122  32.9008 -13.7135 -14.4984  30.9479   0.00    0.0
2018/10/16 19:08:57.000   45.950323787  -66.641357027     1.6206   5   4  30.4919   7.0207  32.9551 -13.7363 -14.5209  31.0025   0.00    0.0
2018/10/16 19:08:58.000   45.950306517  -66.641354617    -1.1017   5   4  30.5446   7.0292  33.0096 -13.7593 -14.5435  31.0573   0.00    0.0
2018/10/16 19:08:59.000   45.950315456  -66.641359330     0.5498   5   4  30.5974   7.0377  33.0643 -13.7823 -14.5662  31.1123   0.00    0.0
2018/10/16 19:09:00.000   45.950308548  -66.641358382    -0.6651   5   4  30.6503   7.0463  33.1192 -13.8054 -14.5889  31.1674   0.00    0.0
2018/10/16 19:09:01.000   45.950335370  -66.641367373     2.3930   5   4  30.7035   7.0549  33.1743 -13.8285 -14.6118  31.2228   0.00    0.0
2018/10/16 19:09:02.000   45.950340657  -66.641366853     3.3769   5   4  30.7568   7.0635  33.2296 -13.8518 -14.6347  31.2783   0.00    0.0
2018/10/16 19:09:03.000   45.950351870  -66.641373093     4.8685   5   4  30.8104   7.0722  33.2851 -13.8751 -14.6577  31.3340   0.00    0.0
2018/10/16 19:09:04.000   45.950325768  -66.641365570     0.7094   5   4  30.8641   7.0809  33.3408 -13.8985 -14.6808  31.3900   0.00    0.0
2018/10/16 19:09:05.000   45.950320301  -66.641364106    -0.2337   5   4  30.9180   7.0896  33.3968 -13.9220 -14.7040  31.4461   0.00    0.0
2018/10/16 19:09:06.000   45.950292884  -66.641352228    -4.3032   5   4  30.9722   7.0984  33.4529 -13.9456 -14.7273  31.5025   0.00    0.0
2018/10/16 19:09:07.000   45.950294028  -66.641350858    -2.7534   5   4  31.0265   7.1072  33.5092 -13.9693 -14.7506  31.5590   0.00    0.0
2018/10/16 19:09:08.000   45.950310676  -66.641358775     0.9016   5   4  31.0810   7.1161  33.5658 -13.9930 -14.7741  31.6157   0.00    0.0
2018/10/16 19:09:09.000   45.950323202  -66.641361354     3.2555   5   4  31.1357   7.1250  33.6225 -14.0169 -14.7976  31.6727   0.00    0.0
2018/10/16 19:09:10.000   45.950292102  -66.641345595    -0.5481   5   4  31.1906   7.1339  33.6795 -14.0408 -14.8212  31.7298   0.00    0.0
2018/10/16 19:09:11.000   45.950303443  -66.641345475     1.1265   5   4  31.2457   7.1429  33.7367 -14.0648 -14.8449  31.7872   0.00    0.0
2018/10/16 19:09:12.000   45.950321089  -66.641347143     2.7144   5   4  31.3009   7.1519  33.7941 -14.0889 -14.8688  31.8447   0.00    0.0
2018/10/16 19:09:13.000   45.950344704  -66.641355906     5.1034   5   4  31.3564   7.1609  33.8517 -14.1131 -14.8926  31.9025   0.00    0.0
2018/10/16 19:09:14.000   45.950341151  -66.641355698     4.2632   5   4  31.4121   7.1700  33.9095 -14.1373 -14.9166  31.9605   0.00    0.0
2018/10/16 19:09:15.000   45.950319991  -66.641354609     2.1908   5   4  31.4680   7.1791  33.9675 -14.1617 -14.9407  32.0186   0.00    0.0
2018/10/16 19:09:16.000   45.950334608  -66.641362631     4.2288   5   4  31.5241   7.1882  34.0258 -14.1861 -14.9649  32.0770   0.00    0.0
2018/10/16 19:09:17.000   45.950334703  -66.641366613     4.7913   5   4  31.5804   7.1974  34.0843 -14.2106 -14.9891  32.1356   0.00    0.0
2018/10/16 19:09:18.000   45.950317760  -66.641362616     3.3790   5   4  31.6369   7.2066  34.1430 -14.2353 -15.0135  32.1944   0.00    0.0
2018/10/16 19:09:19.000   45.950273717  -66.641343974    -2.7210   5   4  31.6936   7.2159  34.2019 -14.2600 -15.0379  32.2535   0.00    0.0
2018/10/16 19:09:20.000   45.950254410  -66.641335199    -4.6458   5   4  31.7506   7.2252  34.2610 -14.2848 -15.0625  32.3127   0.00    0.0
2018/10/16 19:09:21.000   45.950163067  -66.641303542   -16.3324   5   4  31.8078   7.2346  34.3204 -14.3097 -15.0871  32.3722   0.00    0.0
2018/10/16 19:09:22.000   45.950191391  -66.641311415   -13.1782   5   4  31.8651   7.2439  34.3800 -14.3347 -15.1119  32.4319   0.00    0.0
2018/10/16 19:09:23.000   45.950216824  -66.641319165   -10.0189   5   4  31.9226   7.2534  34.4398 -14.3597 -15.1367  32.4918   0.00    0.0
2018/10/16 19:09:24.000   45.950212889  -66.641314887   -10.0823   5   4  31.9803   7.2628  34.4998 -14.3849 -15.1616  32.5519   0.00    0.0
2018/10/16 19:09:25.000   45.950272738  -66.641340977    -2.3344   5   4  32.0382   7.2723  34.5601 -14.4101 -15.1866  32.6122   0.00    0.0
2018/10/16 19:09:26.000   45.950284624  -66.641347366    -0.8402   5   4  32.0964   7.2818  34.6206 -14.4354 -15.2117  32.6728   0.00    0.0
2018/10/16 19:09:27.000   45.950280891  -66.641343679    -1.9137   5   4  32.1548   7.2914  34.6814 -14.4609 -15.2370  32.7335   0.00    0.0
2018/10/16 19:09:28.000   45.950285726  -66.641344738    -1.6143   5   4  32.2134   7.3010  34.7423 -14.4864 -15.2623  32.7945   0.00    0.0
2018/10/16 19:09:29.000   45.950276519  -66.641341486    -3.1138   5   4  32.2722   7.3107  34.8035 -14.5120 -15.2877  32.8558   0.00    0.0
2018/10/16 19:09:30.000   45.950332712  -66.641362504     3.4772   5   4  32.3312   7.3204  34.8650 -14.5377 -15.3132  32.9172   0.00    0.0
2018/10/16 19:09:31.000   45.950343487  -66.641364856     4.3538   5   4  32.3905   7.3301  34.9267 -14.5635 -15.3388  32.9789   0.00    0.0
2018/10/16 19:09:32.000   45.950292540  -66.641350497    -1.8787   5   4  32.4500   7.3399  34.9886 -14.5894 -15.3645  33.0408   0.00    0.0
2018/10/16 19:09:33.000   45.950278067  -66.641343523    -3.2878   5   4  32.5097   7.3498  35.0507 -14.6154 -15.3903  33.1030   0.00    0.0
2018/10/16 19:09:34.000   45.950245539  -66.641330130    -6.1851   5   4  32.5697   7.3596  35.1131 -14.6415 -15.4163  33.1654   0.00    0.0
2018/10/16 19:09:35.000   45.950235026  -66.641330306    -7.0704   5   4  32.6298   7.3695  35.1758 -14.6677 -15.4423  33.2280   0.00    0.0
2018/10/16 19:09:36.000   45.950210241  -66.641323786   -10.6347   5   4  32.6902   7.3795  35.2387 -14.6940 -15.4684  33.2908   0.00    0.0
2018/10/16 19:09:37.000   45.950202352  -66.641321976   -11.6494   5   4  32.7509   7.3895  35.3018 -14.7204 -15.4946  33.3539   0.00    0.0
2018/10/16 19:09:38.000   45.950232202  -66.641332153    -8.4486   5   4  32.8117   7.3995  35.3652 -14.7469 -15.5209  33.4172   0.00    0.0
2018/10/16 19:09:39.000   45.950251464  -66.641337008    -5.3494   5   4  32.8727   7.4096  35.4288 -14.7735 -15.5474  33.4808   0.00    0.0
2018/10/16 19:09:40.000   45.950260666  -66.641339416    -3.0026   5   4  32.9340   7.4197  35.4927 -14.8002 -15.5739  33.5446   0.00    0.0
2018/10/16 19:09:41.000   45.950251175  -66.641338257    -4.5642   5   4  32.9955   7.4299  35.5568 -14.8270 -15.6005  33.6086   0.00    0.0
2018/10/16 19:09:42.000   45.950163388  -66.641306064   -15.7956   5   4  33.0574   7.4401  35.6212 -14.8539 -15.6273  33.6729   0.00    0.0
2018/10/16 19:09:43.000   45.950196873  -66.641313396   -11.8099   5   4  33.1193   7.4504  35.6858 -14.8809 -15.6541  33.7374   0.00    0.0
2018/10/16 19:09:44.000   45.950200698  -66.641312626   -12.0684   5   4  33.1816   7.4607  35.7507 -14.9080 -15.6811  33.8022   0.00    0.0
2018/10/16 19:09:45.000   45.950175636  -66.641305152   -15.4945   5   4  33.2441   7.4710  35.8158 -14.9352 -15.7082  33.8672   0.00    0.0
2018/10/16 19:09:46.000   45.950159948  -66.641296397   -17.7266   5   4  33.3068   7.4814  35.8812 -14.9625 -15.7354  33.9325   0.00    0.0
2018/10/16 19:09:47.000   45.950143126  -66.641297003   -19.1092   5   4  33.3698   7.4918  35.9469 -14.9899 -15.7626  33.9980   0.00    0.0
2018/10/16 19:09:48.000   45.950145660  -66.641302086   -17.3263   5   4  33.4330   7.5023  36.0128 -15.0174 -15.7900  34.0638   0.00    0.0
2018/10/16 19:09:49.000   45.950101679  -66.641289863   -22.7024   5   4  33.4964   7.5128  36.0790 -15.0450 -15.8175  34.1298   0.00    0.0
2018/10/16 19:09:50.000   45.950128581  -66.641301813   -18.8502   5   4  33.5601   7.5234  36.1454 -15.0727 -15.8452  34.1961   0.00    0.0
2018/10/16 19:09:51.000   45.950112604  -66.641296794   -22.1564   5   4  33.6240   7.5340  36.2121 -15.1006 -15.8729  34.2626   0.00    0.0
2018/10/16 19:09:52.000   45.950117010  -66.641299239   -22.7284   5   4  33.6882   7.5447  36.2791 -15.1285 -15.9007  34.3294   0.00    0.0
2018/10/16 19:09:53.000   45.950153901  -66.641314489   -17.7575   5   4  33.7526   7.5554  36.3464 -15.1565 -15.9287  34.3965   0.00    0.0
2018/10/16 19:09:54.000   45.950174298  -66.641318418   -15.1143   5   4  33.8172   7.5661  36.4139 -15.1847 -15.9568  34.4638   0.00    0.0
2018/10/16 19:09:55.000   45.950182844  -66.641319585   -13.6820   5   4  33.8821   7.5769  36.4817 -15.2129 -15.9849  34.5313   0.00    0.0
2018/10/16 19:09:56.000   45.950205236  -66.641326927   -10.6626   5   4  33.9473   7.5878  36.5497 -15.2413 -16.0132  34.5991   0.00    0.0
2018/10/16 19:09:57.000   45.950153547  -66.641306368   -18.0588   5   4  34.0128   7.5987  36.6181 -15.2698 -16.0416  34.6673   0.00    0.0
2018/10/16 19:09:58.000   45.950140042  -66.641300353   -20.0300   5   4  34.0785   7.6096  36.6867 -15.2984 -16.0702  34.7356   0.00    0.0
2018/10/16 19:09:59.000   45.950149240  -66.641305453   -18.0766   5   4  34.1444   7.6206  36.7556 -15.3271 -16.0988  34.8043   0.00    0.0
2018/10/16 19:10:00.000   45.950130660  -66.641302632   -19.8972   5   4  34.2107   7.6317  36.8248 -15.3559 -16.1276  34.8732   0.00    0.0
2018/10/16 19:10:01.000   45.950124314  -66.641298629   -20.9129   5   4  34.2771   7.6428  36.8942 -15.3848 -16.1565  34.9423   0.00    0.0
2018/10/16 19:10:02.000   45.950097614  -66.641286820   -25.0779   5   4  34.3439   7.6539  36.9639 -15.4139 -16.1855  35.0118   0.00    0.0
2018/10/16 19:10:03.000   45.950095249  -66.641286521   -25.9731   5   4  34.4109   7.6651  37.0340 -15.4430 -16.2146  35.0815   0.00    0.0
2018/10/16 19:10:04.000   45.950131958  -66.641296084   -21.7928   5   4  34.4781   7.6763  37.1043 -15.4723 -16.2438  35.1515   0.00    0.0
2018/10/16 19:10:05.000   45.950131065  -66.641294120   -22.1099   5   4  34.5456   7.6876  37.1749 -15.5017 -16.2732  35.2218   0.00    0.0
2018/10/16 19:10:06.000   45.950085787  -66.641278171   -29.5057   5   4  34.6135   7.6990  37.2458 -15.5312 -16.3027  35.2923   0.00    0.0
2018/10/16 19:10:07.000   45.950073294  -66.641274391   -30.3843   5   4  34.6816   7.7104  37.3169 -15.5608 -16.3323  35.3632   0.00    0.0
2018/10/16 19:10:08.000   45.950102879  -66.641283401   -25.7847   5   4  34.7499   7.7218  37.3884 -15.5905 -16.3620  35.4343   0.00    0.0
2018/10/16 19:10:09.000   45.950123463  -66.641287783   -23.0869   5   4  34.8185   7.7333  37.4602 -15.6204 -16.3919  35.5057   0.00    0.0
2018/10/16 19:10:10.000   45.950144395  -66.641294765   -19.5812   5   4  34.8873   7.7448  37.5322 -15.6503 -16.4219  35.5773   0.00    0.0
2018/10/16 19:10:11.000   45.950156298  -66.641295561   -18.6474   5   4  34.9565   7.7564  37.6046 -15.6804 -16.4520  35.6493   0.00    0.0
2018/10/16 19:10:12.000   45.950168950  -66.641298681   -17.1853   5   4  35.0259   7.7681  37.6773 -15.7106 -16.4822  35.7215   0.00    0.0
2018/10/16 19:10:13.000   45.950173599  -66.641299560   -17.6771   5   4  35.0956   7.7798  37.7502 -15.7410 -16.5126  35.7941   0.00    0.0
2018/10/16 19:10:14.000   45.950175598  -66.641298471   -17.6053   5   4  35.1656   7.7915  37.8235 -15.7714 -16.5430  35.8669   0.00    0.0
2018/10/16 19:10:15.000   45.950134573  -66.641282565   -23.6794   5   4  35.2360   7.8034  37.8971 -15.8020 -16.5737  35.9401   0.00    0.0
2018/10/16 19:10:16.000   45.950198958  -66.641306978   -15.3955   5   4  35.3065   7.8152  37.9710 -15.8327 -16.6044  36.0135   0.00    0.0
2018/10/16 19:10:17.000   45.950228791  -66.641316145   -11.8878   5   4  35.3773   7.8271  38.0452 -15.8635 -16.6353  36.0872   0.00    0.0
2018/10/16 19:10:18.000   45.950266656  -66.641331332    -6.3288   5   4  35.4484   7.8391  38.1197 -15.8944 -16.6663  36.1612   0.00    0.0
2018/10/16 19:10:19.000   45.950321440  -66.641351841     0.9891   5   4  35.5198   7.8511  38.1945 -15.9255 -16.6974  36.2355   0.00    0.0
2018/10/16 19:10:20.000   45.950353015  -66.641364194     5.9920   5   4  35.5915   7.8632  38.2696 -15.9567 -16.7287  36.3102   0.00    0.0
2018/10/16 19:10:21.000   45.950335936  -66.641356051     3.8364   5   4  35.6635   7.8753  38.3451 -15.9880 -16.7601  36.3851   0.00    0.0
2018/10/16 19:10:22.000   45.950250254  -66.641325643    -7.4719   5   4  35.7359   7.8875  38.4209 -16.0195 -16.7916  36.4604   0.00    0.0
2018/10/16 19:10:23.000   45.950214681  -66.641314846   -12.6985   5   4  35.8086   7.8997  38.4969 -16.0511 -16.8233  36.5360   0.00    0.0
2018/10/16 19:10:24.000   45.950216881  -66.641314662   -12.0989   5   4  35.8815   7.9120  38.5734 -16.0828 -16.8551  36.6119   0.00    0.0
2018/10/16 19:10:25.000   45.950210228  -66.641315593   -12.4571   5   4  35.9548   7.9244  38.6501 -16.1147 -16.8870  36.6881   0.00    0.0
2018/10/16 19:10:26.000   45.950208747  -66.641318223   -12.1987   5   4  36.0283   7.9368  38.7272 -16.1467 -16.9191  36.7646   0.00    0.0
2018/10/16 19:10:27.000   45.950196854  -66.641311094   -13.9391   5   4  36.1021   7.9493  38.8046 -16.1788 -16.9513  36.8414   0.00    0.0
2018/10/16 19:10:28.000   45.950167048  -66.641302599   -18.5099   5   4  36.1763   7.9618  38.8823 -16.2110 -16.9837  36.9185   0.00    0.0
2018/10/16 19:10:29.000   45.950126860  -66.641286075   -23.8599   5   4  36.2508   7.9744  38.9604 -16.2434 -17.0162  36.9960   0.00    0.0
2018/10/16 19:10:30.000   45.950073898  -66.641261566   -30.5899   5   4  36.3256   7.9871  39.0387 -16.2760 -17.0489  37.0738   0.00    0.0
2018/10/16 19:10:31.000   45.950111490  -66.641266432   -26.0212   5   4  36.4007   7.9998  39.1175 -16.3086 -17.0816  37.1519   0.00    0.0
2018/10/16 19:10:32.000   45.950086734  -66.641253428   -29.8369   5   4  36.4761   8.0125  39.1966 -16.3414 -17.1146  37.2304   0.00    0.0
2018/10/16 19:10:33.000   45.950142827  -66.641271053   -23.4276   5   4  36.5517   8.0253  39.2760 -16.3743 -17.1476  37.3091   0.00    0.0
2018/10/16 19:10:34.000   45.950198840  -66.641289119   -16.6753   5   4  36.6277   8.0382  39.3558 -16.4073 -17.1808  37.3882   0.00    0.0
2018/10/16 19:10:35.000   45.950215640  -66.641294432   -15.2033   5   4  36.7040   8.0512  39.4359 -16.4405 -17.2142  37.4676   0.00    0.0
2018/10/16 19:10:36.000   45.950204939  -66.641292489   -16.3685   5   4  36.7807   8.0642  39.5163 -16.4739 -17.2477  37.5474   0.00    0.0
2018/10/16 19:10:37.000   45.950242114  -66.641302205   -11.0687   5   4  36.8576   8.0772  39.5971 -16.5073 -17.2813  37.6274   0.00    0.0
2018/10/16 19:10:38.000   45.950316819  -66.641329738    -2.0997   5   4  36.9349   8.0903  39.6783 -16.5409 -17.3151  37.7078   0.00    0.0
2018/10/16 19:10:39.000   45.950332073  -66.641336810    -0.2571   5   4  37.0125   8.1035  39.7598 -16.5747 -17.3491  37.7886   0.00    0.0
2018/10/16 19:10:40.000   45.950327608  -66.641338947    -0.7050   5   4  37.0905   8.1168  39.8417 -16.6086 -17.3832  37.8698   0.00    0.0
2018/10/16 19:10:41.000   45.950341533  -66.641341308     1.5471   5   4  37.1688   8.1301  39.9239 -16.6426 -17.4174  37.9512   0.00    0.0
2018/10/16 19:10:42.000   45.950312516  -66.641335064    -1.8211   5   4  37.2475   8.1435  40.0065 -16.6768 -17.4518  38.0331   0.00    0.0
2018/10/16 19:10:43.000   45.950348727  -66.641349502     2.2083   5   4  37.3264   8.1569  40.0895 -16.7111 -17.4864  38.1152   0.00    0.0
2018/10/16 19:10:44.000   45.950366321  -66.641360473     4.4469   5   4  37.4057   8.1704  40.1728 -16.7456 -17.5211  38.1977   0.00    0.0
2018/10/16 19:10:45.000   45.950354290  -66.641358023     2.8893   5   4  37.4854   8.1839  40.2565 -16.7803 -17.5560  38.2806   0.00    0.0
2018/10/16 19:10:46.000   45.950424094  -66.641382088    11.6404   5   4  37.5653   8.1976  40.3406 -16.8150 -17.5910  38.3638   0.00    0.0
2018/10/16 19:10:47.000   45.950377508  -66.641359781     5.4316   5   4  37.6457   8.2113  40.4250 -16.8500 -17.6262  38.4475   0.00    0.0
2018/10/16 19:10:48.000   45.950375248  -66.641357061     4.5165   5   4  37.7264   8.2250  40.5098 -16.8851 -17.6615  38.5314   0.00    0.0
2018/10/16 19:10:49.000   45.950372319  -66.641351445     3.3263   5   4  37.8075   8.2388  40.5950 -16.9203 -17.6970  38.6158   0.00    0.0
2018/10/16 19:10:50.000   45.950303040  -66.641327727    -5.8005   5   4  37.8890   8.2527  40.6806 -16.9557 -17.7326  38.7005   0.00    0.0
2018/10/16 19:10:51.000   45.950326157  -66.641334827    -3.4021   5   4  37.9708   8.2667  40.7666 -16.9913 -17.7685  38.7855   0.00    0.0
2018/10/16 19:10:52.000   45.950272023  -66.641320223   -10.3293   5   4  38.0530   8.2807  40.8529 -17.0270 -17.8044  38.8710   0.00    0.0
2018/10/16 19:10:53.000   45.950232058  -66.641305772   -15.2372   5   4  38.1355   8.2948  40.9397 -17.0629 -17.8406  38.9568   0.00    0.0
2018/10/16 19:10:54.000   45.950220208  -66.641300059   -16.7641   5   4  38.2184   8.3090  41.0268 -17.0989 -17.8769  39.0430   0.00    0.0
2018/10/16 19:10:55.000   45.950153279  -66.641280276   -25.1784   5   4  38.3017   8.3232  41.1143 -17.1351 -17.9134  39.1296   0.00    0.0
2018/10/16 19:10:56.000   45.950170125  -66.641288384   -21.7962   5   4  38.3852   8.3375  41.2022 -17.1714 -17.9500  39.2166   0.00    0.0
2018/10/16 19:10:57.000   45.950210418  -66.641300920   -15.8422   5   4  38.4691   8.3519  41.2905 -17.2079 -17.9868  39.3039   0.00    0.0
2018/10/16 19:10:58.000   45.950219678  -66.641311303   -14.7289   5   4  38.5535   8.3663  41.3792 -17.2445 -18.0238  39.3916   0.00    0.0
2018/10/16 19:10:59.000   45.950215459  -66.641314593   -14.9388   5   4  38.6382   8.3808  41.4684 -17.2813 -18.0609  39.4797   0.00    0.0
2018/10/16 19:11:00.000   45.950282633  -66.641337623    -7.2411   5   4  38.7232   8.3954  41.5579 -17.3183 -18.0982  39.5682   0.00    0.0
2018/10/16 19:11:01.000   45.950312862  -66.641349340    -2.4233   5   4  38.8086   8.4100  41.6479 -17.3554 -18.1357  39.6571   0.00    0.0
2018/10/16 19:11:02.000   45.950255750  -66.641329307    -9.3028   5   4  38.8945   8.4248  41.7382 -17.3927 -18.1734  39.7464   0.00    0.0
2018/10/16 19:11:03.000   45.950206433  -66.641309837   -15.0759   5   4  38.9808   8.4396  41.8290 -17.4302 -18.2112  39.8361   0.00    0.0
2018/10/16 19:11:04.000   45.950202662  -66.641308701   -16.1092   5   4  39.0674   8.4544  41.9202 -17.4679 -18.2492  39.9262   0.00    0.0
2018/10/16 19:11:05.000   45.950198662  -66.641313890   -16.0407   5   4  39.1544   8.4694  42.0118 -17.5057 -18.2874  40.0167   0.00    0.0
2018/10/16 19:11:06.000   45.950191079  -66.641313729   -16.7808   5   4  39.2418   8.4844  42.1038 -17.5437 -18.3257  40.1076   0.00    0.0
2018/10/16 19:11:07.000   45.950212320  -66.641318470   -14.4542   5   4  39.3296   8.4995  42.1963 -17.5818 -18.3643  40.1990   0.00    0.0
2018/10/16 19:11:08.000   45.950242075  -66.641327099   -11.6930   5   4  39.4178   8.5146  42.2892 -17.6201 -18.4030  40.2907   0.00    0.0
2018/10/16 19:11:09.000   45.950334996  -66.641357278     0.7352   5   4  39.5062   8.5298  42.3825 -17.6586 -18.4419  40.3828   0.00    0.0
2018/10/16 19:11:10.000   45.950319059  -66.641350567    -0.4782   5   4  39.5953   8.5452  42.4762 -17.6972 -18.4810  40.4754   0.00    0.0
2018/10/16 19:11:11.000   45.950343834  -66.641355341     2.8484   5   4  39.6846   8.5605  42.5704 -17.7361 -18.5202  40.5683   0.00    0.0
2018/10/16 19:11:12.000   45.950364547  -66.641358080     4.6710   5   4  39.7744   8.5760  42.6651 -17.7751 -18.5597  40.6617   0.00    0.0
2018/10/16 19:11:13.000   45.950353060  -66.641352775     3.2714   5   4  39.8647   8.5915  42.7602 -17.8143 -18.5993  40.7556   0.00    0.0
2018/10/16 19:11:14.000   45.950321975  -66.641344446    -0.5317   5   4  39.9554   8.6072  42.8557 -17.8537 -18.6392  40.8499   0.00    0.0
2018/10/16 19:11:15.000   45.950297756  -66.641337845    -2.6247   5   4  40.0465   8.6229  42.9517 -17.8933 -18.6792  40.9446   0.00    0.0
2018/10/16 19:11:16.000   45.950338162  -66.641353675     3.6956   5   4  40.1379   8.6386  43.0481 -17.9330 -18.7194  41.0398   0.00    0.0
2018/10/16 19:11:17.000   45.950382355  -66.641370349    10.2631   5   4  40.2297   8.6545  43.1450 -17.9729 -18.7598  41.1353   0.00    0.0
2018/10/16 19:11:18.000   45.950353286  -66.641359450     6.7781   5   4  40.3221   8.6704  43.2424 -18.0130 -18.8004  41.2314   0.00    0.0
2018/10/16 19:11:19.000   45.950332935  -66.641353363     3.9770   5   4  40.4149   8.6864  43.3402 -18.0534 -18.8412  41.3279   0.00    0.0
2018/10/16 19:11:20.000   45.950249862  -66.641324860    -6.5537   5   4  40.5082   8.7026  43.4384 -18.0939 -18.8822  41.4249   0.00    0.0
2018/10/16 19:11:21.000   45.950197324  -66.641305112   -13.8546   5   4  40.6019   8.7187  43.5372 -18.1346 -18.9233  41.5223   0.00    0.0
2018/10/16 19:11:22.000   45.950196876  -66.641305423   -15.2804   5   4  40.6960   8.7350  43.6364 -18.1754 -18.9647  41.6201   0.00    0.0
2018/10/16 19:11:23.000   45.950178961  -66.641291093   -17.9381   5   4  40.7905   8.7514  43.7361 -18.2165 -19.0063  41.7184   0.00    0.0
2018/10/16 19:11:24.000   45.950234451  -66.641312130   -11.6794   5   4  40.8854   8.7678  43.8363 -18.2577 -19.0481  41.8172   0.00    0.0
2018/10/16 19:11:25.000   45.950258818  -66.641321438    -8.2429   5   4  40.9808   8.7843  43.9370 -18.2992 -19.0900  41.9164   0.00    0.0
2018/10/16 19:11:26.000   45.950277868  -66.641323348    -6.1729   5   4  41.0766   8.8009  44.0382 -18.3408 -19.1322  42.0161   0.00    0.0
2018/10/16 19:11:27.000   45.950277664  -66.641324503    -6.2681   5   4  41.1730   8.8176  44.1398 -18.3826 -19.1746  42.1162   0.00    0.0
2018/10/16 19:11:28.000   45.950271065  -66.641322448    -7.3630   5   4  41.2697   8.8343  44.2419 -18.4247 -19.2172  42.2169   0.00    0.0
2018/10/16 19:11:29.000   45.950305710  -66.641336857    -2.7602   5   4  41.3669   8.8512  44.3446 -18.4669 -19.2600  42.3180   0.00    0.0
2018/10/16 19:11:30.000   45.950312095  -66.641338476    -2.1203   5   4  41.4646   8.8681  44.4477 -18.5093 -19.3030  42.4196   0.00    0.0
2018/10/16 19:11:31.000   45.950316168  -66.641345325     0.1754   5   4  41.5628   8.8851  44.5514 -18.5520 -19.3463  42.5217   0.00    0.0
2018/10/16 19:11:32.000   45.950342312  -66.641357838     4.5362   5   4  41.6614   8.9022  44.6555 -18.5948 -19.3897  42.6242   0.00    0.0
2018/10/16 19:11:33.000   45.950364452  -66.641366660     7.6256   5   4  41.7605   8.9194  44.7602 -18.6378 -19.4333  42.7273   0.00    0.0
2018/10/16 19:11:34.000   45.950364439  -66.641373202     8.0518   5   4  41.8600   8.9367  44.8653 -18.6811 -19.4772  42.8309   0.00    0.0
2018/10/16 19:11:35.000   45.950364261  -66.641374054     7.6663   5   4  41.9601   8.9541  44.9710 -18.7245 -19.5213  42.9349   0.00    0.0
2018/10/16 19:11:36.000   45.950358238  -66.641373977     6.9062   5   4  42.0607   8.9716  45.0773 -18.7682 -19.5656  43.0395   0.00    0.0
2018/10/16 19:11:37.000   45.950313819  -66.641359618     1.5300   5   4  42.1618   8.9892  45.1840 -18.8121 -19.6101  43.1446   0.00    0.0
2018/10/16 19:11:38.000   45.950370503  -66.641379625     8.6480   5   4  42.2632   9.0068  45.2913 -18.8562 -19.6549  43.2502   0.00    0.0
2018/10/16 19:11:39.000   45.950373208  -66.641382384     8.4797   5   4  42.3653   9.0246  45.3991 -18.9005 -19.6998  43.3563   0.00    0.0
2018/10/16 19:11:40.000   45.950369906  -66.641378253     7.8179   5   4  42.4678   9.0424  45.5074 -18.9450 -19.7450  43.4629   0.00    0.0
2018/10/16 19:11:41.000   45.950360006  -66.641375188     6.3493   5   4  42.5709   9.0604  45.6163 -18.9897 -19.7905  43.5701   0.00    0.0
2018/10/16 19:11:42.000   45.950273169  -66.641343761    -4.5870   5   4  42.6745   9.0784  45.7258 -19.0348 -19.8361  43.6778   0.00    0.0
2018/10/16 19:11:43.000   45.950257377  -66.641340502    -7.2793   5   4  42.7786   9.0965  45.8358 -19.0799 -19.8820  43.7860   0.00    0.0
2018/10/16 19:11:44.000   45.950236845  -66.641328693   -11.0999   5   4  42.8832   9.1148  45.9463 -19.1254 -19.9281  43.8948   0.00    0.0
2018/10/16 19:11:45.000   45.950255291  -66.641336316    -9.1795   5   4  42.9883   9.1331  46.0574 -19.1710 -19.9745  44.0040   0.00    0.0
2018/10/16 19:11:46.000   45.950219437  -66.641321180   -13.5611   5   4  43.0939   9.1515  46.1691 -19.2169 -20.0211  44.1139   0.00    0.0
2018/10/16 19:11:47.000   45.950199705  -66.641319076   -15.2900   5   4  43.2001   9.1700  46.2813 -19.2629 -20.0679  44.2243   0.00    0.0
2018/10/16 19:11:48.000   45.950210827  -66.641323724   -13.4752   5   4  43.3067   9.1887  46.3941 -19.3093 -20.1150  44.3352   0.00    0.0
2018/10/16 19:11:49.000   45.950213764  -66.641328327   -11.9252   5   4  43.4139   9.2074  46.5075 -19.3558 -20.1623  44.4466   0.00    0.0
2018/10/16 19:11:50.000   45.950211851  -66.641331049   -11.1458   5   4  43.5217   9.2262  46.6214 -19.4026 -20.2098  44.5587   0.00    0.0
2018/10/16 19:11:51.000   45.950261688  -66.641350219    -3.9954   5   4  43.6299   9.2451  46.7360 -19.4496 -20.2576  44.6712   0.00    0.0
2018/10/16 19:11:52.000   45.950295599  -66.641362129     0.6725   5   4  43.7387   9.2641  46.8511 -19.4968 -20.3056  44.7843   0.00    0.0
2018/10/16 19:11:53.000   45.950307421  -66.641366356     2.5609   5   4  43.8480   9.2832  46.9668 -19.5443 -20.3539  44.8981   0.00    0.0
2018/10/16 19:11:54.000   45.950316837  -66.641365265     3.3667   5   4  43.9579   9.3025  47.0832 -19.5920 -20.4025  45.0124   0.00    0.0
2018/10/16 19:11:55.000   45.950309223  -66.641361030     2.0712   5   4  44.0684   9.3218  47.2001 -19.6400 -20.4512  45.1273   0.00    0.0
2018/10/16 19:11:56.000   45.950302546  -66.641361125     0.4353   5   4  44.1795   9.3413  47.3176 -19.6882 -20.5003  45.2427   0.00    0.0
2018/10/16 19:11:57.000   45.950316395  -66.641363766     2.0522   5   4  44.2911   9.3608  47.4358 -19.7366 -20.5496  45.3588   0.00    0.0
2018/10/16 19:11:58.000   45.950271558  -66.641345942    -4.1326   5   4  44.4033   9.3805  47.5545 -19.7853 -20.5992  45.4755   0.00    0.0
2018/10/16 19:11:59.000   45.950260505  -66.641340723    -5.3120   5   4  44.5161   9.4002  47.6739 -19.8343 -20.6490  45.5927   0.00    0.0
2018/10/16 19:12:00.000   45.950342677  -66.641369226     4.9034   5   4  44.6293   9.4201  47.7939 -19.8835 -20.6990  45.7105   0.00    0.0
2018/10/16 19:12:01.000   45.950411391  -66.641391956    13.8506   5   4  44.7432   9.4401  47.9146 -19.9329 -20.7494  45.8289   0.00    0.0
2018/10/16 19:12:02.000   45.950513501  -66.641423867    27.0240   5   4  44.8575   9.4601  48.0359 -19.9825 -20.8000  45.9479   0.00    0.0
2018/10/16 19:12:03.000   45.950472057  -66.641411742    22.0886   5   4  44.9727   9.4803  48.1578 -20.0325 -20.8508  46.0676   0.00    0.0
2018/10/16 19:12:04.000   45.950422702  -66.641394926    15.8963   5   4  45.0885   9.5007  48.2803 -20.0828 -20.9020  46.1880   0.00    0.0
2018/10/16 19:12:05.000   45.950360645  -66.641377685     8.1737   5   4  45.2049   9.5211  48.4035 -20.1333 -20.9534  46.3090   0.00    0.0
2018/10/16 19:12:06.000   45.950368340  -66.641379670     8.8425   5   4  45.3218   9.5416  48.5274 -20.1840 -21.0051  46.4305   0.00    0.0
2018/10/16 19:12:07.000   45.950382340  -66.641383234    10.0703   5   4  45.4393   9.5623  48.6519 -20.2350 -21.0571  46.5527   0.00    0.0
2018/10/16 19:12:08.000   45.950364381  -66.641373381     7.7960   5   4  45.5575   9.5831  48.7771 -20.2863 -21.1093  46.6756   0.00    0.0
2018/10/16 19:16:30.000   45.950512590  -66.641260181     0.9616   5   5   3.7606   2.8305   7.9546   1.4813  -2.0697  -2.4889   0.00    0.0
2018/10/16 19:16:31.000   45.950523792  -66.641293074     0.8491   5   5   3.7605   2.8303   7.9556   1.4804  -2.0682  -2.4875   0.00    0.0
2018/10/16 19:16:32.000   45.950541505  -66.641333470     1.0858   5   5   3.7603   2.8300   7.9565   1.4795  -2.0667  -2.4862   0.00    0.0
2018/10/16 19:16:33.000   45.950561826  -66.641377154     1.1426   5   5   3.7601   2.8297   7.9575   1.4785  -2.0652  -2.4848   0.00    0.0
2018/10/16 19:16:34.000   45.950581815  -66.641425446     1.4809   5   5   3.7599   2.8294   7.9585   1.4776  -2.0637  -2.4835   0.00    0.0
2018/10/16 19:16:35.000   45.950600529  -66.641473585     1.3019   5   5   3.7597   2.8292   7.9595   1.4767  -2.0622  -2.4822   0.00    0.0
2018/10/16 19:16:36.000   45.950622850  -66.641528818     1.3682   5   5   3.7595   2.8289   7.9605   1.4758  -2.0607  -2.4808   0.00    0.0
2018/10/16 19:16:37.000   45.950651878  -66.641583981     1.1866   5   5   3.7594   2.8286   7.9615   1.4748  -2.0592  -2.4795   0.00    0.0
2018/10/16 19:16:38.000   45.950659212  -66.641631872    -0.0664   5   5   3.7592   2.8284   7.9625   1.4739  -2.0577  -2.4781   0.00    0.0
2018/10/16 19:16:39.000   45.950691060  -66.641685900     0.7335   5   5   3.7590   2.8281   7.9635   1.4730  -2.0562  -2.4768   0.00    0.0
2018/10/16 19:16:40.000   45.950706999  -66.641732047     0.9668   5   5   3.7588   2.8278   7.9645   1.4721  -2.0547  -2.4754   0.00    0.0
2018/10/16 19:16:41.000   45.950726677  -66.641778934     1.3023   5   5   3.7586   2.8276   7.9655   1.4712  -2.0532  -2.4741   0.00    0.0
2018/10/16 19:16:42.000   45.950742339  -66.641826297     0.5116   5   5   3.7585   2.8273   7.9665   1.4702  -2.0516  -2.4727   0.00    0.0
2018/10/16 19:16:43.000   45.950748044  -66.641871966     0.9948   5   5   3.7583   2.8270   7.9675   1.4693  -2.0501  -2.4714   0.00    0.0
2018/10/16 19:16:44.000   45.950739919  -66.641912057     1.1069   5   5   3.7581   2.8268   7.9685   1.4684  -2.0486  -2.4700   0.00    0.0
2018/10/16 19:16:45.000   45.950728694  -66.641946357     0.8553   5   5   3.7579   2.8265   7.9695   1.4675  -2.0471  -2.4686   0.00    0.0
2018/10/16 19:16:46.000   45.950715394  -66.641970371     1.0657   5   5   3.7577   2.8262   7.9705   1.4665  -2.0456  -2.4673   0.00    0.0
2018/10/16 19:16:47.000   45.950703080  -66.641988873     0.7515   5   5   3.7575   2.8260   7.9715   1.4656  -2.0441  -2.4659   0.00    0.0
2018/10/16 19:16:48.000   45.950691762  -66.641999933     0.8813   5   5   3.7574   2.8257   7.9725   1.4647  -2.0426  -2.4645   0.00    0.0
2018/10/16 19:16:49.000   45.950676491  -66.642004059     0.5466   5   5   3.7572   2.8254   7.9735   1.4638  -2.0411  -2.4632   0.00    0.0
2018/10/16 19:16:50.000   45.950663059  -66.642004598     1.0199   5   5   3.7570   2.8252   7.9745   1.4628  -2.0396  -2.4618   0.00    0.0
2018/10/16 19:16:51.000   45.950645117  -66.641998877     0.9570   5   5   3.7568   2.8249   7.9755   1.4619  -2.0380  -2.4604   0.00    0.0
2018/10/16 19:16:52.000   45.950620595  -66.641976989     0.6970   5   5   3.7566   2.8247   7.9765   1.4610  -2.0365  -2.4590   0.00    0.0
2018/10/16 19:16:53.000   45.950599490  -66.641941687    -0.1928   5   5   3.7565   2.8244   7.9775   1.4601  -2.0350  -2.4577   0.00    0.0
