% program   : RTKPOST ver.2.4.2
% inp file  : Z:\home\emerson\Desktop\Connected_folders\gnssins\data\CAR_2890.18O
% inp file  : Z:\home\emerson\Desktop\Connected_folders\gnssins\data\BRDC00IGS_R_20182890000_01D_MN.nav
% inp file  : Z:\home\emerson\Desktop\Connected_folders\gnssins\data\grm20232.*
% obs start : 2018/10/16 19:05:36.0 GPST (week2023 241536.0s)
% obs end   : 2018/10/16 20:01:25.0 GPST (week2023 244885.0s)
% pos mode  : ppp-kinematic
% solution  : forward
% elev mask : 15.0 deg
% dynamics  : on
% tidecorr  : off
% tropo opt : est ztd
% ephemeris : precise
% navi sys  : gps glonass
% antenna1  :                       ( 0.0000  0.0000  0.0000)
%
% (lat/lon/height=WGS84/ellipsoidal,Q=1:fix,2:float,3:sbas,4:dgps,5:single,6:ppp,ns=# of satellites)
%  GPST                  latitude(deg) longitude(deg)  height(m)   Q  ns   sdn(m)   sde(m)   sdu(m)  sdne(m)  sdeu(m)  sdun(m) age(s)  ratio
2018/10/16 19:05:36.000   45.950338231  -66.641385972     2.5463   6   9   3.7745   1.2835   4.5569  -0.8315  -0.8350   2.7737   0.00    0.0
2018/10/16 19:05:37.000   45.950338348  -66.641385697     2.2526   6   9   2.6698   0.9078   3.2299  -0.5887  -0.5918   1.9634   0.00    0.0
2018/10/16 19:05:38.000   45.950338898  -66.641385917     1.9089   6   9   2.1801   0.7413   2.6431  -0.4812  -0.4841   1.6043   0.00    0.0
2018/10/16 19:05:39.000   45.950339640  -66.641386228     1.6828   6   9   1.8879   0.6421   2.2939  -0.4171  -0.4199   1.3902   0.00    0.0
2018/10/16 19:05:40.000   45.950341152  -66.641385911     1.7202   6   9   1.6884   0.5743   2.0561  -0.3734  -0.3762   1.2440   0.00    0.0
2018/10/16 19:05:41.000   45.950342372  -66.641385443     1.6972   6   9   1.5410   0.5244   1.8809  -0.3412  -0.3440   1.1361   0.00    0.0
2018/10/16 19:05:42.000   45.950342451  -66.641384566     1.6870   6   9   1.4262   0.4855   1.7449  -0.3162  -0.3189   1.0521   0.00    0.0
2018/10/16 19:05:43.000   45.950342376  -66.641383440     1.7346   6   9   1.3336   0.4542   1.6355  -0.2960  -0.2988   0.9843   0.00    0.0
2018/10/16 19:05:44.000   45.950342012  -66.641382493     1.8356   6   9   1.2568   0.4283   1.5450  -0.2793  -0.2821   0.9281   0.00    0.0
2018/10/16 19:05:45.000   45.950341721  -66.641381986     1.9569   6   9   1.1918   0.4064   1.4686  -0.2652  -0.2681   0.8805   0.00    0.0
2018/10/16 19:05:46.000   45.950341310  -66.641381780     2.0088   6   9   1.1356   0.3874   1.4029  -0.2530  -0.2560   0.8394   0.00    0.0
2018/10/16 19:05:47.000   45.950340667  -66.641381567     1.9819   6   9   1.0863   0.3710   1.3456  -0.2425  -0.2455   0.8034   0.00    0.0
2018/10/16 19:05:48.000   45.950342966  -66.641380706     2.2332   6   9   1.0426   0.3564   1.2950  -0.2331  -0.2361   0.7714   0.00    0.0
2018/10/16 19:05:49.000   45.950345662  -66.641379845     2.5506   6   9   1.0036   0.3435   1.2500  -0.2248  -0.2279   0.7428   0.00    0.0
2018/10/16 19:05:50.000   45.950348180  -66.641379782     2.8783   6   9   0.9683   0.3318   1.2095  -0.2174  -0.2205   0.7169   0.00    0.0
2018/10/16 19:05:51.000   45.950350988  -66.641379796     3.2482   6   9   0.9361   0.3213   1.1729  -0.2107  -0.2138   0.6933   0.00    0.0
2018/10/16 19:05:52.000   45.950353020  -66.641379899     3.4946   6   9   0.9067   0.3117   1.1396  -0.2045  -0.2078   0.6718   0.00    0.0
2018/10/16 19:05:53.000   45.950355169  -66.641379779     3.7917   6   9   0.8796   0.3029   1.1091  -0.1989  -0.2021   0.6519   0.00    0.0
2018/10/16 19:05:54.000   45.950357443  -66.641379628     4.1604   6   9   0.8545   0.2948   1.0810  -0.1937  -0.1970   0.6334   0.00    0.0
2018/10/16 19:05:55.000   45.950359285  -66.641379845     4.4723   6   9   0.8311   0.2874   1.0551  -0.1890  -0.1923   0.6162   0.00    0.0
2018/10/16 19:05:56.000   45.950360770  -66.641379815     4.6652   6   9   0.8093   0.2804   1.0310  -0.1845  -0.1879   0.6002   0.00    0.0
2018/10/16 19:05:57.000   45.950361811  -66.641379610     4.8200   6   8   0.7900   0.2747   1.0090  -0.1792  -0.1840   0.5861   0.00    0.0
2018/10/16 19:05:58.000   45.950362948  -66.641379643     4.9858   6   8   0.7717   0.2692   0.9888  -0.1749  -0.1806   0.5729   0.00    0.0
2018/10/16 19:05:59.000   45.950363369  -66.641379573     5.0427   6   8   0.7544   0.2641   0.9697  -0.1709  -0.1774   0.5606   0.00    0.0
2018/10/16 19:06:00.000   45.950364088  -66.641379522     5.1525   6   8   0.7381   0.2592   0.9520  -0.1671  -0.1744   0.5489   0.00    0.0
2018/10/16 19:06:01.000   45.950364573  -66.641379447     5.2411   6   8   0.7228   0.2546   0.9352  -0.1637  -0.1716   0.5379   0.00    0.0
2018/10/16 19:06:02.000   45.950364577  -66.641379738     5.2609   6   8   0.7083   0.2502   0.9194  -0.1604  -0.1690   0.5275   0.00    0.0
2018/10/16 19:06:03.000   45.950365207  -66.641379913     5.3068   6   8   0.6946   0.2462   0.9045  -0.1571  -0.1665   0.5177   0.00    0.0
2018/10/16 19:06:04.000   45.950365975  -66.641380032     5.3919   6   8   0.6816   0.2422   0.8903  -0.1542  -0.1640   0.5083   0.00    0.0
2018/10/16 19:06:05.000   45.950366615  -66.641380170     5.4659   6   8   0.6692   0.2385   0.8770  -0.1514  -0.1616   0.4995   0.00    0.0
2018/10/16 19:06:06.000   45.950366914  -66.641380247     5.4858   6   8   0.6575   0.2350   0.8642  -0.1487  -0.1594   0.4911   0.00    0.0
2018/10/16 19:06:07.000   45.950367266  -66.641380491     5.5300   6   8   0.6463   0.2316   0.8521  -0.1462  -0.1572   0.4830   0.00    0.0
2018/10/16 19:06:08.000   45.950367311  -66.641380701     5.5269   6   8   0.6356   0.2283   0.8406  -0.1438  -0.1552   0.4754   0.00    0.0
2018/10/16 19:06:09.000   45.950367219  -66.641380835     5.5419   6   9   0.6254   0.2249   0.8296  -0.1416  -0.1528   0.4682   0.00    0.0
2018/10/16 19:06:10.000   45.950367380  -66.641380996     5.6011   6   9   0.6157   0.2214   0.8191  -0.1397  -0.1503   0.4613   0.00    0.0
2018/10/16 19:06:11.000   45.950367521  -66.641381112     5.6795   6   9   0.6064   0.2182   0.8091  -0.1379  -0.1483   0.4547   0.00    0.0
2018/10/16 19:06:12.000   45.950367620  -66.641381219     5.7088   6   7   0.5986   0.2157   0.8000  -0.1350  -0.1472   0.4473   0.00    0.0
2018/10/16 19:06:13.000   45.950367342  -66.641381319     5.7641   6   9   0.5893   0.2126   0.7907  -0.1337  -0.1452   0.4417   0.00    0.0
2018/10/16 19:06:14.000   45.950367071  -66.641381380     5.8458   6   9   0.5811   0.2099   0.7819  -0.1320  -0.1431   0.4359   0.00    0.0
2018/10/16 19:06:15.000   45.950366528  -66.641381426     5.8968   6   9   0.5732   0.2072   0.7733  -0.1305  -0.1413   0.4302   0.00    0.0
2018/10/16 19:06:16.000   45.950365863  -66.641381476     5.9521   6   9   0.5654   0.2045   0.7649  -0.1290  -0.1395   0.4247   0.00    0.0
2018/10/16 19:06:17.000   45.950365138  -66.641381423     5.9630   6   9   0.5576   0.2019   0.7568  -0.1275  -0.1378   0.4192   0.00    0.0
2018/10/16 19:06:18.000   45.950364156  -66.641381188     5.9347   6   9   0.5500   0.1994   0.7490  -0.1261  -0.1360   0.4138   0.00    0.0
2018/10/16 19:06:19.000   45.950363062  -66.641380855     5.8589   6   9   0.5425   0.1970   0.7413  -0.1247  -0.1345   0.4084   0.00    0.0
2018/10/16 19:06:20.000   45.950362076  -66.641380508     5.8204   6   9   0.5351   0.1947   0.7339  -0.1234  -0.1328   0.4032   0.00    0.0
2018/10/16 19:06:21.000   45.950361329  -66.641380132     5.7758   6   9   0.5278   0.1925   0.7267  -0.1221  -0.1313   0.3980   0.00    0.0
2018/10/16 19:06:22.000   45.950360459  -66.641379827     5.7352   6   9   0.5206   0.1903   0.7197  -0.1208  -0.1299   0.3928   0.00    0.0
2018/10/16 19:06:23.000   45.950359433  -66.641380065     5.6875   6   7   0.5142   0.1886   0.7137  -0.1185  -0.1278   0.3888   0.00    0.0
2018/10/16 19:06:24.000   45.950358715  -66.641380551     5.7463   6   7   0.5082   0.1869   0.7079  -0.1170  -0.1263   0.3850   0.00    0.0
2018/10/16 19:06:25.000   45.950357667  -66.641380648     5.7152   6   7   0.5022   0.1852   0.7022  -0.1156  -0.1248   0.3813   0.00    0.0
2018/10/16 19:06:26.000   45.950356523  -66.641380951     5.6988   6   7   0.4963   0.1836   0.6967  -0.1143  -0.1234   0.3776   0.00    0.0
2018/10/16 19:06:27.000   45.950355404  -66.641381231     5.6671   6   7   0.4905   0.1819   0.6913  -0.1129  -0.1220   0.3740   0.00    0.0
2018/10/16 19:06:28.000   45.950354421  -66.641381477     5.6490   6   7   0.4847   0.1803   0.6860  -0.1116  -0.1208   0.3704   0.00    0.0
2018/10/16 19:06:29.000   45.950353652  -66.641381806     5.6489   6   7   0.4791   0.1789   0.6809  -0.1103  -0.1194   0.3668   0.00    0.0
2018/10/16 19:06:30.000   45.950352661  -66.641381848     5.6122   6   7   0.4736   0.1774   0.6759  -0.1091  -0.1182   0.3632   0.00    0.0
2018/10/16 19:06:31.000   45.950352031  -66.641382004     5.5971   6   7   0.4682   0.1760   0.6712  -0.1079  -0.1169   0.3599   0.00    0.0
2018/10/16 19:06:32.000   45.950351327  -66.641382194     5.5895   6   7   0.4631   0.1745   0.6666  -0.1069  -0.1158   0.3567   0.00    0.0
2018/10/16 19:06:33.000   45.950350894  -66.641382512     5.5989   6   7   0.4581   0.1732   0.6621  -0.1059  -0.1147   0.3536   0.00    0.0
2018/10/16 19:06:34.000   45.950350142  -66.641382742     5.5683   6   7   0.4533   0.1718   0.6577  -0.1047  -0.1135   0.3505   0.00    0.0
2018/10/16 19:06:35.000   45.950349364  -66.641382953     5.5399   6   9   0.4483   0.1703   0.6530  -0.1042  -0.1126   0.3469   0.00    0.0
2018/10/16 19:06:36.000   45.950348661  -66.641383084     5.5199   6   9   0.4432   0.1689   0.6480  -0.1035  -0.1118   0.3430   0.00    0.0
2018/10/16 19:06:37.000   45.950348030  -66.641383187     5.5278   6   9   0.4384   0.1674   0.6434  -0.1031  -0.1111   0.3395   0.00    0.0
2018/10/16 19:06:38.000   45.950347599  -66.641383375     5.5670   6   9   0.4338   0.1660   0.6390  -0.1024  -0.1102   0.3362   0.00    0.0
2018/10/16 19:06:39.000   45.950347259  -66.641383486     5.6017   6   9   0.4295   0.1647   0.6348  -0.1018  -0.1094   0.3330   0.00    0.0
2018/10/16 19:06:40.000   45.950346823  -66.641383522     5.6441   6   9   0.4253   0.1634   0.6307  -0.1012  -0.1085   0.3300   0.00    0.0
2018/10/16 19:06:41.000   45.950346436  -66.641383503     5.6715   6   9   0.4213   0.1622   0.6267  -0.1006  -0.1076   0.3271   0.00    0.0
2018/10/16 19:06:42.000   45.950346053  -66.641383410     5.7093   6   9   0.4175   0.1609   0.6228  -0.1000  -0.1069   0.3243   0.00    0.0
2018/10/16 19:06:43.000   45.950345709  -66.641383274     5.7519   6   9   0.4137   0.1598   0.6191  -0.0994  -0.1063   0.3216   0.00    0.0
2018/10/16 19:06:44.000   45.950345087  -66.641383257     5.7808   6   9   0.4101   0.1586   0.6155  -0.0988  -0.1056   0.3190   0.00    0.0
2018/10/16 19:06:45.000   45.950344670  -66.641383037     5.8017   6   9   0.4067   0.1575   0.6119  -0.0982  -0.1049   0.3165   0.00    0.0
2018/10/16 19:06:46.000   45.950344255  -66.641382737     5.8185   6   9   0.4030   0.1562   0.6082  -0.0978  -0.1041   0.3139   0.00    0.0
2018/10/16 19:06:47.000   45.950343843  -66.641382330     5.8141   6   9   0.3993   0.1551   0.6045  -0.0973  -0.1036   0.3113   0.00    0.0
2018/10/16 19:06:48.000   45.950343819  -66.641381852     5.8457   6   9   0.3956   0.1539   0.6009  -0.0967  -0.1029   0.3086   0.00    0.0
2018/10/16 19:06:49.000   45.950343165  -66.641381665     5.8035   6   9   0.3924   0.1528   0.5980  -0.0958  -0.1016   0.3070   0.00    0.0
2018/10/16 19:06:50.000   45.950342828  -66.641381294     5.8044   6   9   0.3882   0.1517   0.5941  -0.0956  -0.1014   0.3037   0.00    0.0
2018/10/16 19:06:51.000   45.950342536  -66.641380913     5.7954   6   9   0.3847   0.1507   0.5909  -0.0950  -0.1004   0.3015   0.00    0.0
2018/10/16 19:06:52.000   45.950342090  -66.641380495     5.7845   6   9   0.3805   0.1496   0.5871  -0.0948  -0.1000   0.2981   0.00    0.0
2018/10/16 19:06:53.000   45.950341678  -66.641380194     5.7666   6   9   0.3765   0.1485   0.5837  -0.0945  -0.0996   0.2952   0.00    0.0
2018/10/16 19:06:54.000   45.950341162  -66.641379904     5.7545   6   9   0.3725   0.1476   0.5803  -0.0940  -0.0991   0.2923   0.00    0.0
2018/10/16 19:06:55.000   45.950340680  -66.641379667     5.7421   6   9   0.3685   0.1465   0.5769  -0.0938  -0.0984   0.2894   0.00    0.0
2018/10/16 19:06:56.000   45.950340022  -66.641379562     5.7153   6   9   0.3645   0.1457   0.5737  -0.0932  -0.0979   0.2866   0.00    0.0
2018/10/16 19:06:57.000   45.950339347  -66.641379494     5.7024   6   9   0.3606   0.1446   0.5705  -0.0931  -0.0973   0.2838   0.00    0.0
2018/10/16 19:06:58.000   45.950338772  -66.641379457     5.6854   6   9   0.3567   0.1437   0.5673  -0.0923  -0.0967   0.2808   0.00    0.0
2018/10/16 19:06:59.000   45.950338051  -66.641379405     5.6634   6   9   0.3528   0.1429   0.5642  -0.0921  -0.0962   0.2781   0.00    0.0
2018/10/16 19:07:00.000   45.950337434  -66.641379363     5.6335   6   9   0.3489   0.1419   0.5611  -0.0913  -0.0954   0.2752   0.00    0.0
2018/10/16 19:07:01.000   45.950336895  -66.641379328     5.6205   6   9   0.3453   0.1411   0.5582  -0.0910  -0.0950   0.2726   0.00    0.0
2018/10/16 19:07:02.000   45.950336341  -66.641379315     5.5918   6   9   0.3417   0.1402   0.5553  -0.0910  -0.0945   0.2700   0.00    0.0
2018/10/16 19:07:03.000   45.950335762  -66.641379262     5.5535   6   9   0.3383   0.1395   0.5525  -0.0903  -0.0938   0.2675   0.00    0.0
2018/10/16 19:07:04.000   45.950335505  -66.641379363     5.5640   6   8   0.3353   0.1388   0.5499  -0.0895  -0.0933   0.2653   0.00    0.0
2018/10/16 19:07:05.000   45.950335098  -66.641379516     5.5702   6   8   0.3323   0.1382   0.5474  -0.0889  -0.0927   0.2633   0.00    0.0
2018/10/16 19:07:06.000   45.950334970  -66.641379614     5.6122   6   8   0.3294   0.1375   0.5449  -0.0885  -0.0922   0.2612   0.00    0.0
2018/10/16 19:07:07.000   45.950334752  -66.641379533     5.6248   6   9   0.3264   0.1366   0.5424  -0.0887  -0.0918   0.2591   0.00    0.0
2018/10/16 19:07:08.000   45.950334592  -66.641379541     5.6305   6   9   0.3236   0.1358   0.5400  -0.0883  -0.0913   0.2570   0.00    0.0
2018/10/16 19:07:09.000   45.950334546  -66.641379513     5.6449   6   9   0.3210   0.1351   0.5376  -0.0877  -0.0907   0.2550   0.00    0.0
2018/10/16 19:07:10.000   45.950334438  -66.641379518     5.6684   6   9   0.3184   0.1345   0.5352  -0.0873  -0.0904   0.2531   0.00    0.0
2018/10/16 19:07:11.000   45.950334271  -66.641379458     5.6679   6   9   0.3159   0.1337   0.5329  -0.0870  -0.0898   0.2512   0.00    0.0
2018/10/16 19:07:12.000   45.950334176  -66.641379319     5.6796   6   9   0.3136   0.1330   0.5307  -0.0868  -0.0893   0.2495   0.00    0.0
2018/10/16 19:07:13.000   45.950334087  -66.641379258     5.6861   6   9   0.3114   0.1325   0.5286  -0.0863  -0.0886   0.2478   0.00    0.0
2018/10/16 19:07:14.000   45.950333810  -66.641379240     5.6984   6   9   0.3092   0.1318   0.5265  -0.0858  -0.0885   0.2462   0.00    0.0
2018/10/16 19:07:15.000   45.950333538  -66.641379142     5.6784   6   9   0.3072   0.1312   0.5244  -0.0854  -0.0879   0.2446   0.00    0.0
2018/10/16 19:07:16.000   45.950333264  -66.641379055     5.6681   6   9   0.3049   0.1305   0.5221  -0.0850  -0.0875   0.2429   0.00    0.0
2018/10/16 19:07:17.000   45.950332984  -66.641379000     5.6639   6   9   0.3025   0.1297   0.5197  -0.0848  -0.0871   0.2411   0.00    0.0
2018/10/16 19:07:18.000   45.950332792  -66.641379043     5.6573   6   9   0.3000   0.1290   0.5174  -0.0845  -0.0865   0.2393   0.00    0.0
2018/10/16 19:07:19.000   45.950332663  -66.641378980     5.6528   6   9   0.2975   0.1283   0.5150  -0.0841  -0.0861   0.2374   0.00    0.0
2018/10/16 19:07:20.000   45.950332732  -66.641378969     5.6698   6   9   0.2949   0.1276   0.5128  -0.0841  -0.0856   0.2356   0.00    0.0
2018/10/16 19:07:21.000   45.950332651  -66.641379126     5.6838   6   9   0.2923   0.1269   0.5104  -0.0836  -0.0852   0.2336   0.00    0.0
2018/10/16 19:07:22.000   45.950332648  -66.641379174     5.6745   6   9   0.2896   0.1262   0.5080  -0.0834  -0.0846   0.2315   0.00    0.0
2018/10/16 19:07:23.000   45.950332448  -66.641379308     5.6762   6   9   0.2869   0.1257   0.5058  -0.0827  -0.0842   0.2295   0.00    0.0
2018/10/16 19:07:24.000   45.950332507  -66.641379376     5.6781   6   9   0.2842   0.1250   0.5035  -0.0826  -0.0837   0.2275   0.00    0.0
2018/10/16 19:07:25.000   45.950332559  -66.641379330     5.7094   6   9   0.2815   0.1244   0.5012  -0.0823  -0.0833   0.2253   0.00    0.0
2018/10/16 19:07:26.000   45.950332426  -66.641379276     5.7195   6   9   0.2787   0.1238   0.4989  -0.0818  -0.0830   0.2232   0.00    0.0
2018/10/16 19:07:27.000   45.950332274  -66.641379226     5.7259   6   9   0.2759   0.1231   0.4966  -0.0818  -0.0824   0.2210   0.00    0.0
2018/10/16 19:07:28.000   45.950332199  -66.641379124     5.7464   6   9   0.2730   0.1225   0.4944  -0.0813  -0.0818   0.2189   0.00    0.0
2018/10/16 19:07:29.000   45.950332163  -66.641379151     5.7767   6   9   0.2703   0.1219   0.4922  -0.0809  -0.0814   0.2167   0.00    0.0
2018/10/16 19:07:30.000   45.950331923  -66.641379055     5.7763   6   9   0.2675   0.1214   0.4900  -0.0808  -0.0811   0.2146   0.00    0.0
2018/10/16 19:07:31.000   45.950331636  -66.641378863     5.7619   6   9   0.2649   0.1209   0.4879  -0.0802  -0.0806   0.2126   0.00    0.0
2018/10/16 19:07:32.000   45.950331371  -66.641378841     5.7535   6   9   0.2625   0.1203   0.4859  -0.0799  -0.0797   0.2106   0.00    0.0
2018/10/16 19:07:33.000   45.950331034  -66.641378772     5.7209   6   9   0.2601   0.1199   0.4839  -0.0797  -0.0794   0.2087   0.00    0.0
2018/10/16 19:07:34.000   45.950330799  -66.641378771     5.7061   6   9   0.2578   0.1194   0.4820  -0.0795  -0.0793   0.2070   0.00    0.0
2018/10/16 19:07:35.000   45.950330523  -66.641378622     5.7051   6   9   0.2557   0.1189   0.4801  -0.0790  -0.0785   0.2053   0.00    0.0
2018/10/16 19:07:36.000   45.950330223  -66.641378445     5.6648   6   9   0.2536   0.1184   0.4784  -0.0787  -0.0782   0.2037   0.00    0.0
2018/10/16 19:07:37.000   45.950329836  -66.641378231     5.6119   6   9   0.2517   0.1179   0.4765  -0.0785  -0.0778   0.2021   0.00    0.0
2018/10/16 19:07:38.000   45.950329612  -66.641378042     5.5748   6   9   0.2499   0.1174   0.4749  -0.0781  -0.0771   0.2007   0.00    0.0
2018/10/16 19:07:39.000   45.950329084  -66.641377906     5.5187   6   9   0.2481   0.1170   0.4732  -0.0777  -0.0769   0.1992   0.00    0.0
2018/10/16 19:07:40.000   45.950328898  -66.641377801     5.4924   6   9   0.2465   0.1165   0.4716  -0.0777  -0.0764   0.1978   0.00    0.0
2018/10/16 19:07:41.000   45.950328913  -66.641377698     5.4754   6   9   0.2449   0.1161   0.4700  -0.0773  -0.0762   0.1966   0.00    0.0
2018/10/16 19:07:42.000   45.950328651  -66.641377728     5.4547   6   9   0.2434   0.1157   0.4685  -0.0768  -0.0755   0.1953   0.00    0.0
2018/10/16 19:07:43.000   45.950328432  -66.641377696     5.4255   6   9   0.2420   0.1152   0.4670  -0.0765  -0.0751   0.1942   0.00    0.0
2018/10/16 19:07:44.000   45.950328179  -66.641377686     5.4017   6   9   0.2407   0.1148   0.4655  -0.0762  -0.0747   0.1931   0.00    0.0
2018/10/16 19:07:45.000   45.950327859  -66.641377625     5.3655   6   9   0.2395   0.1145   0.4641  -0.0759  -0.0744   0.1920   0.00    0.0
2018/10/16 19:07:46.000   45.950327655  -66.641377798     5.3450   6   9   0.2378   0.1139   0.4624  -0.0759  -0.0739   0.1908   0.00    0.0
2018/10/16 19:07:47.000   45.950327323  -66.641377958     5.3211   6   9   0.2362   0.1134   0.4606  -0.0756  -0.0735   0.1895   0.00    0.0
2018/10/16 19:07:48.000   45.950327219  -66.641378080     5.2989   6   9   0.2345   0.1130   0.4589  -0.0753  -0.0730   0.1881   0.00    0.0
2018/10/16 19:07:49.000   45.950327335  -66.641377978     5.2758   6   9   0.2331   0.1126   0.4572  -0.0744  -0.0722   0.1871   0.00    0.0
2018/10/16 19:07:50.000   45.950327090  -66.641378101     5.2452   6   8   0.2315   0.1123   0.4556  -0.0739  -0.0718   0.1860   0.00    0.0
2018/10/16 19:07:51.000   45.950326991  -66.641378164     5.2269   6   8   0.2298   0.1118   0.4541  -0.0737  -0.0715   0.1850   0.00    0.0
2018/10/16 19:07:52.000   45.950326916  -66.641378177     5.2004   6   8   0.2281   0.1114   0.4526  -0.0734  -0.0711   0.1839   0.00    0.0
2018/10/16 19:07:53.000   45.950326845  -66.641378260     5.1951   6   9   0.2263   0.1109   0.4511  -0.0733  -0.0707   0.1828   0.00    0.0
2018/10/16 19:07:54.000   45.950326687  -66.641378227     5.1647   6   9   0.2246   0.1105   0.4496  -0.0729  -0.0700   0.1817   0.00    0.0
2018/10/16 19:07:55.000   45.950326718  -66.641378230     5.1625   6   9   0.2228   0.1098   0.4480  -0.0728  -0.0696   0.1805   0.00    0.0
2018/10/16 19:07:56.000   45.950326337  -66.641378230     5.1210   6   9   0.2210   0.1093   0.4465  -0.0724  -0.0689   0.1794   0.00    0.0
2018/10/16 19:07:57.000   45.950326111  -66.641378120     5.0781   6   9   0.2193   0.1088   0.4450  -0.0723  -0.0681   0.1781   0.00    0.0
2018/10/16 19:07:58.000   45.950325899  -66.641378111     5.0485   6   9   0.2175   0.1084   0.4435  -0.0721  -0.0679   0.1769   0.00    0.0
2018/10/16 19:07:59.000   45.950325584  -66.641378049     5.0147   6   7   0.2162   0.1084   0.4426  -0.0710  -0.0670   0.1766   0.00    0.0
2018/10/16 19:08:00.000   45.950325752  -66.641378209     5.0655   6   7   0.2146   0.1079   0.4412  -0.0707  -0.0665   0.1755   0.00    0.0
2018/10/16 19:08:01.000   45.950325739  -66.641378416     5.0843   6   8   0.2131   0.1076   0.4399  -0.0707  -0.0662   0.1746   0.00    0.0
2018/10/16 19:08:02.000   45.950325663  -66.641378434     5.0718   6   8   0.2111   0.1073   0.4383  -0.0706  -0.0660   0.1729   0.00    0.0
2018/10/16 19:08:03.000   45.950325745  -66.641378507     5.0731   6   7   0.2104   0.1071   0.4376  -0.0699  -0.0655   0.1730   0.00    0.0
2018/10/16 19:08:04.000   45.950325773  -66.641378501     5.0638   6   7   0.2091   0.1067   0.4365  -0.0698  -0.0650   0.1723   0.00    0.0
2018/10/16 19:08:05.000   45.950325864  -66.641378577     5.0625   6   7   0.2080   0.1064   0.4355  -0.0696  -0.0644   0.1717   0.00    0.0
2018/10/16 19:08:06.000   45.950325763  -66.641378575     5.0457   6   7   0.2069   0.1061   0.4345  -0.0693  -0.0639   0.1710   0.00    0.0
2018/10/16 19:08:07.000   45.950325678  -66.641378566     5.0294   6   7   0.2059   0.1059   0.4335  -0.0688  -0.0637   0.1705   0.00    0.0
2018/10/16 19:08:08.000   45.950325584  -66.641378522     5.0041   6   7   0.2049   0.1056   0.4325  -0.0687  -0.0633   0.1699   0.00    0.0
2018/10/16 19:08:09.000   45.950325631  -66.641378598     5.0146   6   7   0.2040   0.1053   0.4316  -0.0685  -0.0628   0.1694   0.00    0.0
2018/10/16 19:08:10.000   45.950325415  -66.641378474     4.9784   6   7   0.2032   0.1052   0.4307  -0.0680  -0.0623   0.1689   0.00    0.0
2018/10/16 19:08:11.000   45.950325103  -66.641378434     4.9299   6   8   0.2024   0.1049   0.4298  -0.0678  -0.0620   0.1685   0.00    0.0
2018/10/16 19:08:12.000   45.950324745  -66.641378417     4.9013   6   8   0.2009   0.1046   0.4283  -0.0678  -0.0620   0.1667   0.00    0.0
2018/10/16 19:08:13.000   45.950324736  -66.641378477     4.9089   6   8   0.1999   0.1044   0.4271  -0.0676  -0.0616   0.1658   0.00    0.0
2018/10/16 19:08:14.000   45.950324618  -66.641378506     4.9031   6   8   0.1991   0.1042   0.4262  -0.0674  -0.0615   0.1652   0.00    0.0
2018/10/16 19:08:15.000   45.950324629  -66.641378523     4.9282   6   7   0.1999   0.1040   0.4266  -0.0668  -0.0605   0.1670   0.00    0.0
2018/10/16 19:08:16.000   45.950324563  -66.641378578     4.9462   6   7   0.1988   0.1036   0.4253  -0.0666  -0.0603   0.1663   0.00    0.0
2018/10/16 19:08:17.000   45.950324491  -66.641378644     4.9609   6   8   0.1963   0.1033   0.4229  -0.0668  -0.0606   0.1635   0.00    0.0
2018/10/16 19:08:18.000   45.950324484  -66.641378665     4.9810   6   8   0.1952   0.1029   0.4217  -0.0666  -0.0602   0.1628   0.00    0.0
2018/10/16 19:08:19.000   45.950324565  -66.641378714     5.0128   6   8   0.1940   0.1025   0.4205  -0.0666  -0.0600   0.1620   0.00    0.0
2018/10/16 19:08:20.000   45.950324479  -66.641378696     5.0216   6   8   0.1927   0.1022   0.4192  -0.0662  -0.0597   0.1613   0.00    0.0
2018/10/16 19:08:21.000   45.950324558  -66.641378711     5.0405   6   8   0.1915   0.1018   0.4180  -0.0662  -0.0594   0.1605   0.00    0.0
2018/10/16 19:08:22.000   45.950324487  -66.641378764     5.0370   6   8   0.1903   0.1013   0.4167  -0.0662  -0.0587   0.1597   0.00    0.0
2018/10/16 19:08:23.000   45.950324328  -66.641378759     5.0252   6   8   0.1890   0.1010   0.4155  -0.0660  -0.0587   0.1590   0.00    0.0
2018/10/16 19:08:24.000   45.950324332  -66.641378691     5.0311   6   8   0.1877   0.1008   0.4143  -0.0658  -0.0583   0.1582   0.00    0.0
2018/10/16 19:08:25.000   45.950324380  -66.641378612     5.0580   6   8   0.1864   0.1005   0.4131  -0.0656  -0.0580   0.1574   0.00    0.0
2018/10/16 19:08:26.000   45.950324245  -66.641378541     5.0624   6   8   0.1851   0.1001   0.4119  -0.0656  -0.0575   0.1566   0.00    0.0
2018/10/16 19:08:27.000   45.950324166  -66.641378485     5.0579   6   8   0.1838   0.0997   0.4107  -0.0654  -0.0571   0.1557   0.00    0.0
2018/10/16 19:08:28.000   45.950323851  -66.641378369     5.0307   6   8   0.1825   0.0994   0.4095  -0.0652  -0.0568   0.1548   0.00    0.0
2018/10/16 19:08:29.000   45.950323673  -66.641378331     5.0129   6   8   0.1812   0.0992   0.4084  -0.0651  -0.0565   0.1540   0.00    0.0
2018/10/16 19:08:30.000   45.950323636  -66.641378317     5.0191   6   8   0.1798   0.0989   0.4072  -0.0649  -0.0562   0.1531   0.00    0.0
2018/10/16 19:08:31.000   45.950323433  -66.641378241     4.9880   6   8   0.1788   0.0985   0.4061  -0.0645  -0.0557   0.1523   0.00    0.0
2018/10/16 19:08:32.000   45.950323148  -66.641378185     4.9512   6   8   0.1778   0.0984   0.4051  -0.0645  -0.0550   0.1517   0.00    0.0
2018/10/16 19:08:33.000   45.950322630  -66.641378092     4.8945   6   8   0.1768   0.0982   0.4042  -0.0642  -0.0552   0.1511   0.00    0.0
2018/10/16 19:08:34.000   45.950322327  -66.641378035     4.8618   6   8   0.1758   0.0979   0.4032  -0.0642  -0.0545   0.1504   0.00    0.0
2018/10/16 19:08:35.000   45.950322289  -66.641378141     4.8961   6   6   0.1810   0.0992   0.4084  -0.0688  -0.0631   0.1604   0.00    0.0
2018/10/16 19:08:36.000   45.950322049  -66.641378049     4.8713   6   6   0.1803   0.0990   0.4079  -0.0687  -0.0632   0.1599   0.00    0.0
2018/10/16 19:08:37.000   45.950321678  -66.641377899     4.8320   6   6   0.1797   0.0990   0.4074  -0.0685  -0.0635   0.1594   0.00    0.0
2018/10/16 19:08:38.000   45.950321652  -66.641377889     4.8366   6   6   0.1792   0.0989   0.4070  -0.0684  -0.0638   0.1591   0.00    0.0
2018/10/16 19:08:39.000   45.950321195  -66.641377740     4.7882   6   6   0.1786   0.0989   0.4067  -0.0682  -0.0641   0.1588   0.00    0.0
2018/10/16 19:08:40.000   45.950320964  -66.641377676     4.7661   6   6   0.1782   0.0989   0.4064  -0.0681  -0.0644   0.1585   0.00    0.0
2018/10/16 19:08:41.000   45.950320934  -66.641377634     4.7715   6   6   0.1778   0.0989   0.4061  -0.0680  -0.0649   0.1583   0.00    0.0
2018/10/16 19:08:42.000   45.950320812  -66.641377498     4.7531   6   6   0.1774   0.0989   0.4059  -0.0679  -0.0652   0.1581   0.00    0.0
2018/10/16 19:08:43.000   45.950320518  -66.641377346     4.7163   6   6   0.1771   0.0988   0.4058  -0.0679  -0.0656   0.1581   0.00    0.0
2018/10/16 19:08:44.000   45.950320360  -66.641377225     4.6931   6   6   0.1768   0.0989   0.4057  -0.0678  -0.0662   0.1580   0.00    0.0
2018/10/16 19:08:45.000   45.950320414  -66.641377171     4.7016   6   6   0.1766   0.0989   0.4057  -0.0678  -0.0667   0.1580   0.00    0.0
2018/10/16 19:08:46.000   45.950320493  -66.641377107     4.6951   6   6   0.1759   0.0985   0.4045  -0.0675  -0.0661   0.1573   0.00    0.0
2018/10/16 19:08:47.000   45.950320209  -66.641377052     4.6374   6   8   0.1749   0.0980   0.4030  -0.0672  -0.0652   0.1563   0.00    0.0
2018/10/16 19:08:48.000   45.950320089  -66.641377036     4.5938   6   8   0.1712   0.0965   0.3965  -0.0641  -0.0573   0.1489   0.00    0.0
2018/10/16 19:08:49.000   45.950320000  -66.641377016     4.5562   6   8   0.1693   0.0957   0.3937  -0.0630  -0.0544   0.1459   0.00    0.0
2018/10/16 19:08:50.000   45.950319685  -66.641376998     4.4942   6   8   0.1679   0.0953   0.3919  -0.0622  -0.0531   0.1440   0.00    0.0
2018/10/16 19:08:51.000   45.950319495  -66.641376956     4.4396   6   8   0.1667   0.0947   0.3904  -0.0619  -0.0520   0.1425   0.00    0.0
2018/10/16 19:08:52.000   45.950319535  -66.641377017     4.4195   6   8   0.1656   0.0945   0.3891  -0.0614  -0.0514   0.1413   0.00    0.0
2018/10/16 19:08:53.000   45.950319606  -66.641377053     4.4128   6   8   0.1645   0.0942   0.3879  -0.0611  -0.0508   0.1402   0.00    0.0
2018/10/16 19:08:54.000   45.950319339  -66.641377073     4.3831   6   8   0.1634   0.0937   0.3868  -0.0610  -0.0502   0.1390   0.00    0.0
2018/10/16 19:08:55.000   45.950319500  -66.641377142     4.4152   6   7   0.1638   0.0934   0.3868  -0.0603  -0.0491   0.1402   0.00    0.0
2018/10/16 19:08:56.000   45.950319437  -66.641377232     4.4241   6   7   0.1627   0.0932   0.3857  -0.0600  -0.0488   0.1391   0.00    0.0
2018/10/16 19:08:57.000   45.950319734  -66.641377379     4.4678   6   7   0.1617   0.0930   0.3847  -0.0594  -0.0483   0.1380   0.00    0.0
2018/10/16 19:08:58.000   45.950319654  -66.641377438     4.4577   6   7   0.1607   0.0927   0.3838  -0.0594  -0.0480   0.1372   0.00    0.0
2018/10/16 19:08:59.000   45.950319807  -66.641377602     4.4863   6   7   0.1597   0.0925   0.3829  -0.0592  -0.0475   0.1362   0.00    0.0
2018/10/16 19:09:00.000   45.950320100  -66.641377757     4.5249   6   7   0.1587   0.0922   0.3820  -0.0591  -0.0470   0.1352   0.00    0.0
2018/10/16 19:09:01.000   45.950319929  -66.641377847     4.5025   6   7   0.1580   0.0920   0.3813  -0.0585  -0.0470   0.1344   0.00    0.0
2018/10/16 19:09:02.000   45.950319797  -66.641377943     4.5047   6   7   0.1572   0.0920   0.3806  -0.0583  -0.0468   0.1338   0.00    0.0
2018/10/16 19:09:03.000   45.950319754  -66.641378005     4.5008   6   7   0.1565   0.0918   0.3799  -0.0582  -0.0465   0.1331   0.00    0.0
2018/10/16 19:09:04.000   45.950319833  -66.641378139     4.5126   6   7   0.1560   0.0917   0.3794  -0.0579  -0.0465   0.1324   0.00    0.0
2018/10/16 19:09:05.000   45.950319829  -66.641378263     4.5120   6   7   0.1553   0.0914   0.3788  -0.0577  -0.0461   0.1319   0.00    0.0
2018/10/16 19:09:06.000   45.950319700  -66.641378240     4.4904   6   7   0.1549   0.0913   0.3782  -0.0573  -0.0457   0.1314   0.00    0.0
2018/10/16 19:09:07.000   45.950319504  -66.641378194     4.4654   6   7   0.1544   0.0911   0.3777  -0.0572  -0.0455   0.1309   0.00    0.0
2018/10/16 19:09:08.000   45.950319565  -66.641378301     4.4815   6   7   0.1540   0.0911   0.3772  -0.0570  -0.0454   0.1304   0.00    0.0
2018/10/16 19:09:09.000   45.950319652  -66.641378342     4.4817   6   8   0.1537   0.0909   0.3767  -0.0567  -0.0450   0.1301   0.00    0.0
2018/10/16 19:09:10.000   45.950319711  -66.641378403     4.5207   6   6   0.1578   0.0930   0.3845  -0.0627  -0.0599   0.1406   0.00    0.0
2018/10/16 19:09:11.000   45.950319357  -66.641378208     4.4647   6   7   0.1531   0.0907   0.3759  -0.0564  -0.0447   0.1295   0.00    0.0
2018/10/16 19:09:12.000   45.950319323  -66.641378155     4.4745   6   7   0.1529   0.0906   0.3755  -0.0562  -0.0445   0.1292   0.00    0.0
2018/10/16 19:09:13.000   45.950319481  -66.641378241     4.5192   6   7   0.1528   0.0905   0.3751  -0.0557  -0.0441   0.1290   0.00    0.0
2018/10/16 19:09:14.000   45.950319443  -66.641378182     4.4987   6   7   0.1527   0.0904   0.3748  -0.0556  -0.0441   0.1287   0.00    0.0
2018/10/16 19:09:15.000   45.950319334  -66.641378108     4.4788   6   7   0.1526   0.0904   0.3745  -0.0553  -0.0437   0.1287   0.00    0.0
2018/10/16 19:09:16.000   45.950319272  -66.641378193     4.4893   6   7   0.1518   0.0901   0.3737  -0.0551  -0.0434   0.1281   0.00    0.0
2018/10/16 19:09:17.000   45.950319491  -66.641378330     4.5187   6   7   0.1510   0.0898   0.3728  -0.0551  -0.0436   0.1273   0.00    0.0
2018/10/16 19:09:18.000   45.950319302  -66.641378290     4.5033   6   7   0.1502   0.0895   0.3720  -0.0550  -0.0431   0.1267   0.00    0.0
2018/10/16 19:09:19.000   45.950319198  -66.641378267     4.4888   6   7   0.1494   0.0893   0.3711  -0.0549  -0.0435   0.1260   0.00    0.0
2018/10/16 19:09:20.000   45.950319217  -66.641378327     4.5174   6   6   0.1533   0.0912   0.3788  -0.0613  -0.0587   0.1368   0.00    0.0
2018/10/16 19:09:21.000   45.950319477  -66.641378438     4.5652   6   7   0.1477   0.0887   0.3694  -0.0547  -0.0430   0.1245   0.00    0.0
2018/10/16 19:09:22.000   45.950319489  -66.641378445     4.5724   6   7   0.1468   0.0886   0.3686  -0.0545  -0.0428   0.1238   0.00    0.0
2018/10/16 19:09:23.000   45.950319227  -66.641378370     4.5316   6   9   0.1459   0.0882   0.3678  -0.0544  -0.0429   0.1230   0.00    0.0
2018/10/16 19:09:24.000   45.950319105  -66.641378372     4.5216   6   9   0.1441   0.0878   0.3663  -0.0548  -0.0428   0.1209   0.00    0.0
2018/10/16 19:09:25.000   45.950319223  -66.641378504     4.5439   6   9   0.1430   0.0875   0.3654  -0.0547  -0.0428   0.1196   0.00    0.0
2018/10/16 19:09:26.000   45.950319664  -66.641378599     4.6088   6   4   0.2633   0.0986   0.4371  -0.1126  -0.1124   0.2589   0.00    0.0
2018/10/16 19:09:27.000   45.950319760  -66.641378588     4.6269   6   4   0.2610   0.0982   0.4352  -0.1115  -0.1112   0.2566   0.00    0.0
2018/10/16 19:09:28.000   45.950319684  -66.641378550     4.6034   6   4   0.2592   0.0978   0.4337  -0.1106  -0.1103   0.2548   0.00    0.0
2018/10/16 19:09:29.000   45.950320059  -66.641378651     4.6504   6   6   0.2578   0.0975   0.4324  -0.1099  -0.1096   0.2534   0.00    0.0
2018/10/16 19:09:30.000   45.950319992  -66.641378607     4.6298   6   6   0.2461   0.0949   0.4196  -0.1020  -0.0988   0.2374   0.00    0.0
2018/10/16 19:09:31.000   45.950320364  -66.641378739     4.6783   6   7   0.2430   0.0939   0.4154  -0.0995  -0.0950   0.2326   0.00    0.0
2018/10/16 19:09:32.000   45.950320369  -66.641378755     4.6892   6   7   0.2102   0.0909   0.3962  -0.0843  -0.0787   0.1977   0.00    0.0
2018/10/16 19:09:33.000   45.950320445  -66.641378759     4.6956   6   7   0.1976   0.0897   0.3888  -0.0780  -0.0716   0.1838   0.00    0.0
2018/10/16 19:09:34.000   45.950320391  -66.641378766     4.6975   6   7   0.1910   0.0890   0.3848  -0.0746  -0.0676   0.1763   0.00    0.0
2018/10/16 19:09:35.000   45.950320339  -66.641378771     4.6929   6   7   0.1869   0.0886   0.3822  -0.0723  -0.0649   0.1715   0.00    0.0
2018/10/16 19:09:36.000   45.950320504  -66.641378843     4.7253   6   7   0.1841   0.0882   0.3804  -0.0708  -0.0631   0.1683   0.00    0.0
2018/10/16 19:09:37.000   45.950320534  -66.641378862     4.7292   6   7   0.1822   0.0879   0.3791  -0.0696  -0.0615   0.1661   0.00    0.0
2018/10/16 19:09:38.000   45.950320766  -66.641378949     4.7638   6   7   0.1808   0.0878   0.3780  -0.0686  -0.0605   0.1644   0.00    0.0
2018/10/16 19:09:39.000   45.950320733  -66.641378970     4.7626   6   7   0.1798   0.0875   0.3771  -0.0678  -0.0595   0.1632   0.00    0.0
2018/10/16 19:09:40.000   45.950320760  -66.641379041     4.7755   6   7   0.1791   0.0873   0.3765  -0.0672  -0.0588   0.1622   0.00    0.0
2018/10/16 19:09:41.000   45.950320687  -66.641379086     4.7686   6   8   0.1785   0.0872   0.3758  -0.0665  -0.0580   0.1614   0.00    0.0
2018/10/16 19:09:42.000   45.950320630  -66.641379126     4.7667   6   8   0.1772   0.0870   0.3745  -0.0664  -0.0578   0.1594   0.00    0.0
2018/10/16 19:09:43.000   45.950320643  -66.641379177     4.7690   6   8   0.1766   0.0870   0.3738  -0.0658  -0.0575   0.1584   0.00    0.0
2018/10/16 19:09:44.000   45.950320679  -66.641379155     4.7634   6   8   0.1763   0.0868   0.3732  -0.0656  -0.0572   0.1577   0.00    0.0
2018/10/16 19:09:45.000   45.950320574  -66.641379179     4.7411   6   8   0.1760   0.0868   0.3727  -0.0653  -0.0569   0.1571   0.00    0.0
2018/10/16 19:09:46.000   45.950320629  -66.641379109     4.7413   6   7   0.1768   0.0866   0.3734  -0.0646  -0.0558   0.1590   0.00    0.0
2018/10/16 19:09:47.000   45.950320594  -66.641379069     4.7369   6   7   0.1761   0.0862   0.3725  -0.0643  -0.0554   0.1584   0.00    0.0
2018/10/16 19:09:48.000   45.950320648  -66.641379144     4.7629   6   4   0.3118   0.1024   0.4657  -0.1343  -0.1364   0.3104   0.00    0.0
2018/10/16 19:09:49.000   45.950320416  -66.641378991     4.7348   6   4   0.3061   0.1014   0.4611  -0.1316  -0.1335   0.3046   0.00    0.0
2018/10/16 19:09:50.000   45.950320175  -66.641378867     4.7024   6   4   0.3007   0.1005   0.4568  -0.1290  -0.1307   0.2990   0.00    0.0
2018/10/16 19:09:51.000   45.950320701  -66.641379028     4.7775   6   4   0.2957   0.0996   0.4528  -0.1266  -0.1282   0.2939   0.00    0.0
2018/10/16 19:09:52.000   45.950320536  -66.641378935     4.7478   6   5   0.2910   0.0988   0.4491  -0.1244  -0.1258   0.2891   0.00    0.0
2018/10/16 19:09:53.000   45.950320966  -66.641379095     4.8015   6   5   0.2868   0.0981   0.4458  -0.1224  -0.1236   0.2848   0.00    0.0
2018/10/16 19:09:54.000   45.950320339  -66.641378862     4.7295   6   5   0.2830   0.0974   0.4427  -0.1205  -0.1217   0.2809   0.00    0.0
2018/10/16 19:09:55.000   45.950320441  -66.641378866     4.7388   6   5   0.2796   0.0968   0.4400  -0.1189  -0.1199   0.2774   0.00    0.0
2018/10/16 19:09:56.000   45.950320460  -66.641378863     4.7492   6   5   0.2767   0.0963   0.4377  -0.1175  -0.1184   0.2745   0.00    0.0
2018/10/16 19:09:57.000   45.950320843  -66.641378974     4.8011   6   5   0.2743   0.0959   0.4357  -0.1163  -0.1172   0.2720   0.00    0.0
2018/10/16 19:09:58.000   45.950320528  -66.641378858     4.7490   6   5   0.2724   0.0955   0.4341  -0.1154  -0.1162   0.2701   0.00    0.0
2018/10/16 19:09:59.000   45.950320683  -66.641378898     4.7767   6   6   0.2707   0.0951   0.4326  -0.1145  -0.1153   0.2683   0.00    0.0
2018/10/16 19:10:00.000   45.950320312  -66.641378690     4.7261   6   6   0.2273   0.0903   0.4032  -0.0936  -0.0933   0.2216   0.00    0.0
2018/10/16 19:10:01.000   45.950320329  -66.641378669     4.7325   6   6   0.2114   0.0886   0.3931  -0.0859  -0.0850   0.2042   0.00    0.0
2018/10/16 19:10:02.000   45.950320294  -66.641378609     4.7202   6   6   0.2033   0.0880   0.3880  -0.0817  -0.0808   0.1952   0.00    0.0
2018/10/16 19:10:03.000   45.950320252  -66.641378619     4.7234   6   7   0.1980   0.0872   0.3845  -0.0789  -0.0776   0.1893   0.00    0.0
2018/10/16 19:10:04.000   45.950320271  -66.641378641     4.7255   6   7   0.1927   0.0858   0.3785  -0.0746  -0.0709   0.1813   0.00    0.0
2018/10/16 19:10:05.000   45.950320361  -66.641378644     4.7352   6   7   0.1896   0.0852   0.3755  -0.0723  -0.0676   0.1772   0.00    0.0
2018/10/16 19:10:06.000   45.950320706  -66.641378788     4.7853   6   7   0.1876   0.0847   0.3736  -0.0709  -0.0654   0.1744   0.00    0.0
2018/10/16 19:10:07.000   45.950320769  -66.641378791     4.7895   6   7   0.1861   0.0845   0.3722  -0.0697  -0.0638   0.1726   0.00    0.0
2018/10/16 19:10:08.000   45.950320914  -66.641378832     4.8046   6   7   0.1850   0.0842   0.3712  -0.0688  -0.0626   0.1711   0.00    0.0
2018/10/16 19:10:09.000   45.950320878  -66.641378860     4.8134   6   7   0.1843   0.0840   0.3703  -0.0681  -0.0616   0.1700   0.00    0.0
2018/10/16 19:10:10.000   45.950321064  -66.641378877     4.8374   6   7   0.1837   0.0839   0.3697  -0.0675  -0.0608   0.1691   0.00    0.0
2018/10/16 19:10:11.000   45.950321135  -66.641378861     4.8470   6   7   0.1832   0.0837   0.3692  -0.0669  -0.0600   0.1685   0.00    0.0
2018/10/16 19:10:12.000   45.950321208  -66.641378815     4.8493   6   7   0.1830   0.0836   0.3687  -0.0664  -0.0595   0.1679   0.00    0.0
2018/10/16 19:10:13.000   45.950321260  -66.641378763     4.8413   6   7   0.1829   0.0836   0.3684  -0.0659  -0.0589   0.1675   0.00    0.0
2018/10/16 19:10:14.000   45.950321445  -66.641378716     4.8542   6   7   0.1827   0.0835   0.3681  -0.0656  -0.0585   0.1673   0.00    0.0
2018/10/16 19:10:15.000   45.950321494  -66.641378690     4.8571   6   7   0.1827   0.0834   0.3678  -0.0651  -0.0578   0.1670   0.00    0.0
2018/10/16 19:10:16.000   45.950321553  -66.641378725     4.8681   6   7   0.1820   0.0831   0.3670  -0.0650  -0.0576   0.1664   0.00    0.0
2018/10/16 19:10:17.000   45.950321650  -66.641378720     4.8727   6   7   0.1813   0.0828   0.3662  -0.0648  -0.0572   0.1659   0.00    0.0
2018/10/16 19:10:18.000   45.950321698  -66.641378720     4.8713   6   7   0.1806   0.0826   0.3654  -0.0644  -0.0570   0.1652   0.00    0.0
2018/10/16 19:10:19.000   45.950321773  -66.641378750     4.8877   6   7   0.1801   0.0824   0.3647  -0.0640  -0.0566   0.1647   0.00    0.0
2018/10/16 19:10:20.000   45.950321929  -66.641378737     4.8910   6   7   0.1794   0.0821   0.3640  -0.0641  -0.0565   0.1642   0.00    0.0
2018/10/16 19:10:21.000   45.950321975  -66.641378791     4.9097   6   7   0.1789   0.0818   0.3633  -0.0638  -0.0561   0.1637   0.00    0.0
2018/10/16 19:10:22.000   45.950321881  -66.641378684     4.8763   6   7   0.1783   0.0815   0.3626  -0.0635  -0.0558   0.1632   0.00    0.0
2018/10/16 19:10:23.000   45.950321818  -66.641378622     4.8774   6   7   0.1778   0.0813   0.3619  -0.0633  -0.0555   0.1628   0.00    0.0
2018/10/16 19:10:24.000   45.950321904  -66.641378569     4.8774   6   7   0.1774   0.0812   0.3613  -0.0630  -0.0553   0.1624   0.00    0.0
2018/10/16 19:10:25.000   45.950321785  -66.641378474     4.8504   6   7   0.1769   0.0809   0.3608  -0.0629  -0.0550   0.1620   0.00    0.0
2018/10/16 19:10:26.000   45.950321819  -66.641378457     4.8583   6   7   0.1765   0.0807   0.3602  -0.0627  -0.0546   0.1617   0.00    0.0
2018/10/16 19:10:27.000   45.950321918  -66.641378497     4.8686   6   8   0.1761   0.0805   0.3596  -0.0625  -0.0545   0.1612   0.00    0.0
2018/10/16 19:10:28.000   45.950321874  -66.641378536     4.8695   6   8   0.1751   0.0803   0.3585  -0.0626  -0.0543   0.1599   0.00    0.0
2018/10/16 19:10:29.000   45.950321840  -66.641378541     4.8511   6   8   0.1744   0.0802   0.3578  -0.0622  -0.0544   0.1592   0.00    0.0
2018/10/16 19:10:30.000   45.950321952  -66.641378537     4.8801   6   8   0.1741   0.0800   0.3571  -0.0620  -0.0541   0.1587   0.00    0.0
2018/10/16 19:10:31.000   45.950322167  -66.641378460     4.8897   6   8   0.1739   0.0797   0.3568  -0.0622  -0.0541   0.1586   0.00    0.0
2018/10/16 19:10:32.000   45.950322122  -66.641378436     4.8935   6   8   0.1738   0.0798   0.3564  -0.0620  -0.0540   0.1583   0.00    0.0
2018/10/16 19:10:33.000   45.950322288  -66.641378393     4.9196   6   8   0.1737   0.0796   0.3560  -0.0619  -0.0538   0.1580   0.00    0.0
2018/10/16 19:10:34.000   45.950322398  -66.641378311     4.9255   6   8   0.1737   0.0796   0.3558  -0.0618  -0.0537   0.1581   0.00    0.0
2018/10/16 19:10:35.000   45.950322388  -66.641378221     4.9163   6   8   0.1737   0.0795   0.3555  -0.0616  -0.0535   0.1579   0.00    0.0
2018/10/16 19:10:36.000   45.950322495  -66.641378219     4.9260   6   8   0.1736   0.0795   0.3551  -0.0615  -0.0534   0.1578   0.00    0.0
2018/10/16 19:10:37.000   45.950322497  -66.641378088     4.9186   6   8   0.1737   0.0794   0.3548  -0.0612  -0.0532   0.1576   0.00    0.0
2018/10/16 19:10:38.000   45.950322616  -66.641377996     4.9234   6   8   0.1737   0.0794   0.3547  -0.0612  -0.0532   0.1576   0.00    0.0
2018/10/16 19:10:39.000   45.950322683  -66.641377915     4.9233   6   8   0.1738   0.0793   0.3544  -0.0609  -0.0528   0.1575   0.00    0.0
2018/10/16 19:10:40.000   45.950322721  -66.641377880     4.9093   6   8   0.1739   0.0792   0.3542  -0.0609  -0.0530   0.1574   0.00    0.0
2018/10/16 19:10:41.000   45.950322780  -66.641377809     4.9144   6   8   0.1740   0.0793   0.3541  -0.0609  -0.0528   0.1575   0.00    0.0
2018/10/16 19:10:42.000   45.950322871  -66.641377736     4.9147   6   8   0.1741   0.0791   0.3539  -0.0608  -0.0525   0.1574   0.00    0.0
2018/10/16 19:10:43.000   45.950322896  -66.641377693     4.8962   6   8   0.1743   0.0792   0.3538  -0.0604  -0.0524   0.1574   0.00    0.0
2018/10/16 19:10:44.000   45.950322879  -66.641377721     4.9047   6   7   0.1746   0.0806   0.3548  -0.0612  -0.0562   0.1579   0.00    0.0
2018/10/16 19:10:45.000   45.950322852  -66.641377665     4.8740   6   7   0.1748   0.0807   0.3548  -0.0610  -0.0563   0.1579   0.00    0.0
2018/10/16 19:10:46.000   45.950323075  -66.641377735     4.9029   6   7   0.1744   0.0804   0.3541  -0.0611  -0.0561   0.1577   0.00    0.0
2018/10/16 19:10:47.000   45.950323266  -66.641377698     4.9158   6   6   0.1805   0.0817   0.3648  -0.0669  -0.0674   0.1707   0.00    0.0
2018/10/16 19:10:48.000   45.950323271  -66.641377749     4.9071   6   6   0.1801   0.0814   0.3639  -0.0667  -0.0668   0.1702   0.00    0.0
2018/10/16 19:10:49.000   45.950323238  -66.641377627     4.8783   6   7   0.1734   0.0797   0.3526  -0.0610  -0.0555   0.1573   0.00    0.0
2018/10/16 19:10:50.000   45.950323395  -66.641377601     4.8852   6   7   0.1730   0.0794   0.3520  -0.0610  -0.0555   0.1571   0.00    0.0
2018/10/16 19:10:51.000   45.950323484  -66.641377587     4.8925   6   7   0.1727   0.0792   0.3515  -0.0608  -0.0555   0.1569   0.00    0.0
2018/10/16 19:10:52.000   45.950323602  -66.641377492     4.8818   6   7   0.1724   0.0790   0.3510  -0.0609  -0.0554   0.1568   0.00    0.0
2018/10/16 19:10:53.000   45.950323746  -66.641377475     4.8931   6   7   0.1721   0.0787   0.3505  -0.0610  -0.0553   0.1566   0.00    0.0
2018/10/16 19:10:54.000   45.950323957  -66.641377472     4.9155   6   7   0.1719   0.0786   0.3500  -0.0607  -0.0549   0.1564   0.00    0.0
2018/10/16 19:10:55.000   45.950323807  -66.641377309     4.8681   6   7   0.1716   0.0784   0.3495  -0.0607  -0.0550   0.1563   0.00    0.0
2018/10/16 19:10:56.000   45.950323934  -66.641377292     4.8870   6   7   0.1713   0.0783   0.3491  -0.0607  -0.0549   0.1561   0.00    0.0
2018/10/16 19:10:57.000   45.950324171  -66.641377363     4.9329   6   8   0.1711   0.0780   0.3486  -0.0607  -0.0545   0.1559   0.00    0.0
2018/10/16 19:10:58.000   45.950324525  -66.641377403     4.9769   6   8   0.1707   0.0773   0.3478  -0.0604  -0.0533   0.1555   0.00    0.0
2018/10/16 19:10:59.000   45.950324719  -66.641377516     5.0085   6   8   0.1706   0.0771   0.3473  -0.0603  -0.0527   0.1553   0.00    0.0
2018/10/16 19:11:00.000   45.950324938  -66.641377572     5.0289   6   8   0.1703   0.0770   0.3468  -0.0600  -0.0522   0.1550   0.00    0.0
2018/10/16 19:11:01.000   45.950325117  -66.641377600     5.0486   6   8   0.1703   0.0768   0.3465  -0.0600  -0.0522   0.1550   0.00    0.0
2018/10/16 19:11:02.000   45.950325273  -66.641377643     5.0592   6   8   0.1702   0.0766   0.3462  -0.0596  -0.0520   0.1549   0.00    0.0
2018/10/16 19:11:03.000   45.950325278  -66.641377597     5.0505   6   8   0.1703   0.0765   0.3460  -0.0598  -0.0518   0.1548   0.00    0.0
2018/10/16 19:11:04.000   45.950325309  -66.641377577     5.0493   6   8   0.1702   0.0764   0.3456  -0.0597  -0.0520   0.1546   0.00    0.0
2018/10/16 19:11:05.000   45.950325469  -66.641377558     5.0636   6   8   0.1703   0.0764   0.3453  -0.0593  -0.0514   0.1546   0.00    0.0
2018/10/16 19:11:06.000   45.950325513  -66.641377519     5.0613   6   8   0.1702   0.0764   0.3452  -0.0596  -0.0516   0.1546   0.00    0.0
2018/10/16 19:11:07.000   45.950325525  -66.641377523     5.0512   6   8   0.1703   0.0763   0.3450  -0.0595  -0.0510   0.1545   0.00    0.0
2018/10/16 19:11:08.000   45.950325619  -66.641377453     5.0441   6   8   0.1703   0.0763   0.3448  -0.0592  -0.0512   0.1545   0.00    0.0
2018/10/16 19:11:09.000   45.950325726  -66.641377352     5.0418   6   8   0.1704   0.0762   0.3446  -0.0592  -0.0511   0.1543   0.00    0.0
2018/10/16 19:11:10.000   45.950325694  -66.641377333     5.0417   6   8   0.1705   0.0761   0.3445  -0.0592  -0.0509   0.1543   0.00    0.0
2018/10/16 19:11:11.000   45.950325750  -66.641377301     5.0429   6   8   0.1707   0.0762   0.3443  -0.0589  -0.0507   0.1543   0.00    0.0
2018/10/16 19:11:12.000   45.950326021  -66.641377232     5.0760   6   8   0.1708   0.0761   0.3442  -0.0588  -0.0504   0.1543   0.00    0.0
2018/10/16 19:11:13.000   45.950325886  -66.641377254     5.0535   6   8   0.1709   0.0762   0.3441  -0.0585  -0.0502   0.1542   0.00    0.0
2018/10/16 19:11:14.000   45.950326017  -66.641377196     5.0538   6   8   0.1711   0.0762   0.3439  -0.0584  -0.0500   0.1542   0.00    0.0
2018/10/16 19:11:15.000   45.950325973  -66.641377107     5.0394   6   8   0.1712   0.0762   0.3438  -0.0583  -0.0500   0.1541   0.00    0.0
2018/10/16 19:11:16.000   45.950326018  -66.641377084     5.0376   6   8   0.1707   0.0761   0.3433  -0.0583  -0.0500   0.1539   0.00    0.0
2018/10/16 19:11:17.000   45.950325871  -66.641377077     5.0382   6   8   0.1703   0.0757   0.3427  -0.0583  -0.0496   0.1535   0.00    0.0
2018/10/16 19:11:18.000   45.950325999  -66.641377110     5.0579   6   7   0.1716   0.0755   0.3435  -0.0578  -0.0489   0.1556   0.00    0.0
2018/10/16 19:11:19.000   45.950326075  -66.641377213     5.0880   6   7   0.1712   0.0754   0.3428  -0.0574  -0.0488   0.1553   0.00    0.0
2018/10/16 19:11:20.000   45.950326091  -66.641377160     5.0993   6   7   0.1707   0.0752   0.3423  -0.0576  -0.0487   0.1550   0.00    0.0
2018/10/16 19:11:21.000   45.950326263  -66.641377252     5.1269   6   7   0.1703   0.0749   0.3416  -0.0576  -0.0488   0.1545   0.00    0.0
2018/10/16 19:11:22.000   45.950326371  -66.641377248     5.1295   6   7   0.1698   0.0747   0.3411  -0.0576  -0.0488   0.1543   0.00    0.0
2018/10/16 19:11:23.000   45.950326049  -66.641377070     5.0896   6   4   0.3344   0.0949   0.4618  -0.1413  -0.1435   0.3363   0.00    0.0
2018/10/16 19:11:24.000   45.950326105  -66.641377030     5.0879   6   4   0.3298   0.0940   0.4578  -0.1390  -0.1412   0.3316   0.00    0.0
2018/10/16 19:11:25.000   45.950325863  -66.641376899     5.0434   6   5   0.3257   0.0933   0.4543  -0.1371  -0.1391   0.3274   0.00    0.0
2018/10/16 19:11:26.000   45.950325806  -66.641376847     5.0303   6   5   0.3222   0.0927   0.4514  -0.1354  -0.1373   0.3238   0.00    0.0
2018/10/16 19:11:27.000   45.950326040  -66.641376833     5.0475   6   5   0.3194   0.0921   0.4489  -0.1340  -0.1358   0.3208   0.00    0.0
2018/10/16 19:11:28.000   45.950326462  -66.641376927     5.0763   6   6   0.3166   0.0916   0.4465  -0.1326  -0.1343   0.3180   0.00    0.0
2018/10/16 19:11:29.000   45.950326878  -66.641377009     5.1195   6   6   0.2593   0.0842   0.4022  -0.1052  -0.1053   0.2570   0.00    0.0
2018/10/16 19:11:30.000   45.950327069  -66.641377025     5.1331   6   6   0.2373   0.0815   0.3863  -0.0943  -0.0937   0.2333   0.00    0.0
2018/10/16 19:11:31.000   45.950327368  -66.641377069     5.1715   6   8   0.2252   0.0800   0.3775  -0.0880  -0.0868   0.2199   0.00    0.0
2018/10/16 19:11:32.000   45.950327439  -66.641376964     5.1657   6   8   0.2156   0.0780   0.3679  -0.0823  -0.0787   0.2075   0.00    0.0
2018/10/16 19:11:33.000   45.950327411  -66.641376800     5.1510   6   8   0.2099   0.0772   0.3631  -0.0790  -0.0746   0.2006   0.00    0.0
2018/10/16 19:11:34.000   45.950327255  -66.641376751     5.1361   6   8   0.2061   0.0767   0.3599  -0.0768  -0.0719   0.1959   0.00    0.0
2018/10/16 19:11:35.000   45.950327176  -66.641376715     5.1192   6   8   0.2035   0.0762   0.3577  -0.0753  -0.0696   0.1926   0.00    0.0
2018/10/16 19:11:36.000   45.950327106  -66.641376656     5.1035   6   8   0.2014   0.0760   0.3559  -0.0738  -0.0682   0.1900   0.00    0.0
2018/10/16 19:11:37.000   45.950327075  -66.641376644     5.1047   6   8   0.1999   0.0756   0.3546  -0.0730  -0.0668   0.1881   0.00    0.0
2018/10/16 19:11:38.000   45.950327077  -66.641376631     5.0984   6   8   0.1987   0.0755   0.3535  -0.0720  -0.0657   0.1865   0.00    0.0
2018/10/16 19:11:39.000   45.950327145  -66.641376613     5.0985   6   8   0.1978   0.0754   0.3527  -0.0714  -0.0649   0.1853   0.00    0.0
2018/10/16 19:11:40.000   45.950327131  -66.641376622     5.0910   6   8   0.1970   0.0753   0.3520  -0.0707  -0.0641   0.1843   0.00    0.0
2018/10/16 19:11:41.000   45.950327098  -66.641376608     5.0906   6   8   0.1964   0.0752   0.3514  -0.0702  -0.0635   0.1834   0.00    0.0
2018/10/16 19:11:42.000   45.950327071  -66.641376520     5.0693   6   8   0.1959   0.0751   0.3509  -0.0698  -0.0628   0.1827   0.00    0.0
2018/10/16 19:11:43.000   45.950327087  -66.641376482     5.0640   6   8   0.1956   0.0751   0.3505  -0.0692  -0.0623   0.1821   0.00    0.0
2018/10/16 19:11:44.000   45.950327106  -66.641376442     5.0604   6   8   0.1953   0.0751   0.3501  -0.0688  -0.0618   0.1815   0.00    0.0
2018/10/16 19:11:45.000   45.950327123  -66.641376414     5.0444   6   8   0.1951   0.0750   0.3499  -0.0686  -0.0614   0.1811   0.00    0.0
2018/10/16 19:11:46.000   45.950327110  -66.641376353     5.0352   6   8   0.1944   0.0748   0.3492  -0.0682  -0.0611   0.1805   0.00    0.0
2018/10/16 19:11:47.000   45.950327132  -66.641376300     5.0200   6   8   0.1938   0.0745   0.3485  -0.0680  -0.0607   0.1799   0.00    0.0
2018/10/16 19:11:48.000   45.950327251  -66.641376230     5.0177   6   8   0.1931   0.0743   0.3477  -0.0678  -0.0605   0.1793   0.00    0.0
2018/10/16 19:11:49.000   45.950327552  -66.641376226     5.0556   6   8   0.1924   0.0741   0.3471  -0.0674  -0.0602   0.1787   0.00    0.0
2018/10/16 19:11:50.000   45.950327644  -66.641376270     5.0865   6   8   0.1918   0.0738   0.3464  -0.0672  -0.0598   0.1781   0.00    0.0
2018/10/16 19:11:51.000   45.950327877  -66.641376352     5.1206   6   8   0.1913   0.0736   0.3458  -0.0670  -0.0595   0.1777   0.00    0.0
2018/10/16 19:11:52.000   45.950328014  -66.641376431     5.1465   6   8   0.1907   0.0733   0.3452  -0.0670  -0.0591   0.1772   0.00    0.0
2018/10/16 19:11:53.000   45.950328130  -66.641376439     5.1506   6   8   0.1901   0.0732   0.3446  -0.0666  -0.0590   0.1767   0.00    0.0
2018/10/16 19:11:54.000   45.950328318  -66.641376442     5.1820   6   8   0.1896   0.0728   0.3440  -0.0663  -0.0584   0.1762   0.00    0.0
2018/10/16 19:11:55.000   45.950328481  -66.641376465     5.1988   6   8   0.1892   0.0728   0.3435  -0.0662  -0.0585   0.1758   0.00    0.0
2018/10/16 19:11:56.000   45.950328756  -66.641376532     5.2370   6   8   0.1887   0.0726   0.3430  -0.0660  -0.0582   0.1754   0.00    0.0
2018/10/16 19:11:57.000   45.950328962  -66.641376527     5.2647   6   8   0.1883   0.0725   0.3425  -0.0655  -0.0580   0.1750   0.00    0.0
2018/10/16 19:11:58.000   45.950328993  -66.641376513     5.2687   6   8   0.1880   0.0723   0.3420  -0.0655  -0.0579   0.1747   0.00    0.0
2018/10/16 19:11:59.000   45.950329230  -66.641376494     5.2967   6   8   0.1876   0.0722   0.3415  -0.0654  -0.0576   0.1743   0.00    0.0
2018/10/16 19:12:00.000   45.950329281  -66.641376437     5.2966   6   8   0.1873   0.0721   0.3412  -0.0651  -0.0570   0.1740   0.00    0.0
2018/10/16 19:12:01.000   45.950329357  -66.641376391     5.3049   6   8   0.1872   0.0719   0.3409  -0.0651  -0.0573   0.1738   0.00    0.0
2018/10/16 19:12:02.000   45.950329474  -66.641376343     5.3093   6   8   0.1870   0.0719   0.3407  -0.0650  -0.0568   0.1737   0.00    0.0
2018/10/16 19:12:03.000   45.950329516  -66.641376307     5.3105   6   8   0.1870   0.0718   0.3403  -0.0648  -0.0567   0.1734   0.00    0.0
2018/10/16 19:12:04.000   45.950329569  -66.641376229     5.3257   6   8   0.1869   0.0717   0.3402  -0.0646  -0.0564   0.1734   0.00    0.0
2018/10/16 19:12:05.000   45.950329581  -66.641376241     5.3397   6   8   0.1869   0.0716   0.3400  -0.0646  -0.0565   0.1731   0.00    0.0
2018/10/16 19:12:06.000   45.950329729  -66.641376256     5.3563   6   8   0.1869   0.0717   0.3398  -0.0645  -0.0564   0.1730   0.00    0.0
2018/10/16 19:12:07.000   45.950329587  -66.641376212     5.3399   6   8   0.1869   0.0717   0.3396  -0.0641  -0.0561   0.1729   0.00    0.0
2018/10/16 19:12:08.000   45.950329539  -66.641376171     5.3461   6   8   0.1868   0.0716   0.3394  -0.0643  -0.0562   0.1728   0.00    0.0
2018/10/16 19:12:09.000   45.950329428  -66.641376130     5.3406   6   8   0.1870   0.0716   0.3393  -0.0640  -0.0559   0.1727   0.00    0.0
2018/10/16 19:12:10.000   45.950329475  -66.641376047     5.3282   6   8   0.1870   0.0717   0.3392  -0.0639  -0.0556   0.1726   0.00    0.0
2018/10/16 19:12:11.000   45.950329530  -66.641376022     5.3244   6   8   0.1870   0.0717   0.3392  -0.0635  -0.0555   0.1726   0.00    0.0
2018/10/16 19:12:12.000   45.950329599  -66.641376000     5.3170   6   8   0.1871   0.0717   0.3391  -0.0635  -0.0551   0.1724   0.00    0.0
2018/10/16 19:12:13.000   45.950329598  -66.641375998     5.3004   6   8   0.1872   0.0717   0.3390  -0.0635  -0.0551   0.1724   0.00    0.0
2018/10/16 19:12:14.000   45.950329689  -66.641376074     5.3226   6   8   0.1874   0.0717   0.3390  -0.0632  -0.0548   0.1723   0.00    0.0
2018/10/16 19:12:15.000   45.950329678  -66.641376159     5.3105   6   8   0.1874   0.0717   0.3390  -0.0633  -0.0548   0.1723   0.00    0.0
2018/10/16 19:12:16.000   45.950329801  -66.641376215     5.3483   6   8   0.1870   0.0716   0.3384  -0.0631  -0.0547   0.1720   0.00    0.0
2018/10/16 19:12:17.000   45.950330001  -66.641376201     5.3674   6   8   0.1866   0.0713   0.3379  -0.0631  -0.0545   0.1717   0.00    0.0
2018/10/16 19:12:18.000   45.950330261  -66.641376221     5.3829   6   8   0.1862   0.0711   0.3373  -0.0630  -0.0547   0.1714   0.00    0.0
2018/10/16 19:12:19.000   45.950330098  -66.641376199     5.3624   6   8   0.1858   0.0709   0.3369  -0.0629  -0.0543   0.1711   0.00    0.0
2018/10/16 19:12:20.000   45.950330327  -66.641376246     5.3994   6   8   0.1854   0.0708   0.3363  -0.0628  -0.0543   0.1708   0.00    0.0
2018/10/16 19:12:21.000   45.950330449  -66.641376296     5.4109   6   8   0.1850   0.0706   0.3358  -0.0629  -0.0544   0.1705   0.00    0.0
2018/10/16 19:12:22.000   45.950330766  -66.641376362     5.4542   6   8   0.1846   0.0704   0.3354  -0.0628  -0.0540   0.1703   0.00    0.0
2018/10/16 19:12:23.000   45.950330915  -66.641376374     5.4794   6   8   0.1842   0.0702   0.3348  -0.0626  -0.0539   0.1700   0.00    0.0
2018/10/16 19:12:24.000   45.950331213  -66.641376403     5.5027   6   8   0.1839   0.0701   0.3343  -0.0624  -0.0536   0.1696   0.00    0.0
2018/10/16 19:12:25.000   45.950331628  -66.641376320     5.5424   6   8   0.1835   0.0698   0.3339  -0.0627  -0.0537   0.1695   0.00    0.0
2018/10/16 19:12:26.000   45.950331783  -66.641376256     5.5578   6   8   0.1832   0.0697   0.3336  -0.0626  -0.0535   0.1692   0.00    0.0
2018/10/16 19:12:27.000   45.950331854  -66.641376200     5.5536   6   8   0.1828   0.0695   0.3330  -0.0623  -0.0535   0.1688   0.00    0.0
2018/10/16 19:12:28.000   45.950332103  -66.641376227     5.5738   6   8   0.1825   0.0695   0.3326  -0.0620  -0.0531   0.1684   0.00    0.0
2018/10/16 19:12:29.000   45.950331974  -66.641376307     5.5566   6   7   0.1831   0.0696   0.3328  -0.0613  -0.0526   0.1692   0.00    0.0
2018/10/16 19:12:30.000   45.950331975  -66.641376309     5.5640   6   7   0.1827   0.0693   0.3324  -0.0614  -0.0524   0.1690   0.00    0.0
2018/10/16 19:12:31.000   45.950332156  -66.641376275     5.5853   6   8   0.1826   0.0694   0.3323  -0.0613  -0.0524   0.1689   0.00    0.0
