% program   : RTKPOST ver.2.4.2
% inp file  : Z:\home\emerson\Desktop\Connected_folders\gnssins\data\CAR_2890.18O
% inp file  : Z:\home\emerson\Desktop\Connected_folders\gnssins\data\CAR_2890.18*
% obs start : 2018/10/16 19:05:36.0 GPST (week2023 241536.0s)
% obs end   : 2018/10/16 20:01:25.0 GPST (week2023 244885.0s)
% pos mode  : single
% elev mask : 15.0 deg
% ionos opt : iono-free
% tropo opt : saastamoinen
% ephemeris : broadcast
% navi sys  : gps glonass
%
% (lat/lon/height=WGS84/ellipsoidal,Q=1:fix,2:float,3:sbas,4:dgps,5:single,6:ppp,ns=# of satellites)
%  GPST                  latitude(deg) longitude(deg)  height(m)   Q  ns   sdn(m)   sde(m)   sdu(m)  sdne(m)  sdeu(m)  sdun(m) age(s)  ratio
2018/10/16 19:05:36.000   45.950320105  -66.641374630     1.5435   5   9   6.9488   2.4016   7.9458  -1.2708  -1.8919   5.1609   0.00    0.0
2018/10/16 19:05:37.000   45.950322689  -66.641373405     1.0658   5   9   6.9504   2.4016   7.9479  -1.2724  -1.8920   5.1635   0.00    0.0
2018/10/16 19:05:38.000   45.950325983  -66.641374203     0.2732   5   9   6.9519   2.4016   7.9501  -1.2740  -1.8921   5.1661   0.00    0.0
2018/10/16 19:05:39.000   45.950328944  -66.641374947    -0.0545   5   9   6.9534   2.4016   7.9522  -1.2756  -1.8921   5.1687   0.00    0.0
2018/10/16 19:05:40.000   45.950336253  -66.641372680     0.6602   5   9   6.9549   2.4015   7.9543  -1.2773  -1.8922   5.1713   0.00    0.0
2018/10/16 19:05:41.000   45.950339044  -66.641371455     0.4305   5   9   6.9564   2.4015   7.9564  -1.2789  -1.8922   5.1739   0.00    0.0
2018/10/16 19:05:42.000   45.950333033  -66.641368028     0.4589   5   9   6.9579   2.4015   7.9586  -1.2805  -1.8923   5.1766   0.00    0.0
2018/10/16 19:05:43.000   45.950329269  -66.641363759     0.9169   5   9   6.9594   2.4015   7.9607  -1.2821  -1.8924   5.1792   0.00    0.0
2018/10/16 19:05:44.000   45.950325537  -66.641363778     1.5728   5   9   6.9609   2.4015   7.9628  -1.2837  -1.8924   5.1818   0.00    0.0
2018/10/16 19:05:45.000   45.950322268  -66.641365783     1.9825   5   9   6.9624   2.4014   7.9650  -1.2853  -1.8925   5.1844   0.00    0.0
2018/10/16 19:05:46.000   45.950320339  -66.641368541     1.3256   5   9   6.9639   2.4014   7.9671  -1.2869  -1.8925   5.1870   0.00    0.0
2018/10/16 19:05:47.000   45.950312424  -66.641368723    -0.0294   5   9   6.9654   2.4014   7.9692  -1.2886  -1.8926   5.1896   0.00    0.0
2018/10/16 19:05:48.000   45.950332844  -66.641366640     2.0571   5   9   6.9669   2.4014   7.9714  -1.2902  -1.8927   5.1922   0.00    0.0
2018/10/16 19:05:49.000   45.950339207  -66.641366120     2.6935   5   9   6.9685   2.4013   7.9735  -1.2918  -1.8927   5.1948   0.00    0.0
2018/10/16 19:05:50.000   45.950343411  -66.641376384     3.7888   5   9   6.9700   2.4013   7.9757  -1.2934  -1.8928   5.1975   0.00    0.0
2018/10/16 19:05:51.000   45.950352735  -66.641378592     4.7204   5   9   6.9715   2.4013   7.9778  -1.2950  -1.8928   5.2001   0.00    0.0
2018/10/16 19:05:52.000   45.950347999  -66.641377970     4.1018   5   9   6.9730   2.4013   7.9799  -1.2966  -1.8929   5.2027   0.00    0.0
2018/10/16 19:05:53.000   45.950352873  -66.641374133     5.4398   5   9   6.9745   2.4013   7.9821  -1.2982  -1.8930   5.2053   0.00    0.0
2018/10/16 19:05:54.000   45.950353603  -66.641375348     6.6987   5   9   6.9760   2.4012   7.9842  -1.2998  -1.8930   5.2079   0.00    0.0
2018/10/16 19:05:55.000   45.950353357  -66.641381284     6.7886   5   9   6.9775   2.4012   7.9864  -1.3014  -1.8931   5.2106   0.00    0.0
2018/10/16 19:05:56.000   45.950354202  -66.641376740     5.3764   5   9   6.9790   2.4012   7.9885  -1.3030  -1.8932   5.2132   0.00    0.0
2018/10/16 19:05:57.000   45.950353931  -66.641367912     5.0003   5   8   6.9808   2.6016   8.1729  -1.3264  -2.3028   5.2252   0.00    0.0
2018/10/16 19:05:58.000   45.950357762  -66.641370617     5.2406   5   8   6.9823   2.6015   8.1749  -1.3276  -2.3027   5.2277   0.00    0.0
2018/10/16 19:05:59.000   45.950347265  -66.641367657     3.9623   5   8   6.9838   2.6015   8.1768  -1.3288  -2.3025   5.2301   0.00    0.0
2018/10/16 19:06:00.000   45.950344423  -66.641371410     4.4030   5   8   6.9853   2.6014   8.1788  -1.3300  -2.3024   5.2326   0.00    0.0
2018/10/16 19:06:01.000   45.950347736  -66.641371691     5.1360   5   8   6.9868   2.6014   8.1808  -1.3311  -2.3023   5.2350   0.00    0.0
2018/10/16 19:06:02.000   45.950327934  -66.641378359     3.3093   5   8   6.9883   2.6014   8.1827  -1.3323  -2.3022   5.2375   0.00    0.0
2018/10/16 19:06:03.000   45.950351836  -66.641378620     3.9118   5   8   6.9898   2.6013   8.1847  -1.3335  -2.3021   5.2399   0.00    0.0
2018/10/16 19:06:04.000   45.950362239  -66.641379536     5.3204   5   8   6.9913   2.6013   8.1866  -1.3347  -2.3019   5.2424   0.00    0.0
2018/10/16 19:06:05.000   45.950358666  -66.641381521     5.6751   5   8   6.9928   2.6012   8.1886  -1.3359  -2.3018   5.2448   0.00    0.0
2018/10/16 19:06:06.000   45.950352120  -66.641378311     3.9825   5   8   6.9944   2.6012   8.1906  -1.3370  -2.3017   5.2473   0.00    0.0
2018/10/16 19:06:07.000   45.950360155  -66.641381199     5.1397   5   8   6.9959   2.6011   8.1925  -1.3382  -2.3016   5.2497   0.00    0.0
2018/10/16 19:06:08.000   45.950356563  -66.641380853     3.8464   5   9   6.9972   2.4010   8.0144  -1.3221  -1.8940   5.2447   0.00    0.0
2018/10/16 19:06:09.000   45.950359693  -66.641383035     5.0060   5   9   6.9987   2.4010   8.0166  -1.3236  -1.8941   5.2473   0.00    0.0
2018/10/16 19:06:10.000   45.950366404  -66.641382396     5.3170   5   9   7.0003   2.4010   8.0188  -1.3252  -1.8942   5.2499   0.00    0.0
2018/10/16 19:06:11.000   45.950361131  -66.641384956     6.2315   5   9   7.0018   2.4009   8.0209  -1.3268  -1.8942   5.2526   0.00    0.0
2018/10/16 19:06:12.000   45.950382229  -66.641378143     4.2135   5   7   7.7384   2.6662   8.3562   0.3512  -2.4960   4.7367   0.00    0.0
2018/10/16 19:06:13.000   45.950341127  -66.641385715     5.4036   5   9   7.0048   2.4009   8.0253  -1.3300  -1.8944   5.2578   0.00    0.0
2018/10/16 19:06:14.000   45.950339484  -66.641386025     6.8887   5   9   7.0063   2.4009   8.0274  -1.3315  -1.8945   5.2605   0.00    0.0
2018/10/16 19:06:15.000   45.950333036  -66.641383617     6.7300   5   9   7.0079   2.4009   8.0296  -1.3331  -1.8946   5.2631   0.00    0.0
2018/10/16 19:06:16.000   45.950328270  -66.641380886     6.2460   5   9   7.0094   2.4009   8.0318  -1.3347  -1.8946   5.2657   0.00    0.0
2018/10/16 19:06:17.000   45.950321812  -66.641377949     4.9857   5   9   7.0109   2.4008   8.0340  -1.3363  -1.8947   5.2684   0.00    0.0
2018/10/16 19:06:18.000   45.950316444  -66.641371739     2.7824   5   9   7.0124   2.4008   8.0361  -1.3378  -1.8948   5.2710   0.00    0.0
2018/10/16 19:06:19.000   45.950313181  -66.641367600     1.8306   5   9   7.0139   2.4008   8.0383  -1.3394  -1.8949   5.2736   0.00    0.0
2018/10/16 19:06:20.000   45.950315732  -66.641365089     2.4948   5   9   7.0155   2.4008   8.0405  -1.3410  -1.8950   5.2763   0.00    0.0
2018/10/16 19:06:21.000   45.950322217  -66.641363645     2.3815   5   9   7.0170   2.4008   8.0427  -1.3425  -1.8950   5.2789   0.00    0.0
2018/10/16 19:06:22.000   45.950325305  -66.641363072     2.4026   5   9   7.0185   2.4008   8.0449  -1.3441  -1.8951   5.2816   0.00    0.0
2018/10/16 19:06:23.000   45.950298093  -66.641373027     0.0581   5   7   7.6237   2.6109   9.2552  -1.5921  -2.5057   6.3715   0.00    0.0
2018/10/16 19:06:24.000   45.950295516  -66.641379699     2.7385   5   7   7.6252   2.6108   9.2572  -1.5929  -2.5054   6.3738   0.00    0.0
2018/10/16 19:06:25.000   45.950283717  -66.641371155     0.0187   5   7   7.6268   2.6108   9.2592  -1.5937  -2.5051   6.3761   0.00    0.0
2018/10/16 19:06:26.000   45.950279867  -66.641379288     0.4581   5   7   7.6283   2.6107   9.2612  -1.5945  -2.5049   6.3783   0.00    0.0
2018/10/16 19:06:27.000   45.950285393  -66.641379646     1.3425   5   7   7.6299   2.6107   9.2632  -1.5953  -2.5046   6.3806   0.00    0.0
2018/10/16 19:06:28.000   45.950296634  -66.641377920     1.5245   5   7   7.6314   2.6106   9.2651  -1.5962  -2.5043   6.3829   0.00    0.0
2018/10/16 19:06:29.000   45.950301633  -66.641381112     2.3938   5   7   7.6330   2.6105   9.2671  -1.5970  -2.5040   6.3852   0.00    0.0
2018/10/16 19:06:30.000   45.950295764  -66.641373809     1.1349   5   7   7.6345   2.6105   9.2691  -1.5978  -2.5037   6.3875   0.00    0.0
2018/10/16 19:06:31.000   45.950304353  -66.641373726     0.7788   5   7   7.6360   2.6104   9.2711  -1.5986  -2.5034   6.3898   0.00    0.0
2018/10/16 19:06:32.000   45.950302857  -66.641373923     0.3959   5   7   7.6376   2.6103   9.2731  -1.5994  -2.5031   6.3921   0.00    0.0
2018/10/16 19:06:33.000   45.950316703  -66.641381426     2.2789   5   7   7.6391   2.6103   9.2751  -1.6002  -2.5029   6.3943   0.00    0.0
2018/10/16 19:06:34.000   45.950322278  -66.641383478     2.9606   5   9   7.0368   2.4006   8.0712  -1.3628  -1.8961   5.3133   0.00    0.0
2018/10/16 19:06:35.000   45.950318056  -66.641384887     3.6960   5   9   7.0383   2.4006   8.0734  -1.3644  -1.8962   5.3159   0.00    0.0
2018/10/16 19:06:36.000   45.950320370  -66.641380619     4.0352   5   9   7.0399   2.4006   8.0756  -1.3659  -1.8963   5.3186   0.00    0.0
2018/10/16 19:06:37.000   45.950317708  -66.641381147     5.1963   5   9   7.0414   2.4006   8.0778  -1.3675  -1.8964   5.3212   0.00    0.0
2018/10/16 19:06:38.000   45.950318495  -66.641387122     6.5518   5   9   7.0429   2.4006   8.0800  -1.3690  -1.8965   5.3239   0.00    0.0
2018/10/16 19:06:39.000   45.950312336  -66.641384544     5.3935   5   9   7.0444   2.4006   8.0822  -1.3706  -1.8966   5.3265   0.00    0.0
2018/10/16 19:06:40.000   45.950303774  -66.641384169     5.6217   5   9   7.0460   2.4005   8.0844  -1.3721  -1.8967   5.3292   0.00    0.0
2018/10/16 19:06:41.000   45.950302478  -66.641383564     4.8707   5   9   7.0475   2.4005   8.0866  -1.3737  -1.8968   5.3318   0.00    0.0
2018/10/16 19:06:42.000   45.950297684  -66.641379374     4.6375   5   9   7.0490   2.4005   8.0888  -1.3752  -1.8969   5.3345   0.00    0.0
2018/10/16 19:06:43.000   45.950294798  -66.641375915     4.4529   5   9   7.0506   2.4005   8.0910  -1.3768  -1.8970   5.3371   0.00    0.0
2018/10/16 19:06:44.000   45.950280807  -66.641377132     4.6939   5   9   7.0521   2.4005   8.0933  -1.3783  -1.8971   5.3398   0.00    0.0
2018/10/16 19:06:45.000   45.950285862  -66.641370394     4.0301   5   9   7.0536   2.4005   8.0955  -1.3798  -1.8972   5.3424   0.00    0.0
2018/10/16 19:06:46.000   45.950294727  -66.641364238     3.4963   5   9   7.0551   2.4005   8.0977  -1.3814  -1.8973   5.3451   0.00    0.0
2018/10/16 19:06:47.000   45.950297409  -66.641358318     2.3688   5   9   7.0567   2.4005   8.0999  -1.3829  -1.8974   5.3477   0.00    0.0
2018/10/16 19:06:48.000   45.950313294  -66.641358860     2.0691   5   9   7.0582   2.4005   8.1021  -1.3845  -1.8974   5.3504   0.00    0.0
2018/10/16 19:06:49.000   45.950311555  -66.641358161     2.2217   5   9   7.0597   2.4004   8.1043  -1.3860  -1.8975   5.3530   0.00    0.0
2018/10/16 19:06:50.000   45.950307489  -66.641358353     2.1038   5   9   7.0613   2.4004   8.1066  -1.3875  -1.8976   5.3557   0.00    0.0
2018/10/16 19:06:51.000   45.950298681  -66.641353328     0.9137   5   9   7.0628   2.4004   8.1088  -1.3891  -1.8977   5.3584   0.00    0.0
2018/10/16 19:06:52.000   45.950301709  -66.641352952     1.7319   5   9   7.0643   2.4004   8.1110  -1.3906  -1.8978   5.3610   0.00    0.0
2018/10/16 19:06:53.000   45.950299507  -66.641357140     2.2297   5   9   7.0659   2.4004   8.1132  -1.3921  -1.8979   5.3637   0.00    0.0
2018/10/16 19:06:54.000   45.950305259  -66.641356867     1.9370   5   9   7.0674   2.4004   8.1155  -1.3937  -1.8980   5.3663   0.00    0.0
2018/10/16 19:06:55.000   45.950299584  -66.641358179     2.2741   5   9   7.0689   2.4004   8.1177  -1.3952  -1.8981   5.3690   0.00    0.0
2018/10/16 19:06:56.000   45.950287708  -66.641367558     2.2112   5   9   7.0705   2.4004   8.1199  -1.3967  -1.8982   5.3716   0.00    0.0
2018/10/16 19:06:57.000   45.950283256  -66.641372204     2.7458   5   9   7.0720   2.4004   8.1221  -1.3983  -1.8983   5.3743   0.00    0.0
2018/10/16 19:06:58.000   45.950280056  -66.641378537     3.0102   5   9   7.0735   2.4004   8.1244  -1.3998  -1.8984   5.3770   0.00    0.0
2018/10/16 19:06:59.000   45.950282789  -66.641373017     2.9054   5   9   7.0751   2.4004   8.1266  -1.4013  -1.8986   5.3796   0.00    0.0
2018/10/16 19:07:00.000   45.950284647  -66.641374252     2.4457   5   9   7.0766   2.4004   8.1288  -1.4028  -1.8987   5.3823   0.00    0.0
2018/10/16 19:07:01.000   45.950289723  -66.641374733     2.9559   5   9   7.0781   2.4003   8.1311  -1.4044  -1.8988   5.3850   0.00    0.0
2018/10/16 19:07:02.000   45.950287466  -66.641371189     1.5422   5   9   7.0797   2.4003   8.1333  -1.4059  -1.8989   5.3876   0.00    0.0
2018/10/16 19:07:03.000   45.950274150  -66.641371585    -0.7927   5   9   7.0812   2.4003   8.1356  -1.4074  -1.8990   5.3903   0.00    0.0
2018/10/16 19:07:04.000   45.950283072  -66.641374099     1.4945   5   9   7.0827   2.4003   8.1378  -1.4089  -1.8991   5.3929   0.00    0.0
2018/10/16 19:07:05.000   45.950280988  -66.641376599     2.0380   5   9   7.0843   2.4003   8.1400  -1.4104  -1.8992   5.3956   0.00    0.0
2018/10/16 19:07:06.000   45.950283750  -66.641376760     3.6924   5   9   7.0858   2.4003   8.1423  -1.4120  -1.8993   5.3983   0.00    0.0
2018/10/16 19:07:07.000   45.950290436  -66.641378026     3.9605   5   9   7.0873   2.4003   8.1445  -1.4135  -1.8994   5.4009   0.00    0.0
2018/10/16 19:07:08.000   45.950282837  -66.641375855     3.1479   5   9   7.0889   2.4003   8.1468  -1.4150  -1.8995   5.4036   0.00    0.0
2018/10/16 19:07:09.000   45.950282031  -66.641372214     1.5978   5   9   7.0904   2.4003   8.1490  -1.4165  -1.8996   5.4063   0.00    0.0
2018/10/16 19:07:10.000   45.950283011  -66.641375810     2.7587   5   9   7.0920   2.4003   8.1513  -1.4180  -1.8997   5.4089   0.00    0.0
2018/10/16 19:07:11.000   45.950283178  -66.641372629     2.0390   5   9   7.0935   2.4003   8.1535  -1.4196  -1.8998   5.4116   0.00    0.0
2018/10/16 19:07:12.000   45.950285606  -66.641369432     1.3368   5   9   7.0950   2.4003   8.1558  -1.4211  -1.8999   5.4143   0.00    0.0
2018/10/16 19:07:13.000   45.950283446  -66.641369478     1.1319   5   9   7.0966   2.4003   8.1580  -1.4226  -1.9001   5.4170   0.00    0.0
2018/10/16 19:07:14.000   45.950283769  -66.641366978     1.7089   5   9   7.0981   2.4003   8.1603  -1.4241  -1.9002   5.4196   0.00    0.0
2018/10/16 19:07:15.000   45.950292350  -66.641367725     1.6139   5   9   7.0996   2.4003   8.1625  -1.4256  -1.9003   5.4223   0.00    0.0
2018/10/16 19:07:16.000   45.950298132  -66.641369456     2.5835   5   9   7.1012   2.4002   8.1648  -1.4271  -1.9004   5.4250   0.00    0.0
2018/10/16 19:07:17.000   45.950295332  -66.641366541     2.6000   5   9   7.1027   2.4002   8.1670  -1.4286  -1.9005   5.4276   0.00    0.0
2018/10/16 19:07:18.000   45.950300859  -66.641368961     2.7024   5   9   7.1043   2.4002   8.1693  -1.4301  -1.9006   5.4303   0.00    0.0
2018/10/16 19:07:19.000   45.950298400  -66.641371426     2.1436   5   9   7.1058   2.4002   8.1716  -1.4316  -1.9007   5.4330   0.00    0.0
2018/10/16 19:07:20.000   45.950306311  -66.641375695     2.7933   5   9   7.1073   2.4002   8.1738  -1.4331  -1.9009   5.4357   0.00    0.0
2018/10/16 19:07:21.000   45.950307125  -66.641380112     2.7072   5   9   7.1089   2.4002   8.1761  -1.4346  -1.9010   5.4383   0.00    0.0
2018/10/16 19:07:22.000   45.950320161  -66.641380955     3.6272   5   9   7.1104   2.4002   8.1783  -1.4361  -1.9011   5.4410   0.00    0.0
2018/10/16 19:07:23.000   45.950300768  -66.641379904     2.3351   5   9   7.1120   2.4002   8.1806  -1.4377  -1.9012   5.4437   0.00    0.0
2018/10/16 19:07:24.000   45.950302770  -66.641378745     3.7826   5   9   7.1135   2.4002   8.1829  -1.4392  -1.9013   5.4464   0.00    0.0
2018/10/16 19:07:25.000   45.950300067  -66.641373475     4.6032   5   9   7.1150   2.4002   8.1851  -1.4407  -1.9014   5.4490   0.00    0.0
2018/10/16 19:07:26.000   45.950295336  -66.641371039     4.3841   5   9   7.1166   2.4002   8.1874  -1.4422  -1.9016   5.4517   0.00    0.0
2018/10/16 19:07:27.000   45.950289266  -66.641372275     4.8128   5   9   7.1181   2.4002   8.1897  -1.4437  -1.9017   5.4544   0.00    0.0
2018/10/16 19:07:28.000   45.950290271  -66.641368155     4.7626   5   9   7.1197   2.4002   8.1920  -1.4452  -1.9018   5.4571   0.00    0.0
2018/10/16 19:07:29.000   45.950296524  -66.641372555     6.0732   5   9   7.1212   2.4002   8.1942  -1.4467  -1.9019   5.4598   0.00    0.0
2018/10/16 19:07:30.000   45.950300111  -66.641370548     6.0539   5   9   7.1228   2.4002   8.1965  -1.4481  -1.9020   5.4624   0.00    0.0
2018/10/16 19:07:31.000   45.950306061  -66.641365701     5.8480   5   9   7.1243   2.4002   8.1988  -1.4496  -1.9022   5.4651   0.00    0.0
2018/10/16 19:07:32.000   45.950309673  -66.641365469     4.5714   5   9   7.1258   2.4002   8.2011  -1.4511  -1.9023   5.4678   0.00    0.0
2018/10/16 19:07:33.000   45.950307917  -66.641371235     4.6093   5   9   7.1274   2.4002   8.2033  -1.4526  -1.9024   5.4705   0.00    0.0
2018/10/16 19:07:34.000   45.950302155  -66.641370474     4.3276   5   9   7.1289   2.4002   8.2056  -1.4541  -1.9025   5.4732   0.00    0.0
2018/10/16 19:07:35.000   45.950300908  -66.641362075     3.4234   5   9   7.1305   2.4002   8.2079  -1.4556  -1.9027   5.4758   0.00    0.0
2018/10/16 19:07:36.000   45.950302298  -66.641357170     2.0723   5   9   7.1320   2.4002   8.2102  -1.4571  -1.9028   5.4785   0.00    0.0
2018/10/16 19:07:37.000   45.950307334  -66.641355384     0.9612   5   9   7.1336   2.4002   8.2125  -1.4586  -1.9029   5.4812   0.00    0.0
2018/10/16 19:07:38.000   45.950299228  -66.641354185    -0.2837   5   9   7.1351   2.4002   8.2147  -1.4601  -1.9030   5.4839   0.00    0.0
2018/10/16 19:07:39.000   45.950302015  -66.641359565     0.2213   5   9   7.1367   2.4002   8.2170  -1.4616  -1.9032   5.4866   0.00    0.0
2018/10/16 19:07:40.000   45.950315278  -66.641358862     1.3584   5   9   7.1382   2.4002   8.2193  -1.4631  -1.9033   5.4893   0.00    0.0
2018/10/16 19:07:41.000   45.950322853  -66.641366141     2.0372   5   9   7.1398   2.4002   8.2216  -1.4645  -1.9034   5.4920   0.00    0.0
2018/10/16 19:07:42.000   45.950320207  -66.641364870     1.7046   5   9   7.1413   2.4002   8.2239  -1.4660  -1.9035   5.4946   0.00    0.0
2018/10/16 19:07:43.000   45.950323756  -66.641365282     3.1060   5   9   7.1428   2.4002   8.2262  -1.4675  -1.9037   5.4973   0.00    0.0
2018/10/16 19:07:44.000   45.950327910  -66.641365917     3.9985   5   9   7.1444   2.4002   8.2285  -1.4690  -1.9038   5.5000   0.00    0.0
2018/10/16 19:07:45.000   45.950330456  -66.641372755     4.7798   5   9   7.1459   2.4002   8.2308  -1.4705  -1.9039   5.5027   0.00    0.0
2018/10/16 19:07:46.000   45.950329917  -66.641376089     4.6696   5   9   7.1475   2.4002   8.2331  -1.4720  -1.9041   5.5054   0.00    0.0
2018/10/16 19:07:47.000   45.950329897  -66.641378161     4.7039   5   9   7.1490   2.4002   8.2354  -1.4734  -1.9042   5.5081   0.00    0.0
2018/10/16 19:07:48.000   45.950338015  -66.641379012     4.6659   5   9   7.1506   2.4002   8.2377  -1.4749  -1.9043   5.5108   0.00    0.0
2018/10/16 19:07:49.000   45.950332546  -66.641376670     3.3397   5   9   7.1521   2.4002   8.2400  -1.4764  -1.9045   5.5135   0.00    0.0
2018/10/16 19:07:50.000   45.950334432  -66.641376874     3.4933   5   9   7.1537   2.4002   8.2423  -1.4779  -1.9046   5.5162   0.00    0.0
2018/10/16 19:07:51.000   45.950342231  -66.641374567     3.7161   5   9   7.1552   2.4002   8.2446  -1.4794  -1.9047   5.5188   0.00    0.0
2018/10/16 19:07:52.000   45.950343832  -66.641373127     3.4140   5   9   7.1568   2.4002   8.2469  -1.4808  -1.9049   5.5215   0.00    0.0
2018/10/16 19:07:53.000   45.950333002  -66.641370226     2.7064   5   9   7.1583   2.4002   8.2492  -1.4823  -1.9050   5.5242   0.00    0.0
2018/10/16 19:07:54.000   45.950326364  -66.641362969     1.6475   5   9   7.1599   2.4002   8.2515  -1.4838  -1.9051   5.5269   0.00    0.0
2018/10/16 19:07:55.000   45.950318773  -66.641360262     1.7894   5   9   7.1614   2.4002   8.2538  -1.4853  -1.9053   5.5296   0.00    0.0
2018/10/16 19:07:56.000   45.950301877  -66.641360921     0.1902   5   9   7.1630   2.4002   8.2561  -1.4867  -1.9054   5.5323   0.00    0.0
2018/10/16 19:07:57.000   45.950296709  -66.641354285    -0.6014   5   9   7.1645   2.4002   8.2584  -1.4882  -1.9055   5.5350   0.00    0.0
2018/10/16 19:07:58.000   45.950293927  -66.641355165    -1.4895   5   9   7.1661   2.4002   8.2607  -1.4897  -1.9057   5.5377   0.00    0.0
2018/10/16 19:07:59.000   45.950307536  -66.641356229     0.6294   5   7   7.7724   2.6054   9.4495  -1.6680  -2.4777   6.5927   0.00    0.0
2018/10/16 19:08:00.000   45.950308465  -66.641359830     2.1158   5   7   7.7740   2.6053   9.4515  -1.6687  -2.4774   6.5951   0.00    0.0
2018/10/16 19:08:01.000   45.950299752  -66.641364054     2.0602   5   8   7.1712   2.5968   8.4240  -1.4681  -2.2879   5.5345   0.00    0.0
2018/10/16 19:08:02.000   45.950297284  -66.641360143     1.5041   5   8   7.1727   2.5968   8.4261  -1.4692  -2.2877   5.5370   0.00    0.0
2018/10/16 19:08:03.000   45.950309047  -66.641363427     3.5821   5   7   7.7786   2.6052   9.4577  -1.6711  -2.4766   6.6020   0.00    0.0
2018/10/16 19:08:04.000   45.950278961  -66.641368363     0.0089   5   8   7.1758   2.5967   8.4303  -1.4714  -2.2875   5.5421   0.00    0.0
2018/10/16 19:08:05.000   45.950285603  -66.641364351     0.0827   5   8   7.1774   2.5967   8.4324  -1.4725  -2.2874   5.5447   0.00    0.0
2018/10/16 19:08:06.000   45.950269008  -66.641365637    -2.5295   5   8   7.1790   2.5966   8.4345  -1.4737  -2.2873   5.5472   0.00    0.0
2018/10/16 19:08:07.000   45.950269802  -66.641363556    -1.7445   5   8   7.1805   2.5966   8.4366  -1.4748  -2.2871   5.5497   0.00    0.0
2018/10/16 19:08:08.000   45.950267571  -66.641367216    -2.1196   5   8   7.1821   2.5966   8.4387  -1.4759  -2.2870   5.5523   0.00    0.0
2018/10/16 19:08:09.000   45.950282953  -66.641366880     0.6692   5   8   7.1837   2.5965   8.4408  -1.4770  -2.2869   5.5548   0.00    0.0
2018/10/16 19:08:10.000   45.950288385  -66.641365738     1.9943   5   9   7.1847   2.4002   8.2885  -1.5073  -1.9074   5.5701   0.00    0.0
2018/10/16 19:08:11.000   45.950283864  -66.641363453     3.4827   5   9   7.1863   2.4002   8.2909  -1.5087  -1.9075   5.5728   0.00    0.0
2018/10/16 19:08:12.000   45.950295811  -66.641362699     4.4631   5   9   7.1878   2.4003   8.2932  -1.5102  -1.9077   5.5755   0.00    0.0
2018/10/16 19:08:13.000   45.950289855  -66.641363952     4.4541   5   9   7.1894   2.4003   8.2955  -1.5116  -1.9078   5.5782   0.00    0.0
2018/10/16 19:08:14.000   45.950283791  -66.641364653     3.1687   5   9   7.1909   2.4003   8.2979  -1.5131  -1.9080   5.5809   0.00    0.0
2018/10/16 19:08:15.000   45.950278839  -66.641361738     2.6211   5   9   7.1925   2.4003   8.3002  -1.5145  -1.9081   5.5836   0.00    0.0
2018/10/16 19:08:16.000   45.950291475  -66.641359858     3.6537   5   9   7.1940   2.4003   8.3025  -1.5160  -1.9083   5.5863   0.00    0.0
2018/10/16 19:08:17.000   45.950305670  -66.641363420     4.7646   5   9   7.1956   2.4003   8.3049  -1.5175  -1.9084   5.5890   0.00    0.0
2018/10/16 19:08:18.000   45.950315341  -66.641364492     5.6522   5   9   7.1971   2.4003   8.3072  -1.5189  -1.9086   5.5917   0.00    0.0
2018/10/16 19:08:19.000   45.950322494  -66.641364739     6.7113   5   9   7.1987   2.4003   8.3095  -1.5204  -1.9087   5.5944   0.00    0.0
2018/10/16 19:08:20.000   45.950321606  -66.641364979     6.9094   5   9   7.2003   2.4003   8.3119  -1.5218  -1.9089   5.5971   0.00    0.0
2018/10/16 19:08:21.000   45.950321585  -66.641364861     6.9667   5   9   7.2018   2.4003   8.3142  -1.5233  -1.9090   5.5998   0.00    0.0
2018/10/16 19:08:22.000   45.950313655  -66.641368820     7.4459   5   9   7.2034   2.4003   8.3166  -1.5247  -1.9092   5.6026   0.00    0.0
2018/10/16 19:08:23.000   45.950303313  -66.641371486     7.3520   5   9   7.2049   2.4003   8.3189  -1.5262  -1.9093   5.6053   0.00    0.0
2018/10/16 19:08:24.000   45.950311761  -66.641368595     7.5768   5   9   7.2065   2.4003   8.3213  -1.5276  -1.9095   5.6080   0.00    0.0
2018/10/16 19:08:25.000   45.950317314  -66.641359181     7.3309   5   9   7.2080   2.4003   8.3236  -1.5291  -1.9096   5.6107   0.00    0.0
2018/10/16 19:08:26.000   45.950320087  -66.641354413     6.3246   5   9   7.2096   2.4003   8.3259  -1.5305  -1.9098   5.6134   0.00    0.0
2018/10/16 19:08:27.000   45.950319103  -66.641353034     5.4496   5   9   7.2112   2.4004   8.3283  -1.5320  -1.9099   5.6161   0.00    0.0
2018/10/16 19:08:28.000   45.950316972  -66.641357250     5.1759   5   9   7.2127   2.4004   8.3306  -1.5334  -1.9101   5.6188   0.00    0.0
2018/10/16 19:08:29.000   45.950304312  -66.641355173     2.7700   5   9   7.2143   2.4004   8.3330  -1.5348  -1.9103   5.6215   0.00    0.0
2018/10/16 19:08:30.000   45.950281818  -66.641351087     0.6129   5   9   7.2158   2.4004   8.3354  -1.5363  -1.9104   5.6242   0.00    0.0
2018/10/16 19:08:31.000   45.950269754  -66.641347155    -0.7465   5   9   7.2174   2.4004   8.3377  -1.5377  -1.9106   5.6269   0.00    0.0
2018/10/16 19:08:32.000   45.950269871  -66.641347758    -1.9933   5   9   7.2189   2.4004   8.3401  -1.5392  -1.9107   5.6297   0.00    0.0
2018/10/16 19:08:33.000   45.950256030  -66.641344207    -3.1681   5   9   7.2205   2.4004   8.3424  -1.5406  -1.9109   5.6324   0.00    0.0
2018/10/16 19:08:34.000   45.950248198  -66.641340207    -3.4898   5   9   7.2221   2.4004   8.3448  -1.5421  -1.9110   5.6351   0.00    0.0
2018/10/16 19:08:35.000   45.950257397  -66.641348285     0.6880   5   7   8.1230   2.6039  10.1279  -2.0886  -2.7762   7.2513   0.00    0.0
2018/10/16 19:08:36.000   45.950215348  -66.641324076    -7.3065   5   7   7.8300   2.6035   9.5263  -1.6965  -2.4667   6.6789   0.00    0.0
2018/10/16 19:08:37.000   45.950205853  -66.641333386    -6.7769   5   7   7.8315   2.6035   9.5284  -1.6973  -2.4664   6.6813   0.00    0.0
2018/10/16 19:08:38.000   45.950213550  -66.641332765    -6.6424   5   7   7.8331   2.6034   9.5305  -1.6980  -2.4661   6.6836   0.00    0.0
2018/10/16 19:08:39.000   45.950215629  -66.641335266    -4.9139   5   7   7.8346   2.6034   9.5326  -1.6988  -2.4658   6.6859   0.00    0.0
2018/10/16 19:08:40.000   45.950217854  -66.641331304    -6.1659   5   7   7.8362   2.6033   9.5346  -1.6995  -2.4655   6.6883   0.00    0.0
2018/10/16 19:08:41.000   45.950237688  -66.641338608    -2.0418   5   7   7.8377   2.6033   9.5367  -1.7003  -2.4652   6.6906   0.00    0.0
2018/10/16 19:08:42.000   45.950233288  -66.641335508    -3.5451   5   7   7.8393   2.6033   9.5388  -1.7011  -2.4649   6.6929   0.00    0.0
2018/10/16 19:08:43.000   45.950235492  -66.641337665    -2.4697   5   7   7.8408   2.6032   9.5409  -1.7018  -2.4646   6.6953   0.00    0.0
2018/10/16 19:08:44.000   45.950238880  -66.641336508    -2.6388   5   7   7.8424   2.6032   9.5430  -1.7026  -2.4643   6.6976   0.00    0.0
2018/10/16 19:08:45.000   45.950243931  -66.641332828    -4.8428   5   7   7.8439   2.6031   9.5451  -1.7034  -2.4640   6.7000   0.00    0.0
2018/10/16 19:08:46.000   45.950242924  -66.641354977    -3.7222   5   9   7.2408   2.4005   8.3732  -1.5593  -1.9130   5.6677   0.00    0.0
2018/10/16 19:08:47.000   45.950245318  -66.641359313    -3.0563   5   9   7.2424   2.4005   8.3755  -1.5607  -1.9132   5.6704   0.00    0.0
2018/10/16 19:08:48.000   45.950236360  -66.641354183    -5.6585   5   9   7.2439   2.4006   8.3779  -1.5621  -1.9133   5.6731   0.00    0.0
2018/10/16 19:08:49.000   45.950243734  -66.641357316    -5.7157   5   9   7.2455   2.4006   8.3803  -1.5636  -1.9135   5.6759   0.00    0.0
2018/10/16 19:08:50.000   45.950230914  -66.641350592    -8.6747   5   9   7.2470   2.4006   8.3827  -1.5650  -1.9137   5.6786   0.00    0.0
2018/10/16 19:08:51.000   45.950234620  -66.641357279    -6.6807   5   9   7.2486   2.4006   8.3850  -1.5664  -1.9138   5.6813   0.00    0.0
2018/10/16 19:08:52.000   45.950235389  -66.641357838    -5.8467   5   9   7.2502   2.4006   8.3874  -1.5678  -1.9140   5.6840   0.00    0.0
2018/10/16 19:08:53.000   45.950236455  -66.641360919    -5.1620   5   9   7.2517   2.4006   8.3898  -1.5693  -1.9142   5.6867   0.00    0.0
2018/10/16 19:08:54.000   45.950254212  -66.641364978    -2.3776   5   9   7.2533   2.4006   8.3922  -1.5707  -1.9143   5.6895   0.00    0.0
2018/10/16 19:08:55.000   45.950283298  -66.641367156     1.1855   5   8   7.8173   2.4038   9.1357  -1.4546  -1.7958   6.5495   0.00    0.0
2018/10/16 19:08:56.000   45.950309789  -66.641371338     4.7184   5   8   7.8190   2.4038   9.1383  -1.4560  -1.7959   6.5523   0.00    0.0
2018/10/16 19:08:57.000   45.950328645  -66.641381713     7.7697   5   8   7.8207   2.4038   9.1409  -1.4574  -1.7960   6.5551   0.00    0.0
2018/10/16 19:08:58.000   45.950333200  -66.641388587     8.0260   5   8   7.8224   2.4038   9.1435  -1.4589  -1.7961   6.5579   0.00    0.0
2018/10/16 19:08:59.000   45.950298240  -66.641398760     5.0368   5   9   7.2611   2.4007   8.4041  -1.5778  -1.9152   5.7031   0.00    0.0
2018/10/16 19:09:00.000   45.950298448  -66.641401109     4.8168   5   9   7.2627   2.4007   8.4065  -1.5792  -1.9154   5.7058   0.00    0.0
2018/10/16 19:09:01.000   45.950296612  -66.641403895     6.0283   5   9   7.2642   2.4007   8.4089  -1.5806  -1.9156   5.7085   0.00    0.0
2018/10/16 19:09:02.000   45.950285156  -66.641398483     5.6631   5   9   7.2658   2.4007   8.4113  -1.5821  -1.9157   5.7113   0.00    0.0
2018/10/16 19:09:03.000   45.950265152  -66.641389127     2.1318   5   9   7.2674   2.4008   8.4137  -1.5835  -1.9159   5.7140   0.00    0.0
2018/10/16 19:09:04.000   45.950258042  -66.641381633    -0.5125   5   9   7.2689   2.4008   8.4161  -1.5849  -1.9161   5.7167   0.00    0.0
2018/10/16 19:09:05.000   45.950269323  -66.641377339     0.8585   5   9   7.2705   2.4008   8.4185  -1.5863  -1.9163   5.7194   0.00    0.0
2018/10/16 19:09:06.000   45.950244701  -66.641386931    -0.8118   5   9   7.2721   2.4008   8.4209  -1.5877  -1.9164   5.7222   0.00    0.0
2018/10/16 19:09:07.000   45.950243967  -66.641377213    -0.8824   5   9   7.2736   2.4008   8.4233  -1.5891  -1.9166   5.7249   0.00    0.0
2018/10/16 19:09:08.000   45.950239895  -66.641378191     0.4670   5   9   7.2752   2.4008   8.4257  -1.5905  -1.9168   5.7276   0.00    0.0
2018/10/16 19:09:09.000   45.950242306  -66.641371956     0.2004   5   9   7.2768   2.4008   8.4281  -1.5920  -1.9170   5.7304   0.00    0.0
2018/10/16 19:09:10.000   45.950259685  -66.641359666     1.1505   5   7   8.2194   2.6043  10.2718  -2.1544  -2.8027   7.4029   0.00    0.0
2018/10/16 19:09:11.000   45.950272136  -66.641358490     3.0652   5   7   7.8844   2.6019   9.5999  -1.7231  -2.4560   6.7608   0.00    0.0
2018/10/16 19:09:12.000   45.950286895  -66.641347794     1.4606   5   7   7.8859   2.6019   9.6020  -1.7238  -2.4557   6.7632   0.00    0.0
2018/10/16 19:09:13.000   45.950290028  -66.641351552     1.7573   5   7   7.8875   2.6018   9.6041  -1.7246  -2.4554   6.7655   0.00    0.0
2018/10/16 19:09:14.000   45.950296554  -66.641358289     3.0635   5   7   7.8890   2.6018   9.6062  -1.7253  -2.4551   6.7678   0.00    0.0
2018/10/16 19:09:15.000   45.950295380  -66.641367358     4.3488   5   7   7.8906   2.6017   9.6083  -1.7261  -2.4548   6.7702   0.00    0.0
2018/10/16 19:09:16.000   45.950284725  -66.641363631     2.4160   5   7   7.8922   2.6017   9.6104  -1.7268  -2.4545   6.7725   0.00    0.0
2018/10/16 19:09:17.000   45.950308228  -66.641375759     5.9780   5   7   7.8937   2.6017   9.6126  -1.7276  -2.4542   6.7749   0.00    0.0
2018/10/16 19:09:18.000   45.950299172  -66.641368744     4.1403   5   7   7.8953   2.6016   9.6147  -1.7283  -2.4539   6.7772   0.00    0.0
2018/10/16 19:09:19.000   45.950306446  -66.641366966     4.3675   5   7   7.8968   2.6016   9.6168  -1.7291  -2.4536   6.7796   0.00    0.0
2018/10/16 19:09:20.000   45.950282559  -66.641343453    -1.4247   5   6   9.1343   3.6759  13.9200  -3.8610  -5.6700   9.6000   0.00    0.0
2018/10/16 19:09:21.000   45.950292485  -66.641372343     3.1057   5   9   7.2956   2.4010   8.4570  -1.6089  -1.9192   5.7631   0.00    0.0
2018/10/16 19:09:22.000   45.950296755  -66.641368480     2.6356   5   9   7.2971   2.4011   8.4594  -1.6103  -1.9194   5.7659   0.00    0.0
2018/10/16 19:09:23.000   45.950294013  -66.641367628     2.8800   5   9   7.2987   2.4011   8.4618  -1.6117  -1.9195   5.7686   0.00    0.0
2018/10/16 19:09:24.000   45.950291222  -66.641367362     3.8637   5   9   7.3003   2.4011   8.4642  -1.6131  -1.9197   5.7714   0.00    0.0
2018/10/16 19:09:25.000   45.950285342  -66.641372929     3.5187   5   9   7.3018   2.4011   8.4667  -1.6145  -1.9199   5.7741   0.00    0.0
2018/10/16 19:09:26.000   45.950284624  -66.641347366    -0.8402   5   4  32.0964   7.2818  34.6206 -14.4354 -15.2117  32.6728   0.00    0.0
2018/10/16 19:09:27.000   45.950289775  -66.641335975    -1.9649   5   6  32.1212   7.2370  34.6813 -14.5060 -15.2347  32.7353   0.00    0.0
2018/10/16 19:09:28.000   45.950259276  -66.641333283    -5.5725   5   6  28.1385   5.5550  27.5900 -11.6428 -11.5282  27.2830   0.00    0.0
2018/10/16 19:09:29.000   45.950298883  -66.641351156     0.2302   5   6  28.1747   5.5598  27.6240 -11.6571 -11.5418  27.3188   0.00    0.0
2018/10/16 19:09:30.000   45.950361830  -66.641375073     7.8292   5   6  28.2109   5.5645  27.6581 -11.6714 -11.5554  27.3547   0.00    0.0
2018/10/16 19:09:31.000   45.950281060  -66.641365452     1.9388   5   7   7.9155   2.6011   9.6423  -1.7381  -2.4499   6.8077   0.00    0.0
2018/10/16 19:09:32.000   45.950271348  -66.641366574     1.2898   5   7   7.9170   2.6010   9.6444  -1.7388  -2.4495   6.8101   0.00    0.0
2018/10/16 19:09:33.000   45.950269212  -66.641364978     1.7408   5   7   7.9186   2.6010   9.6465  -1.7396  -2.4492   6.8124   0.00    0.0
2018/10/16 19:09:34.000   45.950273637  -66.641363991     3.4821   5   7   7.9201   2.6009   9.6487  -1.7403  -2.4489   6.8148   0.00    0.0
2018/10/16 19:09:35.000   45.950289294  -66.641366781     4.3312   5   7   7.9217   2.6009   9.6508  -1.7411  -2.4486   6.8171   0.00    0.0
2018/10/16 19:09:36.000   45.950293648  -66.641364476     3.0248   5   7   7.9232   2.6008   9.6529  -1.7418  -2.4483   6.8195   0.00    0.0
2018/10/16 19:09:37.000   45.950297147  -66.641366656     3.4853   5   7   7.9248   2.6008   9.6551  -1.7426  -2.4480   6.8218   0.00    0.0
2018/10/16 19:09:38.000   45.950308715  -66.641372965     4.9685   5   7   7.9264   2.6008   9.6572  -1.7433  -2.4477   6.8242   0.00    0.0
2018/10/16 19:09:39.000   45.950278237  -66.641368833     0.6796   5   8   7.3265   2.5940   8.6344  -1.5737  -2.2763   5.7867   0.00    0.0
2018/10/16 19:09:40.000   45.950287831  -66.641371080     3.2761   5   8   7.3281   2.5940   8.6366  -1.5747  -2.2762   5.7893   0.00    0.0
2018/10/16 19:09:41.000   45.950283234  -66.641371476     2.5700   5   8   7.3297   2.5940   8.6388  -1.5758  -2.2761   5.7919   0.00    0.0
2018/10/16 19:09:42.000   45.950278765  -66.641367517     2.4754   5   8   7.3313   2.5939   8.6410  -1.5768  -2.2759   5.7945   0.00    0.0
2018/10/16 19:09:43.000   45.950286015  -66.641362563     2.4190   5   8   7.3329   2.5939   8.6432  -1.5779  -2.2758   5.7971   0.00    0.0
2018/10/16 19:09:44.000   45.950290525  -66.641358752     1.4129   5   8   7.3345   2.5939   8.6454  -1.5789  -2.2757   5.7997   0.00    0.0
2018/10/16 19:09:45.000   45.950293596  -66.641355324    -0.0119   5   8   7.3361   2.5939   8.6477  -1.5800  -2.2756   5.8023   0.00    0.0
2018/10/16 19:09:46.000   45.950306276  -66.641352738     2.4987   5   7   7.9388   2.6004   9.6743  -1.7493  -2.4452   6.8430   0.00    0.0
2018/10/16 19:09:47.000   45.950305506  -66.641360277     3.5312   5   7   7.9403   2.6004   9.6764  -1.7500  -2.4449   6.8453   0.00    0.0
2018/10/16 19:09:48.000   45.950145660  -66.641302086   -17.3263   5   4  33.4330   7.5023  36.0128 -15.0174 -15.7900  34.0638   0.00    0.0
2018/10/16 19:09:49.000   45.950101679  -66.641289863   -22.7024   5   4  33.4964   7.5128  36.0790 -15.0450 -15.8175  34.1298   0.00    0.0
2018/10/16 19:09:50.000   45.950128581  -66.641301813   -18.8502   5   4  33.5601   7.5234  36.1454 -15.0727 -15.8452  34.1961   0.00    0.0
2018/10/16 19:09:51.000   45.950112604  -66.641296794   -22.1564   5   4  33.6240   7.5340  36.2121 -15.1006 -15.8729  34.2626   0.00    0.0
2018/10/16 19:09:52.000   45.950117010  -66.641299239   -22.7284   5   5  33.6882   7.5447  36.2791 -15.1285 -15.9007  34.3294   0.00    0.0
2018/10/16 19:09:53.000   45.950153901  -66.641314489   -17.7575   5   5  33.7526   7.5554  36.3464 -15.1565 -15.9287  34.3965   0.00    0.0
2018/10/16 19:09:54.000   45.950174298  -66.641318418   -15.1143   5   5  33.8172   7.5661  36.4139 -15.1847 -15.9568  34.4638   0.00    0.0
2018/10/16 19:09:55.000   45.950182844  -66.641319585   -13.6820   5   5  33.8821   7.5769  36.4817 -15.2129 -15.9849  34.5313   0.00    0.0
2018/10/16 19:09:56.000   45.950205236  -66.641326927   -10.6626   5   5  33.9473   7.5878  36.5497 -15.2413 -16.0132  34.5991   0.00    0.0
2018/10/16 19:09:57.000   45.950153547  -66.641306368   -18.0588   5   5  34.0128   7.5987  36.6181 -15.2698 -16.0416  34.6673   0.00    0.0
2018/10/16 19:09:58.000   45.950316629  -66.641351832     0.2440   5   6   9.2586   3.6645  14.0820  -3.9133  -5.6854   9.7740   0.00    0.0
2018/10/16 19:09:59.000   45.950298052  -66.641348827    -0.9900   5   6   9.2619   3.6642  14.0863  -3.9147  -5.6858   9.7786   0.00    0.0
2018/10/16 19:10:00.000   45.950286241  -66.641347973    -2.0318   5   6   9.2653   3.6640  14.0906  -3.9161  -5.6862   9.7832   0.00    0.0
2018/10/16 19:10:01.000   45.950277103  -66.641343149    -3.3667   5   6   9.2686   3.6637  14.0949  -3.9174  -5.6866   9.7878   0.00    0.0
2018/10/16 19:10:02.000   45.950294370  -66.641358288     1.1293   5   7   7.9636   2.5998   9.7086  -1.7611  -2.4402   6.8806   0.00    0.0
2018/10/16 19:10:03.000   45.950296109  -66.641357737     0.3417   5   7   7.9652   2.5998   9.7107  -1.7619  -2.4398   6.8829   0.00    0.0
2018/10/16 19:10:04.000   45.950298522  -66.641358205     0.8171   5   7   7.9667   2.5997   9.7129  -1.7626  -2.4395   6.8853   0.00    0.0
2018/10/16 19:10:05.000   45.950305032  -66.641352724    -0.0943   5   7   7.9683   2.5997   9.7150  -1.7633  -2.4392   6.8877   0.00    0.0
2018/10/16 19:10:06.000   45.950309611  -66.641360282     0.5419   5   7   7.9698   2.5997   9.7172  -1.7641  -2.4389   6.8900   0.00    0.0
2018/10/16 19:10:07.000   45.950302606  -66.641359884     0.7578   5   7   7.9714   2.5996   9.7193  -1.7648  -2.4386   6.8924   0.00    0.0
2018/10/16 19:10:08.000   45.950304529  -66.641358261     1.5262   5   7   7.9729   2.5996   9.7215  -1.7655  -2.4383   6.8947   0.00    0.0
2018/10/16 19:10:09.000   45.950299714  -66.641355475     1.3689   5   7   7.9745   2.5995   9.7236  -1.7663  -2.4380   6.8971   0.00    0.0
2018/10/16 19:10:10.000   45.950306097  -66.641357274     2.9662   5   7   7.9760   2.5995   9.7258  -1.7670  -2.4376   6.8994   0.00    0.0
2018/10/16 19:10:11.000   45.950321381  -66.641354606     3.1541   5   7   7.9776   2.5995   9.7279  -1.7677  -2.4373   6.9018   0.00    0.0
2018/10/16 19:10:12.000   45.950331198  -66.641356164     4.1067   5   7   7.9791   2.5994   9.7301  -1.7685  -2.4370   6.9041   0.00    0.0
2018/10/16 19:10:13.000   45.950334956  -66.641358167     3.8725   5   7   7.9807   2.5994   9.7322  -1.7692  -2.4367   6.9065   0.00    0.0
2018/10/16 19:10:14.000   45.950335856  -66.641354769     3.3117   5   7   7.9822   2.5994   9.7344  -1.7699  -2.4364   6.9088   0.00    0.0
2018/10/16 19:10:15.000   45.950353651  -66.641356505     4.1452   5   7   7.9838   2.5993   9.7365  -1.7707  -2.4360   6.9112   0.00    0.0
2018/10/16 19:10:16.000   45.950347293  -66.641360293     4.2850   5   7   7.9853   2.5993   9.7387  -1.7714  -2.4357   6.9135   0.00    0.0
2018/10/16 19:10:17.000   45.950341945  -66.641359985     3.9444   5   7   7.9869   2.5992   9.7409  -1.7721  -2.4354   6.9159   0.00    0.0
2018/10/16 19:10:18.000   45.950334068  -66.641360688     3.9399   5   7   7.9884   2.5992   9.7430  -1.7729  -2.4351   6.9182   0.00    0.0
2018/10/16 19:10:19.000   45.950327318  -66.641361077     3.6051   5   7   7.9900   2.5992   9.7452  -1.7736  -2.4348   6.9206   0.00    0.0
2018/10/16 19:10:20.000   45.950327416  -66.641362282     4.4695   5   7   7.9916   2.5991   9.7473  -1.7743  -2.4345   6.9230   0.00    0.0
2018/10/16 19:10:21.000   45.950334266  -66.641362258     5.3702   5   7   7.9931   2.5991   9.7495  -1.7751  -2.4341   6.9253   0.00    0.0
2018/10/16 19:10:22.000   45.950323853  -66.641356354     3.4058   5   7   7.9947   2.5991   9.7516  -1.7758  -2.4338   6.9277   0.00    0.0
2018/10/16 19:10:23.000   45.950309834  -66.641353948     1.2107   5   7   7.9962   2.5990   9.7538  -1.7765  -2.4335   6.9300   0.00    0.0
2018/10/16 19:10:24.000   45.950305464  -66.641352336     1.1818   5   7   7.9978   2.5990   9.7560  -1.7773  -2.4332   6.9324   0.00    0.0
2018/10/16 19:10:25.000   45.950285175  -66.641351393    -1.8544   5   8   7.4007   2.5930   8.7368  -1.6214  -2.2709   5.9072   0.00    0.0
2018/10/16 19:10:26.000   45.950281663  -66.641352189    -1.5545   5   8   7.4023   2.5930   8.7390  -1.6224  -2.2708   5.9098   0.00    0.0
2018/10/16 19:10:27.000   45.950302232  -66.641352122     1.0530   5   8   7.4039   2.5930   8.7413  -1.6235  -2.2706   5.9124   0.00    0.0
2018/10/16 19:10:28.000   45.950294393  -66.641348948    -1.8869   5   8   7.4056   2.5930   8.7435  -1.6245  -2.2705   5.9151   0.00    0.0
2018/10/16 19:10:29.000   45.950295492  -66.641347079    -1.5501   5   8   7.4072   2.5930   8.7458  -1.6255  -2.2704   5.9177   0.00    0.0
2018/10/16 19:10:30.000   45.950320275  -66.641345044     2.3215   5   8   7.4088   2.5929   8.7480  -1.6265  -2.2703   5.9203   0.00    0.0
2018/10/16 19:10:31.000   45.950320017  -66.641341240     1.9386   5   8   7.4104   2.5929   8.7503  -1.6275  -2.2702   5.9230   0.00    0.0
2018/10/16 19:10:32.000   45.950326500  -66.641339375     2.9429   5   8   7.4121   2.5929   8.7526  -1.6286  -2.2700   5.9256   0.00    0.0
2018/10/16 19:10:33.000   45.950343202  -66.641341076     4.1910   5   8   7.4137   2.5929   8.7548  -1.6296  -2.2699   5.9282   0.00    0.0
2018/10/16 19:10:34.000   45.950342382  -66.641341015     3.2132   5   8   7.4153   2.5929   8.7571  -1.6306  -2.2698   5.9309   0.00    0.0
2018/10/16 19:10:35.000   45.950345577  -66.641342809     3.1556   5   8   7.4169   2.5928   8.7593  -1.6316  -2.2697   5.9335   0.00    0.0
2018/10/16 19:10:36.000   45.950362470  -66.641345790     5.3049   5   8   7.4186   2.5928   8.7616  -1.6326  -2.2696   5.9361   0.00    0.0
2018/10/16 19:10:37.000   45.950341097  -66.641341809     4.0550   5   8   7.4202   2.5928   8.7639  -1.6337  -2.2695   5.9388   0.00    0.0
2018/10/16 19:10:38.000   45.950341356  -66.641343532     3.4733   5   8   7.4218   2.5928   8.7661  -1.6347  -2.2693   5.9414   0.00    0.0
2018/10/16 19:10:39.000   45.950338941  -66.641346599     4.0268   5   8   7.4234   2.5928   8.7684  -1.6357  -2.2692   5.9441   0.00    0.0
2018/10/16 19:10:40.000   45.950341227  -66.641349586     4.1435   5   8   7.4251   2.5928   8.7706  -1.6367  -2.2691   5.9467   0.00    0.0
2018/10/16 19:10:41.000   45.950335709  -66.641347183     4.5902   5   8   7.4267   2.5927   8.7729  -1.6377  -2.2690   5.9493   0.00    0.0
2018/10/16 19:10:42.000   45.950330562  -66.641346524     3.7593   5   8   7.4283   2.5927   8.7752  -1.6388  -2.2689   5.9520   0.00    0.0
2018/10/16 19:10:43.000   45.950320255  -66.641344618     1.2927   5   8   7.4300   2.5927   8.7774  -1.6398  -2.2687   5.9546   0.00    0.0
2018/10/16 19:10:44.000   45.950344667  -66.641362661     5.7637   5   7   7.5590   3.1075   9.8102  -2.2494  -3.5559   6.4450   0.00    0.0
2018/10/16 19:10:45.000   45.950344700  -66.641360723     4.2555   5   7   7.5611   3.1074   9.8134  -2.2510  -3.5563   6.4486   0.00    0.0
2018/10/16 19:10:46.000   45.950352602  -66.641368494     6.5969   5   7   7.5631   3.1073   9.8165  -2.2527  -3.5568   6.4522   0.00    0.0
2018/10/16 19:10:47.000   45.950351700  -66.641358255     5.1411   5   7   7.5652   3.1072   9.8196  -2.2544  -3.5572   6.4558   0.00    0.0
2018/10/16 19:10:48.000   45.950374602  -66.641367455     9.2336   5   7   7.5673   3.1071   9.8228  -2.2561  -3.5577   6.4594   0.00    0.0
2018/10/16 19:10:49.000   45.950365522  -66.641359788     7.2149   5   7   7.5694   3.1071   9.8259  -2.2578  -3.5581   6.4630   0.00    0.0
2018/10/16 19:10:50.000   45.950372495  -66.641358921     7.2531   5   7   7.5715   3.1070   9.8290  -2.2595  -3.5585   6.4666   0.00    0.0
2018/10/16 19:10:51.000   45.950366798  -66.641356211     5.6626   5   7   7.5736   3.1069   9.8322  -2.2612  -3.5590   6.4702   0.00    0.0
2018/10/16 19:10:52.000   45.950362802  -66.641355224     4.1250   5   7   7.5756   3.1068   9.8353  -2.2629  -3.5594   6.4738   0.00    0.0
2018/10/16 19:10:53.000   45.950357651  -66.641347763     3.0259   5   8   7.4462   2.5925   8.8002  -1.6499  -2.2676   5.9811   0.00    0.0
2018/10/16 19:10:54.000   45.950359854  -66.641353450     4.4626   5   8   7.4479   2.5925   8.8025  -1.6509  -2.2674   5.9837   0.00    0.0
2018/10/16 19:10:55.000   45.950357773  -66.641343513     0.7874   5   8   7.4495   2.5925   8.8047  -1.6519  -2.2673   5.9864   0.00    0.0
2018/10/16 19:10:56.000   45.950344089  -66.641341919     0.3086   5   8   7.4511   2.5925   8.8070  -1.6529  -2.2672   5.9890   0.00    0.0
2018/10/16 19:10:57.000   45.950350423  -66.641345064     2.1931   5   8   7.4528   2.5925   8.8093  -1.6539  -2.2671   5.9917   0.00    0.0
2018/10/16 19:10:58.000   45.950363042  -66.641355535     4.1129   5   8   7.4544   2.5924   8.8116  -1.6549  -2.2670   5.9943   0.00    0.0
2018/10/16 19:10:59.000   45.950365971  -66.641359193     4.7686   5   8   7.4560   2.5924   8.8139  -1.6560  -2.2668   5.9970   0.00    0.0
2018/10/16 19:11:00.000   45.950356023  -66.641359520     2.8737   5   8   7.4577   2.5924   8.8162  -1.6570  -2.2667   5.9996   0.00    0.0
2018/10/16 19:11:01.000   45.950354260  -66.641361427     3.5888   5   8   7.4593   2.5924   8.8184  -1.6580  -2.2666   6.0023   0.00    0.0
2018/10/16 19:11:02.000   45.950358955  -66.641361470     4.5092   5   8   7.4609   2.5924   8.8207  -1.6590  -2.2665   6.0049   0.00    0.0
2018/10/16 19:11:03.000   45.950357258  -66.641358644     4.7296   5   8   7.4626   2.5924   8.8230  -1.6600  -2.2664   6.0076   0.00    0.0
2018/10/16 19:11:04.000   45.950356782  -66.641358530     4.4667   5   8   7.4642   2.5924   8.8253  -1.6610  -2.2662   6.0102   0.00    0.0
2018/10/16 19:11:05.000   45.950349317  -66.641360406     4.1082   5   8   7.4658   2.5923   8.8276  -1.6620  -2.2661   6.0129   0.00    0.0
2018/10/16 19:11:06.000   45.950346052  -66.641357550     2.8543   5   8   7.4675   2.5923   8.8299  -1.6630  -2.2660   6.0155   0.00    0.0
2018/10/16 19:11:07.000   45.950341083  -66.641359470     3.3180   5   8   7.4691   2.5923   8.8322  -1.6640  -2.2659   6.0182   0.00    0.0
2018/10/16 19:11:08.000   45.950353202  -66.641359886     4.0730   5   8   7.4708   2.5923   8.8345  -1.6650  -2.2658   6.0208   0.00    0.0
2018/10/16 19:11:09.000   45.950349164  -66.641357403     4.1482   5   8   7.4724   2.5923   8.8368  -1.6660  -2.2657   6.0235   0.00    0.0
2018/10/16 19:11:10.000   45.950342032  -66.641354182     4.4098   5   8   7.4740   2.5923   8.8391  -1.6670  -2.2655   6.0261   0.00    0.0
2018/10/16 19:11:11.000   45.950342326  -66.641352169     4.9145   5   8   7.4757   2.5922   8.8413  -1.6680  -2.2654   6.0288   0.00    0.0
2018/10/16 19:11:12.000   45.950344815  -66.641348828     4.5298   5   8   7.4773   2.5922   8.8436  -1.6690  -2.2653   6.0314   0.00    0.0
2018/10/16 19:11:13.000   45.950338378  -66.641346958     3.2465   5   8   7.4789   2.5922   8.8459  -1.6700  -2.2652   6.0341   0.00    0.0
2018/10/16 19:11:14.000   45.950337310  -66.641345797     2.2154   5   8   7.4806   2.5922   8.8482  -1.6710  -2.2651   6.0368   0.00    0.0
2018/10/16 19:11:15.000   45.950322407  -66.641342526     1.1504   5   8   7.4822   2.5922   8.8505  -1.6720  -2.2649   6.0394   0.00    0.0
2018/10/16 19:11:16.000   45.950323962  -66.641345337     2.0244   5   8   7.4839   2.5922   8.8528  -1.6730  -2.2648   6.0421   0.00    0.0
2018/10/16 19:11:17.000   45.950322658  -66.641345940     2.3056   5   8   7.4855   2.5922   8.8551  -1.6740  -2.2647   6.0447   0.00    0.0
2018/10/16 19:11:18.000   45.950344728  -66.641354342     5.0840   5   7   8.0812   2.5972   9.8734  -1.8162  -2.4156   7.0596   0.00    0.0
2018/10/16 19:11:19.000   45.950360124  -66.641362166     7.3833   5   7   8.0828   2.5972   9.8756  -1.8169  -2.4153   7.0620   0.00    0.0
2018/10/16 19:11:20.000   45.950364458  -66.641353559     6.1820   5   8   7.4904   2.5921   8.8621  -1.6770  -2.2643   6.0527   0.00    0.0
2018/10/16 19:11:21.000   45.950366946  -66.641357642     6.1372   5   8   7.4920   2.5921   8.8644  -1.6780  -2.2642   6.0554   0.00    0.0
2018/10/16 19:11:22.000   45.950349387  -66.641355191     3.3699   5   8   7.4937   2.5921   8.8667  -1.6790  -2.2641   6.0580   0.00    0.0
2018/10/16 19:11:23.000   45.950178961  -66.641291093   -17.9381   5   4  40.7905   8.7514  43.7361 -18.2165 -19.0063  41.7184   0.00    0.0
2018/10/16 19:11:24.000   45.950234451  -66.641312130   -11.6794   5   5  40.8854   8.7678  43.8363 -18.2577 -19.0481  41.8172   0.00    0.0
2018/10/16 19:11:25.000   45.950258818  -66.641321438    -8.2429   5   5  40.9808   8.7843  43.9370 -18.2992 -19.0900  41.9164   0.00    0.0
2018/10/16 19:11:26.000   45.950277868  -66.641323348    -6.1729   5   5  41.0766   8.8009  44.0382 -18.3408 -19.1322  42.0161   0.00    0.0
2018/10/16 19:11:27.000   45.950277664  -66.641324503    -6.2681   5   5  41.1730   8.8176  44.1398 -18.3826 -19.1746  42.1162   0.00    0.0
2018/10/16 19:11:28.000   45.950311418  -66.641334047    -2.6927   5   6   9.5625   3.6396  14.4843  -4.0371  -5.7264  10.1973   0.00    0.0
2018/10/16 19:11:29.000   45.950332669  -66.641332797     0.3301   5   8   7.5052   2.5920   8.8829  -1.6859  -2.2633   6.0767   0.00    0.0
2018/10/16 19:11:30.000   45.950328056  -66.641337874     0.6514   5   8   7.5068   2.5920   8.8852  -1.6869  -2.2631   6.0793   0.00    0.0
2018/10/16 19:11:31.000   45.950324116  -66.641341065     1.3379   5   8   7.5085   2.5920   8.8875  -1.6879  -2.2630   6.0820   0.00    0.0
2018/10/16 19:11:32.000   45.950318621  -66.641343248     2.0532   5   8   7.5101   2.5920   8.8898  -1.6889  -2.2629   6.0847   0.00    0.0
2018/10/16 19:11:33.000   45.950311359  -66.641339745     0.2210   5   8   7.5117   2.5919   8.8921  -1.6899  -2.2628   6.0873   0.00    0.0
2018/10/16 19:11:34.000   45.950316301  -66.641345976     0.6958   5   8   7.5134   2.5919   8.8944  -1.6909  -2.2627   6.0900   0.00    0.0
2018/10/16 19:11:35.000   45.950309467  -66.641348957     0.5664   5   8   7.5150   2.5919   8.8968  -1.6919  -2.2625   6.0927   0.00    0.0
2018/10/16 19:11:36.000   45.950307223  -66.641348989     0.1462   5   8   7.5167   2.5919   8.8991  -1.6929  -2.2624   6.0953   0.00    0.0
2018/10/16 19:11:37.000   45.950309442  -66.641353227     1.2731   5   8   7.5183   2.5919   8.9014  -1.6938  -2.2623   6.0980   0.00    0.0
2018/10/16 19:11:38.000   45.950308558  -66.641356123     1.5092   5   8   7.5200   2.5919   8.9037  -1.6948  -2.2622   6.1007   0.00    0.0
2018/10/16 19:11:39.000   45.950310723  -66.641357436     0.8577   5   8   7.5216   2.5919   8.9060  -1.6958  -2.2621   6.1033   0.00    0.0
2018/10/16 19:11:40.000   45.950305660  -66.641354935     0.6824   5   8   7.5233   2.5919   8.9084  -1.6968  -2.2619   6.1060   0.00    0.0
2018/10/16 19:11:41.000   45.950298556  -66.641352528    -0.5036   5   8   7.5249   2.5919   8.9107  -1.6978  -2.2618   6.1087   0.00    0.0
2018/10/16 19:11:42.000   45.950296886  -66.641348741    -0.5709   5   8   7.5266   2.5918   8.9130  -1.6988  -2.2617   6.1113   0.00    0.0
2018/10/16 19:11:43.000   45.950303346  -66.641351694    -0.7290   5   8   7.5282   2.5918   8.9154  -1.6998  -2.2616   6.1140   0.00    0.0
2018/10/16 19:11:44.000   45.950304394  -66.641347328    -1.9773   5   8   7.5298   2.5918   8.9177  -1.7007  -2.2615   6.1167   0.00    0.0
2018/10/16 19:11:45.000   45.950299861  -66.641347229    -2.6071   5   8   7.5315   2.5918   8.9200  -1.7017  -2.2613   6.1193   0.00    0.0
2018/10/16 19:11:46.000   45.950293488  -66.641341276    -3.6741   5   8   7.5331   2.5918   8.9223  -1.7027  -2.2612   6.1220   0.00    0.0
2018/10/16 19:11:47.000   45.950297322  -66.641344524    -3.1634   5   8   7.5348   2.5918   8.9247  -1.7037  -2.2611   6.1247   0.00    0.0
2018/10/16 19:11:48.000   45.950304104  -66.641348166    -0.7273   5   8   7.5364   2.5918   8.9270  -1.7047  -2.2610   6.1274   0.00    0.0
2018/10/16 19:11:49.000   45.950329935  -66.641354852     4.4988   5   8   7.5381   2.5918   8.9293  -1.7056  -2.2609   6.1300   0.00    0.0
2018/10/16 19:11:50.000   45.950339144  -66.641358012     6.0473   5   8   7.5397   2.5917   8.9317  -1.7066  -2.2607   6.1327   0.00    0.0
2018/10/16 19:11:51.000   45.950335278  -66.641361022     6.3358   5   8   7.5414   2.5917   8.9340  -1.7076  -2.2606   6.1354   0.00    0.0
2018/10/16 19:11:52.000   45.950341008  -66.641362559     6.7179   5   8   7.5430   2.5917   8.9363  -1.7086  -2.2605   6.1381   0.00    0.0
2018/10/16 19:11:53.000   45.950342792  -66.641366953     8.1083   5   8   7.5447   2.5917   8.9387  -1.7096  -2.2604   6.1407   0.00    0.0
2018/10/16 19:11:54.000   45.950361445  -66.641365492     9.3272   5   8   7.5463   2.5917   8.9410  -1.7105  -2.2602   6.1434   0.00    0.0
2018/10/16 19:11:55.000   45.950367352  -66.641364707     9.0722   5   8   7.5480   2.5917   8.9434  -1.7115  -2.2601   6.1461   0.00    0.0
2018/10/16 19:11:56.000   45.950364386  -66.641367925     8.3702   5   8   7.5496   2.5917   8.9457  -1.7125  -2.2600   6.1487   0.00    0.0
2018/10/16 19:11:57.000   45.950355207  -66.641364241     8.0770   5   8   7.5513   2.5917   8.9480  -1.7135  -2.2599   6.1514   0.00    0.0
2018/10/16 19:11:58.000   45.950346853  -66.641360780     7.4199   5   8   7.5529   2.5917   8.9504  -1.7144  -2.2598   6.1541   0.00    0.0
2018/10/16 19:11:59.000   45.950345190  -66.641353875     6.3029   5   8   7.5546   2.5917   8.9527  -1.7154  -2.2596   6.1568   0.00    0.0
2018/10/16 19:12:00.000   45.950343355  -66.641355989     6.3569   5   8   7.5562   2.5916   8.9551  -1.7164  -2.2595   6.1595   0.00    0.0
2018/10/16 19:12:01.000   45.950336594  -66.641354461     5.5726   5   8   7.5579   2.5916   8.9574  -1.7174  -2.2594   6.1621   0.00    0.0
2018/10/16 19:12:02.000   45.950332493  -66.641356544     6.1822   5   8   7.5595   2.5916   8.9598  -1.7183  -2.2593   6.1648   0.00    0.0
2018/10/16 19:12:03.000   45.950319977  -66.641353693     4.3442   5   8   7.5612   2.5916   8.9621  -1.7193  -2.2592   6.1675   0.00    0.0
2018/10/16 19:12:04.000   45.950314021  -66.641352225     3.9617   5   8   7.5628   2.5916   8.9645  -1.7203  -2.2590   6.1702   0.00    0.0
2018/10/16 19:12:05.000   45.950318691  -66.641355939     4.4892   5   8   7.5645   2.5916   8.9668  -1.7213  -2.2589   6.1728   0.00    0.0
2018/10/16 19:12:06.000   45.950322247  -66.641357219     4.8669   5   8   7.5661   2.5916   8.9692  -1.7222  -2.2588   6.1755   0.00    0.0
2018/10/16 19:12:07.000   45.950321035  -66.641358038     5.0667   5   8   7.5678   2.5916   8.9715  -1.7232  -2.2587   6.1782   0.00    0.0
2018/10/16 19:12:08.000   45.950327307  -66.641352834     4.7546   5   8   7.5694   2.5916   8.9739  -1.7242  -2.2585   6.1809   0.00    0.0
2018/10/16 19:12:09.000   45.950320736  -66.641349465     3.7144   5   8   7.5711   2.5916   8.9762  -1.7251  -2.2584   6.1836   0.00    0.0
2018/10/16 19:12:10.000   45.950325919  -66.641344670     1.3533   5   8   7.5727   2.5916   8.9786  -1.7261  -2.2583   6.1862   0.00    0.0
2018/10/16 19:12:11.000   45.950318121  -66.641344521    -0.5114   5   8   7.5744   2.5915   8.9809  -1.7271  -2.2582   6.1889   0.00    0.0
2018/10/16 19:12:12.000   45.950319445  -66.641347446     0.7792   5   8   7.5760   2.5915   8.9833  -1.7281  -2.2581   6.1916   0.00    0.0
2018/10/16 19:12:13.000   45.950331151  -66.641345536     1.6131   5   8   7.5777   2.5915   8.9856  -1.7290  -2.2579   6.1943   0.00    0.0
2018/10/16 19:12:14.000   45.950343046  -66.641356299     4.1539   5   8   7.5793   2.5915   8.9880  -1.7300  -2.2578   6.1970   0.00    0.0
2018/10/16 19:12:15.000   45.950358805  -66.641360482     8.1009   5   8   7.5810   2.5915   8.9903  -1.7310  -2.2577   6.1997   0.00    0.0
2018/10/16 19:12:16.000   45.950361577  -66.641363361     8.9468   5   8   7.5826   2.5915   8.9927  -1.7319  -2.2576   6.2023   0.00    0.0
2018/10/16 19:12:17.000   45.950367894  -66.641368070    10.2537   5   8   7.5843   2.5915   8.9951  -1.7329  -2.2574   6.2050   0.00    0.0
2018/10/16 19:12:18.000   45.950355175  -66.641364754     8.5528   5   8   7.5860   2.5915   8.9974  -1.7339  -2.2573   6.2077   0.00    0.0
2018/10/16 19:12:19.000   45.950354330  -66.641362850     8.0955   5   8   7.5876   2.5915   8.9998  -1.7348  -2.2572   6.2104   0.00    0.0
2018/10/16 19:12:20.000   45.950356129  -66.641361585     7.6844   5   8   7.5893   2.5915   9.0022  -1.7358  -2.2571   6.2131   0.00    0.0
2018/10/16 19:12:21.000   45.950359455  -66.641362077     7.9163   5   8   7.5909   2.5915   9.0045  -1.7367  -2.2569   6.2158   0.00    0.0
2018/10/16 19:12:22.000   45.950343898  -66.641363634     5.9495   5   8   7.5926   2.5914   9.0069  -1.7377  -2.2568   6.2184   0.00    0.0
2018/10/16 19:12:23.000   45.950349250  -66.641364500     6.8069   5   8   7.5942   2.5914   9.0092  -1.7387  -2.2567   6.2211   0.00    0.0
2018/10/16 19:12:24.000   45.950356806  -66.641367531     6.8445   5   8   7.5959   2.5914   9.0116  -1.7396  -2.2566   6.2238   0.00    0.0
2018/10/16 19:12:25.000   45.950354115  -66.641365358     6.2021   5   8   7.5975   2.5914   9.0140  -1.7406  -2.2565   6.2265   0.00    0.0
2018/10/16 19:12:26.000   45.950345139  -66.641364432     6.5243   5   8   7.5992   2.5914   9.0164  -1.7416  -2.2563   6.2292   0.00    0.0
2018/10/16 19:12:27.000   45.950356418  -66.641360788     6.0608   5   8   7.6009   2.5914   9.0187  -1.7425  -2.2562   6.2319   0.00    0.0
2018/10/16 19:12:28.000   45.950371677  -66.641357976     6.5201   5   8   7.6025   2.5914   9.0211  -1.7435  -2.2561   6.2346   0.00    0.0
2018/10/16 19:12:29.000   45.950370066  -66.641354127     5.2069   5   8   7.6042   2.5914   9.0235  -1.7444  -2.2560   6.2373   0.00    0.0
2018/10/16 19:12:30.000   45.950362592  -66.641350805     5.6584   5   8   7.6058   2.5914   9.0258  -1.7454  -2.2558   6.2399   0.00    0.0
2018/10/16 19:12:31.000   45.950357234  -66.641349462     5.4851   5   8   7.6075   2.5914   9.0282  -1.7464  -2.2557   6.2426   0.00    0.0
2018/10/16 19:12:32.000   45.950339041  -66.641347519     3.9557   5   8   7.6091   2.5914   9.0306  -1.7473  -2.2556   6.2453   0.00    0.0
