     2.11           OBSERVATION DATA    M                   RINEX VERSION / TYPE
sbf2rin-13.2.0                          09-APR-19 21:29     PGM / RUN BY / DATE 
APS_                                                        MARKER NAME         
Unknown                                                     MARKER NUMBER       
Unknown             Unknown                                 OBSERVER / AGENCY   
3013458             SEPT ALTUS APS3G    4.1.5               REC # / TYPE / VERS 
APS3G               APSAPS-3L       NONE                    ANT # / TYPE        
  1761290.5385 -4078200.4441  4561426.3626                  APPROX POSITION XYZ 
        0.0000        0.0000        0.0000                  ANTENNA: DELTA H/E/N
     1     1                                                WAVELENGTH FACT L1/2
     9    C1    L1    L2    P2    C2    D1    D2    S1    S2# / TYPES OF OBSERV 
For GPS, L2 corresponds to the L2P carrier phase.           COMMENT             
For GLONASS, L2 corresponds to the L2CA carrier phase.      COMMENT             
     1.000                                                  INTERVAL            
  2019     3    19    19    46    7.0000000     GPS         TIME OF FIRST OBS   
  2019     3    19    20    15   56.0000000     GPS         TIME OF LAST OBS    
    27                                                      # OF SATELLITES     
                                                            END OF HEADER       
 19  3 19 19 46  7.0000000  0 12G30G07G08R19R08G27G16R10R18R09R16R01
  25264225.611 6 132764404.19006 103452798.18903  25264228.347 3  25264229.858 6
      3749.483 6      2921.681 3        40.250          20.500
  22932889.986 8 120513150.63908  93906341.73605  22932888.195 5  22932889.534 6
      2440.396 8      1901.607 5        49.250          33.500
  22100502.621 8 116138922.90308  90497851.04806  22100502.453 6  22100505.201 7
      1373.009 8      1069.870 6        49.500          36.750
  21181953.661 7 113309170.72107  88129371.26406                  21181956.838 6
      1081.588 7       841.290 6        42.500          39.500
  24982260.698 6 133778878.30506 104050264.78405                  24982266.100 5
     -1710.645 6     -1330.414 5        37.250          33.000
  22280548.595 8 117085071.41508  91235135.19406  22280549.933 6  22280550.083 7
      -947.354 8      -738.198 6        51.250          39.000
  23829482.630 7 125224774.05407  97577736.86804  23829479.033 4
     -2073.938 7     -1616.059 4        47.000          26.750
  23505872.966 7 125299535.71907  97455217.31005                  23505875.878 5
      3784.508 7      2943.362 5        43.500          34.250
  23213542.708 7 123915463.11407  96378722.47907                  23213548.345 7
     -2813.131 7     -2188.068 7        47.500          45.500
  21118454.664 7 112771367.78307  87711081.91108                  21118457.947 8
      1320.542 7      1027.146 8        47.250          49.250
  23285838.285 6 124388756.68706  96746832.34506                  23285840.060 6
     -2410.066 6     -1874.682 6        39.250          39.500
  25244131.882 6 134944361.10106 104956842.16605                  25244137.758 5
       863.253 6       671.218 5        38.500          33.750
 19  3 19 19 46  8.0000000  0 13G26G30G07G08R19R08G27G16R10R18R09R16
                                R01
  26136095.240 6 137346107.75216
     -2559.073 6                        40.000
  25263511.739 6 132760655.13706 103449876.84603  25263514.814 3  25263516.121 6
      3748.734 6      2921.095 3        40.250          20.500
  22932425.716 8 120510710.89408  93904440.63705  22932423.942 5  22932425.504 6
      2439.311 8      1900.763 5        49.250          33.500
  22100241.483 8 116137550.57408  90496781.70206  22100241.449 6  22100244.176 7
      1371.733 8      1068.885 6        49.500          36.750
  21181751.609 7 113308089.92407  88128530.61906                  21181755.137 6
      1080.136 7       840.088 6        42.250          39.750
  24982580.588 6 133780589.52306 104051595.74005                  24982585.045 5
     -1711.820 6     -1331.463 5        36.750          33.250
  22280728.993 8 117086019.44708  91235873.92006  22280730.287 6  22280730.830 7
      -948.630 8      -739.190 6        51.250          39.000
  23829877.397 7 125226848.44707  97579353.27904  23829873.757 4
     -2074.834 7     -1616.755 4        47.000          26.750
  23505163.061 7 125295751.62307  97452274.15205                  23505166.362 5
      3783.730 7      2942.649 5        43.250          35.250
  23214069.779 7 123918276.88007  96380910.95307                  23214075.601 7
     -2814.387 7     -2188.821 7        47.500          46.000
  21118207.502 7 112770047.86607  87710055.31208                  21118210.639 8
      1319.377 7      1026.236 8        47.250          49.750
  23286289.509 6 124391167.39706  96748707.32306                  23286291.975 6
     -2411.229 6     -1875.480 6        39.250          39.750
  25243970.154 6 134943498.60806 104956171.29805                  25243977.236 5
       861.753 6       669.852 5        38.250          34.250
 19  3 19 19 46  9.0000000  0 13G26G30G07G08R19R08G27G16R10R18R09R16
                                R01
  26136582.284 6 137348666.70306
     -2558.209 6                        40.000
  25262798.300 6 132756906.49806 103446955.83203  25262801.362 3  25262802.657 5
      3749.368 6      2921.572 3        40.000          20.000
  22931961.583 8 120508271.81508  93902540.05605  22931959.806 5  22931961.606 6
      2439.581 8      1900.971 5        49.250          33.250
  22099980.487 8 116136179.03708  90495712.96906  22099980.566 6  22099983.587 7
      1371.976 8      1069.072 6        49.500          36.500
  21181549.565 7 113307010.25807  88127690.88306                  21181553.338 6
      1079.982 7       839.930 6        42.250          40.000
  24982900.294 6 133782301.57206 104052927.32105                  24982904.781 5
     -1711.562 6     -1331.214 5        37.250          33.000
  22280909.570 8 117086968.23708  91236613.23706  22280910.788 6  22280911.709 7
      -948.287 8      -738.922 6        51.250          39.000
  23830272.165 7 125228923.24407  97580970.00404  23830268.566 4
     -2074.206 7     -1616.265 4        47.000          26.750
  23504453.212 7 125291967.90707  97449331.25605                  23504458.309 5
      3784.375 7      2943.023 5        43.250          35.250
  23214597.051 7 123921091.40807  96383100.03807                  23214602.877 7
     -2814.058 7     -2188.620 7        47.250          45.750
  21117960.507 7 112768728.69907  87709029.28108                  21117963.664 8
      1319.614 7      1026.327 8        47.250          49.750
  23286740.840 6 124393578.66906  96750582.75706                  23286743.532 6
     -2410.636 6     -1874.982 6        39.000          39.500
  25243808.904 6 134942637.15506 104955501.26305                  25243816.914 5
       861.636 6       670.119 5        38.000          34.250
 19  3 19 19 46 10.0000000  0 13G26G30G07G08R19R08G27G16R10R18R09R16
                                R01
  26137069.468 6 137351226.42106
     -2559.641 6                        40.250
  25262085.303 6 132753158.73906 103444035.49603  25262088.067 3  25262089.211 5
      3747.713 6      2920.302 3        40.000          19.500
  22931497.598 8 120505833.86708  93900640.35705  22931495.897 5  22931498.026 6
      2437.840 8      1899.615 5        49.250          33.250
  22099719.745 8 116134808.77408  90494645.23306  22099719.910 6  22099723.077 7
      1370.058 8      1067.576 6        49.500          36.500
  21181347.955 7 113305932.22507  88126852.41006                  21181352.154 6
      1077.611 7       838.255 6        42.250          40.000
  24983220.140 6 133784014.96706 104054259.96605                  24983225.002 5
     -1713.481 6     -1332.760 5        37.000          33.250
  22281090.376 8 117087918.27408  91237353.52206  22281091.513 6  22281092.824 7
      -950.211 8      -740.420 6        51.250          39.000
  23830667.136 7 125230998.90607  97582587.40104  23830663.544 4
     -2075.667 7     -1617.400 4        46.750          26.750
  23503743.330 7 125288185.03607  97446389.02505                  23503749.483 5
      3782.880 7      2942.019 5        43.250          35.500
  23215124.475 7 123923907.17807  96385290.08107                  23215130.406 7
     -2815.961 7     -2190.253 7        47.250          45.500
  21117713.628 7 112767410.75707  87708004.21908                  21117716.942 8
      1317.705 7      1024.952 8        47.250          49.500
  23287192.432 6 124395991.02006  96752459.02806                  23287195.395 6
     -2412.413 6     -1876.198 6        38.750          39.750
  25243648.254 6 134941777.21506 104954832.44405                  25243656.704 5
       859.602 6       668.214 5        38.250          34.250
 19  3 19 19 46 11.0000000  0 13G26G30G07G08R19R08G27G16R10R18R09R16
                                R01
  26137556.718 6 137353785.91906
     -2559.733 6                        40.500
  25261372.169 6 132749410.91706 103441115.10803  25261374.696 3  25261375.841 5
      3747.569 6      2920.165 3        40.000          19.250
  22931033.599 8 120503396.11608  93898740.81305  22931032.047 5  22931034.037 6
      2437.417 8      1899.283 5        49.250          33.000
  22099459.048 8 116133438.85108  90493577.76206  22099459.322 6  22099462.486 7
      1369.475 8      1067.121 6        49.500          36.500
  21181146.587 7 113304854.88807  88126014.47906                  21181151.103 6
      1076.710 7       837.351 6        42.250          40.000
  24983540.068 6 133785728.74406 104055592.88005                  24983545.369 5
     -1714.193 6     -1333.055 5        37.250          33.500
  22281271.247 8 117088868.59308  91238094.02906  22281272.301 6  22281273.662 7
      -950.768 8      -740.857 6        51.250          39.000
  23831062.052 7 125233074.50807  97584204.75504  23831058.482 4
     -2075.865 7     -1617.566 4        46.750          26.500
  23503033.492 7 125284402.02807  97443446.69905                  23503040.791 5
      3782.771 7      2941.916 5        43.250          35.250
  23215651.866 7 123926723.24007  96387480.34807                  23215657.865 7
     -2816.489 7     -2190.560 7        47.250          45.250
  21117466.910 7 112766093.07407  87706979.35708                  21117470.274 8
      1317.294 7      1024.617 8        47.250          49.500
  23287643.710 6 124398403.47706  96754335.40406                  23287646.455 6
     -2412.802 6     -1876.769 6        38.750          39.250
  25243487.833 6 134940917.87006 104954164.05005                  25243495.953 5
       858.761 6       668.183 5        38.000          34.500
 19  3 19 19 46 12.0000000  0 13G26G30G07G08R19R08G27G16R10R18R09R16
                                R01
  26138043.755 6 137356345.62106
     -2560.230 6                        40.250
  25260659.186 6 132745663.38306 103438194.96103  25260661.521 3  25260662.968 5
      3746.912 6      2919.664 3        39.750          19.250
  22930569.796 8 120500958.93608  93896841.71005  22930568.282 5  22930570.190 6
      2436.539 8      1898.604 5        49.500          33.000
  22099198.432 8 116132069.63608  90492510.84006  22099198.855 6  22099201.928 7
      1368.536 8      1066.394 6        49.500          36.500
  21180945.297 7 113303778.57207  88125177.32806                  21180949.970 6
      1075.302 7       836.572 6        42.000          40.000
  24983860.291 6 133787443.22806 104056926.38005                  24983865.360 5
     -1715.183 6     -1333.991 5        36.750          33.500
  22281452.178 8 117089819.58408  91238835.06106  22281453.232 6  22281454.674 7
      -951.666 8      -741.557 6        51.250          38.750
  23831457.006 7 125235150.42307  97585822.35204  23831453.492 4
     -2076.380 7     -1617.962 4        46.750          26.500
  23502323.599 7 125280619.29207  97440504.55105                  23502332.297 5
      3782.281 7      2941.916 5        43.250          35.000
  23216179.429 7 123929539.97507  96389671.15407                  23216185.590 7
     -2817.454 7     -2191.292 7        47.250          44.750
  21117220.365 7 112764776.03107  87705954.99408                  21117223.710 8
      1316.392 7      1023.817 8        47.250          49.500
  23288095.108 6 124400816.42606  96756212.14406                  23288098.241 6
     -2413.520 6     -1877.435 6        38.500          38.750
  25243327.218 6                                                  25243334.968 5
       857.513 6       666.902 5        37.000          34.000
 19  3 19 19 46 13.0000000  0 13G26G30G07G08R19R08G27G16R10R18R09R16
                                R01
  26138531.076 6 137358905.93406                                  26138532.033 5
     -2560.831 6                        40.500
  25259946.415 6 132741916.59106 103435275.38703  25259948.498 3  25259949.757 5
      3746.073 6      2919.031 3        40.000          19.250
  22930106.180 8 120498522.73008  93894943.36705  22930104.682 5  22930106.555 6
      2435.430 8      1897.736 5        49.750          33.000
  22098938.064 8 116130701.56308  90491444.80606  22098938.597 6  22098941.651 7
      1367.179 8      1065.329 6        49.500          36.250
  21180744.425 7 113302703.70807  88124341.34306                  21180748.760 6
      1073.897 7       835.104 6        42.250          40.250
  24984180.759 6 133789158.92006 104058260.80205                  24984185.575 5
     -1716.684 6     -1335.314 5        37.000          33.750
  22281633.313 8 117090771.65808  91239576.93506  22281634.368 6  22281636.102 7
      -952.935 8      -742.554 6        51.500          38.750
  23831852.066 7 125237227.05207  97587440.50504  23831848.680 4
     -2077.299 7     -1618.667 4        46.750          26.250
  23501613.891 7 125276837.23207  97437562.93305                  23501622.330 5
      3781.473 7      2941.069 5        43.000          35.500
  23216707.156 7 123932357.78407  96391862.77707                  23216713.556 7
     -2818.678 7     -2192.365 7        47.250          45.000
  21116973.863 7 112763460.02807  87704931.42808                  21116977.398 8
      1315.160 7      1022.911 8        47.250          49.750
  23288546.528 6 124403230.26506  96758089.56006                  23288550.028 6
     -2414.644 6     -1877.890 6        38.500          39.250
  25243167.077 6                                                  25243174.313 5
       855.904 6       665.470 5        37.250          34.000
 19  3 19 19 46 14.0000000  0 13G26G30G07G08R19R08G27G16R10R18R09R16
                                R01
  26139018.448 6 137361466.85106                                  26139018.943 5
     -2560.029 6                        40.500
  25259233.457 6 132738170.58006 103432356.41403  25259235.677 3  25259237.249 5
      3746.679 6      2919.495 3        40.250          19.500
  22929642.821 8 120496087.55808  93893045.82805  22929641.292 5  22929643.040 6
      2435.787 8      1898.016 5        49.500          33.000
  22098677.962 8 116129334.63808  90490379.67106  22098678.572 6  22098681.427 7
      1367.468 8      1065.561 6        49.500          36.500
  21180544.037 7 113301630.36507  88123506.50506                  21180548.287 6
      1073.734 7       835.254 6        42.250          40.000
  24984501.129 6 133790875.79806 104059596.18505                  24984506.121 5
     -1716.267 6     -1335.000 5        37.000          33.500
  22281814.607 8 117091724.84908  91240319.68106  22281815.715 6  22281817.473 7
      -952.641 8      -742.317 6        51.500          39.000
  23832247.337 7 125239304.44107  97589059.24904  23832244.008 4
     -2076.601 7     -1618.129 4        46.500          26.500
  23500904.337 7 125273055.92007  97434621.96605                  23500912.584 5
      3782.053 7      2941.648 5        43.250          35.000
  23217235.099 7 123935176.72507  96394055.28707                  23217242.133 7
     -2818.362 7     -2192.108 7        47.250          44.750
  21116727.680 7 112762145.13807  87703908.74008                  21116731.307 8
      1315.539 7      1023.223 8        47.250          49.500
  23288998.080 6 124405645.00906  96759967.67606                  23289002.135 6
     -2413.906 6     -1877.675 6        38.500          39.250
  25243006.612 6                                                  25243014.127 5
       856.082 6       665.995 5        36.500          34.250
 19  3 19 19 46 15.0000000  0 13G26G30G07G08R19R08G27G16R10R18R09R16
                                R01
  26139505.847 6 137364027.84706                  26139507.924 2  26139505.679 5
     -2560.400 6     -1995.135 2        40.500          15.750
  25258520.848 6 132734424.72806 103429437.56303  25258522.905 3  25258524.225 5
      3746.175 6      2919.124 3        40.000          19.250
  22929179.480 8 120493652.82208  93891148.63405  22929178.001 5  22929179.752 6
      2434.988 8      1897.392 5        49.750          32.750
  22098417.879 8 116127968.28708  90489314.98306  22098418.650 6  22098421.302 7
      1366.593 8      1064.883 6        49.500          36.500
  21180343.697 7 113300557.97207  88122672.41806                  21180347.290 6
      1072.461 7       834.359 6        42.500          39.500
  24984822.396 6 133792593.34306 104060932.01105                  24984827.225 5
     -1717.390 6     -1335.798 5        37.000          32.500
  22281996.076 8 117092678.58208  91241062.85106  22281997.169 6  22281998.994 7
      -953.510 8      -742.990 6        51.750          38.750
  23832642.557 7 125241382.01207  97590678.13404  23832639.348 4
     -2077.004 7     -1618.439 4        46.500          26.500
  23500195.228 7 125269274.69507  97431680.97705                  23500203.103 5
      3781.576 7      2941.974 5        43.250          35.000
  23217763.187 7 123937996.21107  96396248.20907                  23217770.936 7
     -2819.276 7     -2192.922 7        47.250          44.250
  21116481.518 7 112760830.74107  87702886.42908                  21116485.335 8
      1314.584 7      1022.426 8        47.250          49.000
  23289449.782 6 124408060.13206  96761846.10806                  23289454.070 6
     -2414.652 6     -1877.778 6        38.250          38.500
  25242846.858 6 134937492.13506 104951499.53105                  25242853.087 5
       854.690 6       665.004 5        37.000          32.750
 19  3 19 19 46 16.0000000  0 13G26G30G07G08R19R08G27G16R10R18R09R16
                                R01
  26139993.313 6 137366588.98906 107038909.57812  26139995.295 2  26139992.979 5
     -2560.742 6     -1995.377 2        40.500          16.750
  25257808.196 6 132730679.13406 103426518.93103  25257810.155 3  25257811.125 5
      3745.955 6      2918.936 3        40.250          19.000
  22928716.303 8 120491218.61208  93889251.84805  22928714.807 5  22928716.462 6
      2434.416 8      1896.949 5        49.750          32.750
  22098157.968 8 116126602.59808  90488250.80906  22098158.849 6  22098161.490 7
      1365.790 8      1064.252 6        49.500          36.500
  21180143.521 7 113299486.62807  88121839.16106                  21180147.162 6
      1071.325 7       833.247 6        42.750          40.000
  24985142.573 6 133794311.59406 104062268.39705                  24985148.572 5
     -1718.065 6     -1336.083 5        36.750          33.000
  22282177.710 8 117093632.94008  91241806.50506  22282178.748 6  22282180.604 7
      -954.181 8      -743.518 6        51.750          38.750
  23833037.878 7 125243459.85107  97592297.22704  23833034.711 4
     -2077.465 7     -1618.800 4        46.500          26.500
  23499485.986 7 125265493.68507  97428740.18005                  23499493.404 5
      3781.410 7      2941.108 5        43.250          35.500
  23218291.427 7 123940816.32407  96398441.61307                  23218299.126 7
     -2820.017 7     -2193.290 7        47.250          44.250
  21116235.532 7 112759516.94707  87701864.59108                  21116239.211 8
      1314.079 7      1022.007 8        47.000          49.500
  23289901.727 6 124410475.72206  96763724.90006                  23289906.163 6
     -2415.293 6     -1878.595 6        38.500          39.250
  25242687.082 6 134936638.25006 104950835.43905                  25242693.959 5
       853.916 6       664.183 5        37.000          33.500
 19  3 19 19 46 17.0000000  0 13G26G30G07G08R19R08G27G16R10R18R09R16
                                R01
  26140480.832 6 137369150.38006 107040905.45902  26140482.693 2  26140480.730 5
     -2562.152 6     -1996.483 2        40.500          16.250
  25257095.577 6 132726933.90206 103423600.56703  25257097.379 3  25257098.265 5
      3744.639 6      2917.898 3        40.500          18.750
  22928253.264 8 120488785.04708  93887355.56305  22928251.731 5  22928253.424 6
      2432.687 8      1895.592 5        49.750          32.750
  22097898.236 8 116125237.70808  90487187.25806  22097899.195 6  22097901.764 7
      1363.883 8      1062.764 6        49.250          36.500
  21179943.398 7 113298416.44807  88121006.78706                  21179946.915 6
      1068.974 7       831.511 6        42.500          39.500
  24985463.641 6                                                  24985469.373 5
     -1720.127 6     -1337.956 5        37.000          32.750
  22282359.507 8 117094588.04408  91242550.74206  22282360.470 6  22282362.367 7
      -956.081 8      -745.000 6        51.500          38.750
  23833433.345 7 125245538.06607  97593916.61704  23833430.186 4
     -2078.916 7     -1619.944 4        46.500          26.250
  23498776.847 7 125261713.01407  97425799.66305                  23498784.902 5
      3780.077 7      2940.245 5        43.500          35.500
  23218819.919 7 123943637.15107  96400635.58507                  23218826.724 7
     -2821.664 7     -2194.570 7        47.250          43.500
  21115989.618 7 112758203.88107  87700843.31208                  21115993.382 8
      1312.219 7      1020.576 8        47.000          49.250
  23290353.838 6 124412891.86406  96765604.12506                  23290358.656 6
     -2416.753 6     -1879.887 6        38.500          38.750
  25242526.972 6 134935785.36106 104950172.12005                  25242535.158 5
       851.888 6       662.403 5        36.250          33.000
 19  3 19 19 46 18.0000000  0 13G26G30G07G08R19R08G27G16R10R18R09R16
                                R01
  26140968.303 6 137371712.19406 107042901.68102  26140969.992 2  26140968.249 5
     -2561.655 6     -1996.056 2        41.000          16.250
  25256383.014 6 132723189.25606 103420682.66303  25256384.794 3  25256385.582 5
      3744.979 6      2918.178 3        40.250          18.500
  22927790.361 8 120486352.29008  93885459.90805  22927788.806 5  22927790.647 6
      2432.850 8      1895.730 5        49.500          32.750
  22097638.676 8 116123873.75208  90486124.43506  22097639.712 6  22097642.322 7
      1363.875 8      1062.760 6        49.250          36.500
  21179743.555 7 113297347.53807  88120175.41606                  21179747.291 6
      1068.634 7       831.255 6        42.750          40.250
  24985785.198 6                                                  24985790.386 5
     -1719.928 6     -1337.564 5        37.000          33.500
  22282541.451 8 117095544.06708  91243295.69306  22282542.372 6  22282544.235 7
      -956.176 8      -745.073 6        51.500          38.750
  23833828.986 7 125247616.84107  97595536.44404  23833825.804 4
     -2078.641 7     -1619.716 4        46.500          26.250
  23498067.441 7 125257932.86107  97422859.58106                  23498075.986 6
      3780.526 7      2940.132 6        43.500          36.250
  23219348.638 7 123946458.91407  96402830.29807                  23219354.707 7
     -2821.740 7     -2194.756 7        47.500          44.250
  21115744.035 7 112756891.67007  87699822.70408                  21115747.661 8
      1312.292 7      1020.653 8        47.000          50.000
  23290806.347 6 124415308.71906  96767483.90306                  23290811.294 6
     -2416.853 6     -1879.970 6        38.500          39.500
  25242367.723 6 134934933.66806 104949509.68205                  25242376.040 5
       851.797 6       662.691 5        36.250          33.750
 19  3 19 19 46 19.0000000  0 13G26G30G07G08R19R08G27G16R10R18R09R16
                                R01
  26141455.989 6 137374274.29806 107044898.11902  26141457.525 2  26141455.869 5
     -2562.113 6     -1996.445 2        41.500          17.000
  25255670.681 6 132719445.01206 103417765.07103  25255672.223 3  25255673.623 5
      3744.190 6      2917.526 3        40.500          18.500
  22927327.562 8 120483920.20408  93883564.77605  22927325.993 5  22927327.905 6
      2431.897 8      1894.984 5        49.500          32.750
  22097379.267 8 116122510.60408  90485062.24006  22097380.389 6  22097382.884 7
      1362.824 8      1061.943 6        49.250          36.500
  21179544.221 7 113296279.76207  88119344.92506                  21179547.320 6
      1067.284 7       830.257 6        42.500          40.250
  24986106.715 6 133799471.62106 104066281.76405                  24986111.532 5
     -1721.268 6     -1338.745 5        37.000          33.500
  22282723.556 8 117096500.84308  91244041.23306  22282724.393 6  22282726.116 7
      -957.065 8      -745.764 6        51.250          38.750
  23834224.677 7 125249696.02307  97597156.58104  23834221.466 4
     -2079.309 7     -1620.238 4        46.500          26.250
  23497358.376 7 125254153.08007  97419919.72206                  23497367.001 6
      3779.699 7      2939.685 6        43.750          36.750
  23219877.629 7 123949281.44007  96405025.60307                  23219883.167 7
     -2822.761 7     -2195.439 7        47.500          44.500
  21115498.475 7 112755580.19807  87698802.67408                  21115501.910 8
      1311.097 7      1019.746 8        47.000          50.250
  23291258.844 6 124417726.17306  96769364.14106                  23291264.021 6
     -2417.536 6     -1880.302 6        38.250          39.500
  25242208.597 6 134934083.06206 104948848.10005                  25242216.547 5
       850.182 6       660.825 5        36.250          34.000
 19  3 19 19 46 20.0000000  0 13G26G30G07G08R19R08G27G16R10R18R09R16
                                R01
  26141943.791 6 137376837.09906 107046895.09802  26141945.119 2  26141943.472 5
     -2562.655 6     -1996.902 2        41.500          17.250
  25254958.431 6 132715701.59106 103414848.12503  25254959.862 3  25254961.004 5
      3743.643 6      2917.125 3        40.250          18.500
  22926864.986 8 120481489.20408  93881670.49105  22926863.381 5  22926864.930 6
      2430.965 8      1894.260 5        49.500          33.000
  22097120.048 8 116121148.67608  90484000.99806  22097121.290 6  22097123.645 7
      1361.882 8      1061.209 6        49.250          36.750
  21179344.861 7 113295213.48107  88118515.60706                  21179348.068 6
      1066.176 7       829.120 6        42.500          40.250
  24986428.979 6 133801193.77706 104067621.24205                  24986433.144 5
     -1722.148 6     -1339.880 5        37.250          33.250
  22282905.918 8 117097458.80108  91244787.69406  22282906.657 6  22282908.483 7
      -958.037 8      -746.522 6        51.250          39.000
  23834620.609 7 125251776.02207  97598777.35904  23834617.268 4
     -2079.913 7     -1620.709 4        46.750          26.500
  23496649.651 7 125250374.07907  97416980.50506                  23496657.869 6
      3779.212 7      2939.428 6        43.500          36.000
  23220406.716 7 123952105.16907  96407221.81607                  23220412.086 7
     -2823.802 7     -2196.297 7        47.500          44.500
  21115253.130 7 112754269.90207  87697783.55008                  21115256.585 8
      1310.302 7      1019.111 8        46.750          50.250
  23291711.614 6 124420144.58606  96771245.14806                  23291716.213 6
     -2418.316 6     -1881.026 6        38.000          39.750
  25242050.093 6 134933233.94906 104948187.62905                  25242056.690 5
       848.954 6       660.512 5        36.750          34.000
 19  3 19 19 46 21.0000000  0 13G26G30G07G08R19R08G27G16R10R18R09R16
                                R01
  26142431.685 6 137379399.97706 107048892.15702  26142432.607 2  26142431.581 5
     -2562.695 6     -1996.898 2        41.500          17.500
  25254246.297 6 132711958.38106 103411931.33903  25254247.542 3  25254248.481 5
      3743.345 6      2916.889 3        40.250          18.500
  22926402.474 8 120479058.65908  93879776.55805  22926400.890 5  22926402.428 6
      2430.542 8      1893.936 5        49.500          33.000
  22096860.949 8 116119787.34308  90482940.21906  22096862.293 6  22096864.551 7
      1361.216 8      1060.688 6        49.250          37.000
  21179145.792 7 113294148.06307  88117686.94806                  21179149.087 6
      1065.228 7       828.481 6        42.750          40.000
  24986750.987 6 133802916.58406 104068961.18205                  24986755.143 5
     -1722.865 6     -1339.978 5        37.500          33.250
  22283088.338 8 117098417.32208  91245534.59306  22283089.027 6  22283090.932 7
      -958.653 8      -747.004 6        51.000          39.000
  23835016.500 7 125253856.22007  97600398.28904  23835013.114 4
     -2080.121 7     -1620.867 4        46.500          26.750
  23495940.893 7 125246595.24607  97414041.41906                  23495948.838 6
      3778.917 7      2938.962 6        43.500          36.500
  23220935.898 7 123954929.43507  96409418.47007                  23220941.107 7
     -2824.382 7     -2196.717 7        47.750          44.250
  21115007.708 7 112752960.10007  87696764.81908                  21115011.271 8
      1309.668 7      1018.682 8        47.000          50.250
  23292164.485 6 124422563.40806  96773126.42706                  23292168.645 6
     -2418.654 6     -1881.194 6        38.000          39.500
  25241891.325 6 134932385.65006 104947527.89005                  25241898.165 5
       848.003 6       659.319 5        36.750          34.250
 19  3 19 19 46 22.0000000  0 13G26G30G07G08R19R08G27G16R10R18R09R16
                                R01
  26142919.655 6 137381962.75006 107050889.11602  26142920.179 2  26142919.441 5
     -2562.419 6     -1996.696 2        41.750          17.500
  25253534.065 6 132708215.17606 103409014.55103  25253535.181 3  25253536.568 5
      3743.390 6      2916.946 3        40.250          18.500
  22925940.025 8 120476628.41408  93877882.86205  22925938.440 5  22925940.172 6
      2430.360 8      1893.787 5        49.500          33.000
  22096601.910 8 116118426.43408  90481879.77306  22096603.386 6  22096605.614 7
      1360.950 8      1060.485 6        49.500          36.750
  21178946.776 7 113293083.40607  88116858.86906                  21178949.999 6
      1064.376 7       827.983 6        42.500          39.750
  24987072.937 6 133804639.90706 104070301.54805                  24987076.886 5
     -1723.372 6     -1340.468 5        37.500          33.250
  22283270.820 8 117099376.23308  91246281.79606  22283271.479 6  22283273.329 7
      -958.887 8      -747.187 6        51.000          39.000
  23835412.500 7 125255936.44607  97602019.24704  23835408.946 4
     -2080.024 7     -1620.799 4        46.500          26.500
  23495231.982 7 125242816.38507  97411102.28606                  23495239.349 6
      3779.162 7      2939.210 6        43.500          36.000
  23221465.225 7 123957754.08707  96411615.41407                  23221470.289 7
     -2824.634 7     -2196.927 7        47.750          43.500
  21114762.273 7 112751650.69907  87695746.40408                  21114766.061 8
      1309.460 7      1018.398 8        47.000          50.000
  23292617.301 6 124424982.44406  96775007.89406                  23292621.255 6
     -2418.941 6     -1881.370 6        37.750          39.000
  25241733.312 6 134931538.04906 104946868.64205                  25241738.335 5
       847.653 6       659.080 5        36.750          33.750
 19  3 19 19 46 23.0000000  0 13G26G30G07G08R19R08G27G16R10R18R09R16
                                R01
  26143407.662 6 137384526.16806 107052886.58502  26143407.912 2  26143407.103 5
     -2563.330 6     -1997.400 2        41.500          17.500
  25252822.015 6 132704472.76806 103406098.38103  25252822.910 3  25252824.867 5
      3742.211 6      2916.015 3        40.500          19.000
  22925477.728 8 120474199.18908  93875989.95805  22925476.172 5  22925477.967 6
      2428.983 8      1892.712 5        49.500          33.250
  22096343.185 8 116117066.67308  90480820.21806  22096344.698 6  22096346.861 7
      1359.411 8      1059.285 6        49.500          37.000
  21178747.971 7 113292020.21407  88116031.95006                  21178751.250 6
      1062.683 7       826.423 6        42.250          40.000
  24987395.337 6 133806364.42406 104071642.84805                  24987398.991 5
     -1724.904 6     -1341.822 5        37.250          33.750
  22283453.468 8 117100336.25708  91247029.86706  22283454.135 6  22283455.762 7
      -960.351 8      -748.322 6        51.000          39.000
  23835808.492 7 125258017.43107  97603640.79304  23835804.922 4
     -2081.176 7     -1621.697 4        46.500          26.750
  23494523.071 7 125239038.25607  97408163.74906                  23494530.034 6
      3777.993 7      2938.560 6        43.250          36.000
  23221994.723 7 123960579.86007  96413813.24507                  23221999.670 7
     -2826.125 7     -2198.105 7        47.500          43.500
  21114517.189 7 112750342.35507  87694728.79308                  21114521.248 8
      1308.048 7      1017.452 8        47.000          50.250
  23293069.763 6 124427402.36006  96776890.06706                  23293074.379 6
     -2419.957 6     -1882.337 6        37.250          38.750
  25241574.735 6 134930691.87606 104946210.48105                  25241580.757 5
       845.732 6       658.125 5        36.750          34.000
 19  3 19 19 46 24.0000000  0 13G26G30G07G08R19R08G27G16R10R18R09R16
                                R01
  26143895.344 6 137387089.63006 107054884.08302  26143895.592 2  26143894.707 5
     -2562.596 6     -1996.807 2        41.500          17.500
  25252109.702 6 132700730.52206 103403182.35103  25252110.808 3  25252112.984 5
      3742.869 6      2916.518 3        40.500          19.000
  22925015.578 8 120471770.39608  93874097.39505  22925014.008 5  22925015.810 6
      2429.404 8      1893.041 5        49.500          33.250
  22096084.575 8 116115707.49608  90479761.11706  22096086.100 6  22096088.123 7
      1359.714 8      1059.518 6        49.500          37.250
  21178549.407 7 113290957.95007  88115205.73506                  21178552.416 6
      1062.531 7       826.599 6        42.250          40.000
  24987717.250 6 133808089.60006 104072984.61805                  24987721.307 5
     -1724.579 6     -1341.300 5        37.750          33.750
  22283636.254 8 117101296.82008  91247778.36006  22283636.908 6  22283638.368 7
      -960.067 8      -748.105 6        51.000          39.000
  23836204.646 7 125260098.59207  97605262.47404  23836200.946 4
     -2080.399 7     -1621.080 4        46.500          26.750
  23493814.206 7 125235260.23907  97405225.29006                  23493821.578 6
      3778.772 7      2939.173 6        43.500          36.000
  23222524.457 7 123963406.17907  96416011.47707                  23222529.163 7
     -2825.746 7     -2197.719 7        47.750          43.250
  21114272.258 7 112749034.53107  87693711.59508                  21114276.313 8
      1308.347 7      1017.705 8        47.000          50.000
  23293522.931 6 124429822.63206  96778772.51306                  23293527.403 6
     -2419.506 6     -1881.760 6        37.250          38.750
  25241416.918 6 134929846.52206 104945552.98305                  25241421.889 5
       845.782 6       657.660 5        37.000          34.000
 19  3 19 19 46 25.0000000  0 13G26G30G07G08R19R08G27G16R10R18R09R16
                                R01
  26144383.234 6 137389653.16706 107056881.64002  26144383.419 2  26144382.350 5
     -2562.966 6     -1997.112 2        41.750          17.250
  25251397.598 6 132696988.47706 103400266.46803  25251398.702 3  25251400.886 5
      3742.456 6      2916.213 3        40.250          19.000
  22924553.499 8 120469342.06608  93872205.19005  22924551.946 5  22924553.413 6
      2428.642 8      1892.451 5        49.500          33.000
  22095826.182 8 116114348.89508  90478702.46806  22095827.613 6  22095829.348 7
      1358.854 8      1058.849 6        49.750          37.000
  21178350.753 7 113289896.63007  88114380.26106                  21178354.259 6
      1061.483 7       825.586 6        42.500          39.750
  24988039.344 6 133809815.37006 104074326.87905                  24988043.467 5
     -1725.501 6     -1342.104 5        37.750          35.000
  22283819.032 8 117102257.93508  91248527.27906  22283819.775 6  22283821.290 7
      -960.833 8      -748.700 6        51.000          39.000
  23836600.753 7 125262179.95107  97606884.31204  23836597.007 4
     -2080.895 7     -1621.468 4        46.500          26.500
  23493105.447 7 125231482.37007  97402286.97706                  23493113.022 6
      3778.222 7      2938.443 6        43.250          36.250
  23223054.125 8 123966233.06208  96418210.16507                  23223058.637 7
     -2826.560 8     -2198.488 7        48.000          43.250
  21114027.419 7 112747727.21107  87692694.80008                  21114031.510 8
      1307.647 7      1017.000 8        46.750          50.500
  23293976.331 6 124432243.27606  96780655.23106                  23293980.397 6
     -2420.115 6     -1882.411 6        37.000          38.000
  25241258.952 6 134929001.99006 104944896.12305                  25241264.828 5
       844.596 6       656.814 5        37.500          33.750
 19  3 19 19 46 26.0000000  0 13G26G30G07G08R19R08G27G16R10R18R09R16
                                R01
  26144870.986 6 137392216.41906 107058878.98202  26144871.157 2  26144869.911 5
     -2562.390 6     -1996.688 2        41.500          17.500
  25250685.299 6 132693246.24406 103397350.43903  25250686.453 3  25250688.750 5
      3743.144 6      2916.746 3        40.250          19.250
  22924091.443 8 120466913.81908  93870313.04905  22924089.866 5  22924091.301 6
      2428.993 8      1892.721 5        49.500          33.250
  22095567.690 8 116112990.52008  90477643.99206  22095569.158 6  22095570.792 7
      1359.000 8      1058.961 6        49.750          37.250
  21178152.374 7 113288835.92007  88113555.26006                  21178155.871 6
      1061.121 7       825.279 6        42.500          39.500
  24988361.370 6 133811541.42106 104075669.38505                  24988365.523 5
     -1725.372 6     -1342.071 5        38.000          35.000
  22284001.863 8 117103219.23908  91249276.34506  22284002.683 6  22284004.283 7
      -960.588 8      -748.507 6        51.000          39.000
  23836996.849 7 125264261.14207  97608506.01804  23836992.996 4
     -2080.404 7     -1621.093 4        46.500          26.750
  23492396.631 7 125227704.27007  97399348.41406                  23492403.169 6
      3779.017 7      2939.330 6        43.250          36.250
  23223583.887 8 123969060.11608  96420408.96907                  23223588.198 7
     -2826.278 8     -2198.093 7        48.250          43.500
  21113782.662 7 112746420.05407  87691678.11208                  21113786.698 8
      1307.941 7      1017.294 8        47.000          50.500
  23294429.518 6 124434663.94906  96782537.94506                  23294433.381 6
     -2420.029 6     -1882.189 6        36.750          38.250
  25241101.217 6 134928157.92006 104944239.62605                  25241107.751 5
       844.803 6       656.767 5        37.750          34.000
 19  3 19 19 46 27.0000000  0 13G26G30G07G08R19R08G27G16R10R18R09R16
                                R01
  24346606.872 6 127942275.46306  99695288.63902  24346606.973 2  24346606.191 5
     -2564.260 6     -1998.124 2        41.500          17.750
  23451214.029 6 123236962.11606  96028817.34903  23451215.284 3  23451217.208 5
      3741.178 6      2915.199 3        40.250          19.000
  21124872.015 8 111011951.80408  86502810.18305  21124870.423 5  21124871.858 6
      2426.777 8      1891.002 5        49.500          33.000
  20296553.096 8 106659104.92308  83110979.89506  20296554.587 6  20296556.190 7
      1356.753 8      1057.212 6        49.750          37.000
  19379198.507 7 103665645.16907  80628851.31606                  19379201.891 6
      1058.408 7       823.137 6        42.500          39.000
  23189930.597 6 124181028.81706  96585270.67805                  23189935.320 5
     -1727.935 6     -1344.099 5        38.000          34.250
  20485431.272 8 107651667.21308  83884430.61206  20485432.099 6  20485433.571 7
      -962.959 8      -750.353 6        51.000          38.750
  22038640.516 7 115813835.34707  90244537.86304  22038636.719 4
     -2082.238 7     -1622.507 4        46.250          26.500
  21692928.805 7 115635529.00107  89938767.64706                  21692935.547 6
      3777.115 7      2937.750 6        43.250          36.000
  21425362.308 8 114370030.00808  88954496.68007                  21425366.256 7
     -2828.655 8     -2200.046 7        48.500          43.000
  19314781.808 7 103139855.92907  80219906.01708                  19314786.014 8
      1305.588 7      1015.375 8        47.250          50.000
  21496130.819 6 114828474.87906  89311057.58206                  21496134.864 6
     -2422.080 6     -1883.873 6        36.750          37.500
  23442188.362 6                                                  23442194.484 5
       842.198 6       655.104 5        37.500          33.000
 19  3 19 19 46 28.0000000  0 13G26G30G07G08R19R08G27G16R10R18R09R16
                                R01
  24347094.902 6 127944839.71206  99697286.74602  24347094.970 2  24347094.421 5
     -2564.297 6     -1998.134 2        41.500          17.500
  23450502.081 6 123233221.14806  96025902.31903  23450503.393 3  23450505.035 6
      3741.036 6      2915.091 3        40.500          18.750
  21124410.325 8 111009525.34008  86500919.42905  21124408.692 5  21124410.164 6
      2426.282 8      1890.609 5        49.500          33.000
  20296294.985 8 106657748.59808  83109923.01606  20296296.525 6  20296298.222 7
      1356.108 8      1056.707 6        49.750          37.000
  19379000.939 7 103664587.25807  80628028.50306                  19379004.465 6
      1057.568 7       822.617 6        42.750          39.750
  23190253.823 6 124182757.00006  96586614.82105                  23190257.823 5
     -1728.433 6     -1344.247 5        38.500          35.000
  20485614.575 8 107652630.49508  83885181.22006  20485615.381 6  20485616.738 7
      -963.487 8      -750.767 6        51.000          38.750
  22039036.676 7 115815917.78807  90246160.53604  22039032.958 4
     -2082.469 7     -1622.702 4        46.250          26.500
  21692220.026 7 115631752.08807  89935830.03806                  21692227.360 6
      3776.870 7      2937.456 6        43.000          36.500
  21425892.339 8 114372859.04708  88956697.03807                  21425896.071 7
     -2829.277 8     -2200.514 7        48.250          43.250
  19314537.376 7 103138550.70607  80218890.82908                  19314541.471 8
      1305.045 7      1015.083 8        47.250          50.250
  21496584.160 6 114830897.17406  89312941.59806                  21496588.380 6
     -2422.248 6     -1884.082 6        36.750          38.000
  23442031.333 6                                                  23442036.965 5
       841.271 6       654.205 5        38.250          33.000
 19  3 19 19 46 29.0000000  0 13G26G30G07G08R19R08G27G16R10R18R09R16
                                R01
  24347582.882 6 127947403.85106  99699284.77302  24347582.846 2  24347581.639 5
     -2564.004 6     -1997.923 2        41.250          17.750
  23449790.390 6 123229480.22106  96022987.30803  23449791.444 3  23449792.615 6
      3741.152 6      2915.175 3        40.500          19.000
  21123948.571 8 111007099.16608  86499028.90405  21123946.997 5  21123948.367 6
      2426.281 8      1890.613 5        49.500          33.000
  20296037.006 8 106656392.69008  83108866.46306  20296038.548 6  20296040.096 7
      1355.906 8      1056.555 6        49.750          37.000
  19378803.486 7 103663530.13507  80627206.30206                  19378806.988 6
      1056.977 7       822.116 6        42.750          39.750
  23190576.848 6 124184485.70706  96587959.36905                  23190580.166 5
     -1728.718 6     -1344.555 5        38.250          35.750
  20485797.968 8 107653594.15608  83885932.12506  20485798.731 6  20485800.124 7
      -963.661 8      -750.900 6        51.000          38.750
  22039432.957 7 115818000.25107  90247783.23504  22039429.215 4
     -2082.310 7     -1622.574 4        46.000          26.250
  21691511.433 7 115627975.13507  89932892.43606                  21691518.988 6
      3777.161 7      2937.844 6        43.000          36.000
  21426422.451 8 114375688.47408  88958897.69007                  21426426.278 7
     -2829.357 8     -2200.457 7        48.500          42.750
  19314293.106 7 103137245.80207  80217875.90008                  19314297.045 8
      1304.921 7      1015.036 8        47.500          50.000
  21497038.000 6 114833319.65806  89314825.72406                  21497041.674 6
     -2422.394 6     -1884.075 6        36.750          38.250
  23441874.162 6 125310252.53206  97463646.54005                  23441878.778 5
       840.704 6       654.089 5        39.000          33.750
 19  3 19 19 46 30.0000000  0 13G26G30G07G08R19R08G27G16R10R18R09R16
                                R01
  24348070.713 6 127949968.19606  99701282.97903  24348070.763 3  24348069.031 6
     -2564.423 6     -1998.271 3        41.250          18.000
  23449078.683 6 123225739.59906  96020072.53703  23449079.624 3  23449080.290 6
      3740.393 6      2914.591 3        40.250          19.250
  21123487.014 8 111004673.57508  86497138.83705  21123485.423 5  21123486.161 7
      2425.152 8      1889.728 5        49.250          33.250
  20295779.141 8 106655037.48708  83107810.46406  20295780.701 6  20295781.654 8
      1354.774 8      1055.665 6        49.500          37.500
  19378605.962 7 103662474.02707  80626384.88106                  19378609.418 6
      1055.490 7       820.980 6        42.750          40.000
  23190900.394 6 124186215.15606  96589304.50405                  23190903.454 5
     -1729.800 6     -1345.670 5        37.750          35.750
  20485981.433 8 107654558.48308  83886683.55106  20485982.229 6  20485983.206 8
      -964.760 8      -751.766 6        50.750          39.000
  22039829.081 7 115820083.02907  90249406.18404  22039825.535 4
     -2083.101 7     -1623.193 4        46.000          26.750
  21690802.697 7 115624198.46107  89929955.00906                  21690810.675 6
      3776.371 7      2937.226 6        43.250          36.000
  21426952.753 8 114378518.54208  88961098.84607                  21426956.138 7
     -2830.490 8     -2201.439 7        48.500          42.250
  19314049.053 7 103135941.55807  80216861.48508                  19314052.804 8
      1303.848 7      1014.043 8        47.500          49.750
  21497491.648 6 114835742.62006  89316710.25006                  21497495.456 6
     -2423.220 6     -1884.875 6        36.750          38.000
  23441717.420 6 125309412.59106  97462993.24305                  23441721.722 5
       839.440 6       652.886 5        39.000          33.500
 19  3 19 19 46 31.0000000  0 13G26G30G07G08R19R08G27G16R10R18R09R16
                                R01
  24348558.564 6 127952532.69206  99703281.30003  24348558.787 3  24348556.369 6
     -2565.102 6     -1998.787 3        41.000          18.500
  23448366.943 6 123221999.28206  96017158.00403  23448367.791 3  23448368.317 6
      3739.518 6      2913.905 3        40.000          19.500
  21123025.507 8 111002248.53008  86495249.19305  21123023.956 5  21123024.241 7
      2424.212 8      1888.989 5        49.500          33.500
  20295521.404 8 106653682.96308  83106754.99106  20295522.979 6  20295523.372 8
      1353.592 8      1054.749 6        49.750          37.750
  19378408.567 7 103661418.89207  80625564.22106                  19378412.637 6
      1053.985 7       819.752 6        42.500          40.000
  23191223.237 6 124187945.31606  96590650.18705                  23191226.549 5
     -1731.101 6     -1346.374 5        38.250          35.750
  20486165.056 8 107655523.46108  83887435.48406  20486165.843 6  20486166.392 8
      -965.966 8      -752.703 6        51.000          39.250
  22040225.422 7 115822166.08607  90251029.34104  22040221.891 4
     -2083.806 7     -1623.739 4        45.750          26.750
  21690094.222 7 115620422.03907  89927017.82206                  21690102.491 6
      3775.639 7      2936.703 6        43.000          36.000
  21427483.198 8 114381349.25808  88963300.51307                  21427486.539 7
     -2831.685 8     -2202.511 7        48.250          42.500
  19313805.067 7 103134637.92607  80215847.55208                  19313808.656 8
      1302.685 7      1013.173 8        47.500          49.750
  21497945.518 6 114838166.02306  89318595.10206                  21497949.831 6
     -2424.271 6     -1885.343 6        37.000          37.750
  23441561.026 6 125308573.59006  97462340.72205                  23441564.589 5
       837.857 6       651.473 5        38.750          33.750
 19  3 19 19 46 32.0000000  0 13G26G30G07G08R19R08G27G16R10R18R09R16
                                R01
  24349046.518 6 127955097.54306  99705279.88803  24349046.828 3  24349043.588 4
     -2564.406 6     -1998.232 3        40.750          18.250
  23447655.240 6 123218259.39106  96014243.82703  23447656.101 3  23447656.785 5
      3740.406 6      2914.528 3        39.750          19.250
  21122564.144 8 110999824.19908  86493360.10605  21122562.610 5  21122562.125 6
      2424.613 8      1889.311 5        49.000          33.250
  20295263.815 8 106652329.29908  83105700.18706  20295265.413 6  20295265.250 6
      1353.831 8      1054.935 6        49.000          37.500
  19378211.195 7 103660364.94107  80624744.50005                  19378215.746 5
      1054.002 7       819.437 5        42.250          31.750
  23191546.195 6 124189676.37606  96591998.13504                  23191551.681 4
     -1730.857 6     -1354.155 4        37.000          27.000
  20486348.849 8 107656489.25408  83888188.05006  20486349.604 6  20486350.137 6
      -965.568 8      -752.392 6        50.500          38.500
  22040621.847 7 115824249.61007  90252652.86304  22040618.336 4
     -2083.134 7     -1623.212 4        45.250          26.500
  21689385.955 7 115616646.02507
      3776.468 7                        43.000
  21428013.759 8 114384180.81508  88965502.80505                  21428017.228 5
     -2831.310 8     -2201.675 5        48.000          34.000
  19313561.080 7 103133335.07607  80214834.21606                  19313564.594 6
      1303.143 7      1013.757 6        47.250          40.750
  21498399.714 6 114840590.09706  89320480.53304                  21498404.937 4
     -2423.900 6     -1885.585 4        37.000          29.000
  23441404.398 6 125307735.68706                                  23441406.243 3
       838.111 6       650.605 3        38.500          18.750
 19  3 19 19 46 33.0000000  0 13G26G30G07G08R19R08G27G16R10R18R09R16
                                R01
  24349534.701 6 127957663.11006  99707279.02303  24349534.991 3  24349532.558 5
     -2565.477 6     -1999.070 3        41.000          18.000
  23446943.705 6 123214520.38006  96011330.31303  23446944.554 3  23446945.812 5
      3739.211 6      2913.693 3        40.000          19.250
  21122103.091 8 110997400.98608  86491471.88705  21122101.482 5  21122101.439 6
      2423.254 8      1888.251 5        49.250          32.750
  20295006.496 8 106650976.88808  83104646.36106  20295008.085 6  20295008.135 7
      1352.388 8      1053.806 6        49.500          37.000
  19378014.699 7 103659312.59607  80623925.99906                  19378018.858 6
      1052.206 7       818.397 6        42.500          39.750
  23191870.110 6 124191408.71206                                  23191874.091 5
     -1732.392 6     -1347.725 5        38.000          35.750
  20486532.909 8 107657456.25608  83888941.55606  20486533.602 6  20486534.350 7
      -967.006 8      -753.513 6        50.750          38.500
  22041018.501 7 115826333.98407  90254277.05004  22041014.991 4
     -2084.180 7     -1624.042 4        45.500          26.000
  21688677.633 7 115612870.83307  89921144.69205                  21688684.290 5
      3775.333 7      2936.013 5        43.250          35.500
  21428544.430 8 114387013.57208  88967706.09607                  21428548.005 7
     -2832.697 8     -2203.254 7        48.250          42.750
  19313317.377 7 103132033.45407  80213821.86508                  19313320.696 8
      1301.646 7      1012.345 8        47.500          49.500
  21498853.847 6 114843015.17206  89322366.73006                  21498859.401 6
     -2425.024 6     -1885.985 6        37.500          37.750
  23441247.749 6 125306899.30706                                  23441250.573 5
       836.185 6       650.055 5        38.750          34.000
 19  3 19 19 46 34.0000000  0 13G26G30G07G08R19R08G27G16R10R18R09R16
                                R01
  24350022.760 6 127960228.96806  99709278.38602  24350023.118 2  24350021.149 6
     -2566.417 6     -1999.785 2        41.000          17.750
  23446232.187 6 123210781.78906  96008417.11703  23446233.097 3  23446234.083 6
      3737.936 6      2912.688 3        40.250          19.250
  21121642.075 8 110994978.46808  86489584.21105  21121640.481 5  21121640.454 7
      2421.851 8      1887.154 5        49.250          33.000
  20294749.245 8 106649625.31108  83103593.18406  20294750.904 6  20294750.913 8
      1350.786 8      1052.558 6        49.500          37.250
  19377818.197 7 103658261.43807  80623108.42906                  19377822.475 6
      1050.101 7       816.993 6        42.500          40.000
  23192193.979 6 124193141.93606                                  23192198.324 6
     -1734.041 6     -1348.584 6        37.250          36.250
  20486717.045 8 107658424.05208  83889695.68306  20486717.757 6  20486718.451 8
      -968.546 8      -754.713 6        50.750          38.750
  22041415.266 7 115828418.79107  90255901.58004  22041411.736 4
     -2085.372 7     -1624.965 4        45.500          26.500
  21687969.539 7 115609096.02907  89918208.71206                  21687977.025 6
      3774.231 7      2935.302 6        43.000          36.000
  21429075.027 8 114389847.11908  88969909.95307                  21429078.655 7
     -2834.263 8     -2204.363 7        48.000          42.500
  19313073.870 7 103130732.57407  80212810.06008                  19313077.018 8
      1300.184 7      1011.181 8        47.250          49.750
  21499307.895 6 114845440.86206  89324253.35906                  21499312.874 6
     -2426.320 6     -1887.350 6        37.250          37.250
  23441090.983 6 125306063.99606                                  23441095.112 5
       834.432 6       649.112 5        38.750          34.250
 19  3 19 19 46 35.0000000  0 13G26G30G07G08R19R08G27G16R10R18R09R16
                                R01
  24350511.027 6 127962794.71606  99711277.66903  24350511.307 3  24350508.845 6
     -2565.781 6     -1999.310 3        40.500          18.250
  23445520.740 6 123207043.21206  96005503.93503  23445521.585 3  23445522.650 6
      3738.559 6      2913.163 3        40.250          19.750
  21121181.086 8 110992556.20908  86487696.73805  21121179.532 5  21121179.395 7
      2422.016 8      1887.285 5        49.250          33.500
  20294492.094 8 106648274.14308  83102540.32706  20294493.799 6  20294493.503 8
      1350.817 8      1052.582 6        49.750          37.750
  19377621.724 7 103657211.00407  80622291.43806                  19377625.707 6
      1050.027 7       816.575 6        42.500          41.750
  23192517.355 6 124194875.61406  96596031.40715                  23192522.222 5
     -1733.983 6     -1348.620 5        37.000          32.750
  20486901.218 8 107659392.19908  83890450.08506  20486901.966 6  20486902.382 8
      -968.500 8      -754.679 6        50.750          39.000
  22041812.101 7 115830503.60307  90257526.10504  22041808.476 4
     -2084.938 7     -1624.626 4        45.500          26.750
  21687261.380 7 115605321.17807  89915272.68506                  21687268.827 6
      3774.710 7      2936.033 6        43.000          36.000
  21429605.815 8 114392681.01408  88972114.08807                  21429609.489 7
     -2834.213 8     -2204.524 7        48.000          42.000
  19312830.147 7 103129432.00407  80211798.49108                  19312833.444 8
      1300.238 7      1011.280 8        47.500          48.750
  21499762.165 6 114847866.72606  89326140.11006                  21499766.439 6
     -2426.068 6     -1886.658 6        37.500          37.000
  23440934.525 6 125305229.33606  97459636.59115                  23440939.115 5
       834.226 6       648.753 5        39.250          34.750
 19  3 19 19 46 36.0000000  0 13G26G30G07G08R19R08G27G16R10R18R09R16
                                R01
  24350999.326 6 127965360.37106  99713276.88003  24350999.506 3  24350996.978 6
     -2565.763 6     -1999.312 3        40.500          18.500
  23444809.347 6 123203304.69706  96002590.81103  23444810.195 3  23444810.824 6
      3738.207 6      2912.884 3        40.500          20.000
  21120720.258 8 110990134.27208  86485809.51405  21120718.651 5  21120718.446 7
      2421.492 8      1886.878 5        49.250          33.750
  20294235.065 8 106646923.42408  83101487.82106  20294236.788 6  20294236.285 8
      1350.260 8      1052.150 6        49.750          38.000
  19377425.674 7 103656161.39407  80621475.07207                  19377429.450 7
      1048.983 7       815.743 7        42.500          42.000
  23192841.525 6 124196609.80806  96597380.25405                  23192845.891 5
     -1734.695 6     -1349.319 5        37.000          32.000
  20487085.542 8 107660360.77108  83891204.81806  20487086.241 6  20487086.448 8
      -969.041 8      -755.096 6        51.000          39.250
  22042208.859 7 115832588.47007  90259150.67904  22042205.221 4
     -2085.092 7     -1624.750 4        45.500          27.000
  21686553.375 7 115601546.34807  89912336.71806                  21686561.043 6
      3774.480 7      2935.592 6        42.500          36.500
  21430136.666 8 114395515.32608  88974318.55407                  21430140.617 7
     -2834.748 8     -2204.776 7        48.000          42.000
  19312586.670 7 103128131.83307  80210787.24508                  19312590.323 8
      1299.704 7      1010.850 8        47.500          48.500
  21500215.966 6 114850292.80706  89328027.09406                  21500220.591 6
     -2426.324 6     -1887.322 6        37.500          37.000
  23440777.931 6 125304395.39206  97458987.99805                  23440783.780 5
       833.342 6       647.705 5        38.500          34.750
 19  3 19 19 46 37.0000000  0 13G26G30G07G08R19R08G27G16R10R18R09R16
                                R01
  24351487.578 6 127967926.10706  99715276.16003  24351487.762 3  24351485.404 5
     -2565.351 6     -1998.976 3        40.500          19.000
