%  GPST                  latitude(deg) longitude(deg)  height(m)   Q  ns   sdn(m)   sde(m)   sdu(m)  sdne(m)  sdeu(m)  sdun(m) age(s)  ratio
2019/09/16 15:07:22.000   45.950209138  -66.641694638    19.8707   6  13   1.5482   0.9797   2.8308   0.6395  -0.4388  -0.8793   0.00    0.0
2019/09/16 15:07:23.000   45.950210491  -66.641697225    20.6045   6  13   1.0955   0.6930   2.0179   0.4523  -0.3094  -0.6268   0.00    0.0
2019/09/16 15:07:24.000   45.950209727  -66.641701177    20.2337   6  13   0.8947   0.5659   1.6596   0.3693  -0.2519  -0.5153   0.00    0.0
2019/09/16 15:07:25.000   45.950209007  -66.641703181    20.4485   6  13   0.7750   0.4901   1.4474   0.3198  -0.2175  -0.4492   0.00    0.0
2019/09/16 15:07:26.000   45.950207544  -66.641705142    20.4958   6  13   0.6933   0.4384   1.3035   0.2859  -0.1940  -0.4043   0.00    0.0
2019/09/16 15:07:27.000   45.950208123  -66.641705460    20.3313   6  13   0.6330   0.4002   1.1979   0.2610  -0.1765  -0.3714   0.00    0.0
2019/09/16 15:07:28.000   45.950208445  -66.641705605    20.4294   6  13   0.5862   0.3705   1.1164   0.2415  -0.1629  -0.3459   0.00    0.0
2019/09/16 15:07:29.000   45.950207568  -66.641706626    20.5017   6  13   0.5484   0.3466   1.0511   0.2259  -0.1519  -0.3255   0.00    0.0
2019/09/16 15:07:30.000   45.950207841  -66.641705377    20.4324   6  13   0.5171   0.3268   0.9973   0.2129  -0.1428  -0.3087   0.00    0.0
2019/09/16 15:07:31.000   45.950207889  -66.641704812    20.3181   6  13   0.4906   0.3100   0.9521   0.2019  -0.1351  -0.2946   0.00    0.0
2019/09/16 15:07:32.000   45.950207731  -66.641705006    20.2522   6  13   0.4678   0.2956   0.9135   0.1925  -0.1284  -0.2825   0.00    0.0
2019/09/16 15:07:33.000   45.950206999  -66.641705192    20.3024   6  13   0.4480   0.2830   0.8799   0.1842  -0.1225  -0.2720   0.00    0.0
2019/09/16 15:07:34.000   45.950206840  -66.641705078    20.2187   6  13   0.4305   0.2719   0.8505   0.1769  -0.1174  -0.2628   0.00    0.0
2019/09/16 15:07:35.000   45.950206807  -66.641705345    20.1549   6  13   0.4149   0.2620   0.8245   0.1705  -0.1127  -0.2546   0.00    0.0
2019/09/16 15:07:36.000   45.950206875  -66.641705797    20.1994   6  13   0.4008   0.2531   0.8012   0.1646  -0.1086  -0.2473   0.00    0.0
2019/09/16 15:07:37.000   45.950207190  -66.641705988    20.2522   6  13   0.3882   0.2450   0.7803   0.1594  -0.1048  -0.2408   0.00    0.0
2019/09/16 15:07:38.000   45.950206931  -66.641706260    20.1417   6  13   0.3766   0.2377   0.7613   0.1546  -0.1013  -0.2348   0.00    0.0
2019/09/16 15:07:39.000   45.950207280  -66.641706217    20.1492   6  13   0.3660   0.2310   0.7440   0.1502  -0.0982  -0.2294   0.00    0.0
2019/09/16 15:07:40.000   45.950207362  -66.641706472    20.2003   6  13   0.3563   0.2249   0.7282   0.1461  -0.0952  -0.2244   0.00    0.0
2019/09/16 15:07:41.000   45.950207723  -66.641706567    20.2016   6  13   0.3473   0.2192   0.7137   0.1424  -0.0925  -0.2199   0.00    0.0
2019/09/16 15:07:42.000   45.950207839  -66.641706539    20.1894   6  13   0.3390   0.2139   0.7003   0.1389  -0.0900  -0.2157   0.00    0.0
2019/09/16 15:07:43.000   45.950207828  -66.641706526    20.2559   6  13   0.3313   0.2089   0.6878   0.1357  -0.0877  -0.2118   0.00    0.0
2019/09/16 15:07:44.000   45.950207497  -66.641706617    20.3406   6  13   0.3240   0.2044   0.6763   0.1326  -0.0855  -0.2082   0.00    0.0
2019/09/16 15:07:45.000   45.950206975  -66.641706883    20.3538   6  13   0.3172   0.2000   0.6655   0.1298  -0.0834  -0.2048   0.00    0.0
2019/09/16 15:07:46.000   45.950206801  -66.641707009    20.3652   6  13   0.3108   0.1960   0.6555   0.1271  -0.0814  -0.2016   0.00    0.0
2019/09/16 15:07:47.000   45.950206584  -66.641706944    20.4188   6  13   0.3048   0.1922   0.6460   0.1246  -0.0796  -0.1986   0.00    0.0
2019/09/16 15:07:48.000   45.950206622  -66.641706981    20.3898   6  13   0.2992   0.1886   0.6371   0.1223  -0.0779  -0.1959   0.00    0.0
2019/09/16 15:07:49.000   45.950206565  -66.641706820    20.4295   6  13   0.2938   0.1852   0.6288   0.1200  -0.0762  -0.1932   0.00    0.0
2019/09/16 15:07:50.000   45.950206629  -66.641706974    20.4839   6  13   0.2887   0.1820   0.6209   0.1179  -0.0746  -0.1907   0.00    0.0
2019/09/16 15:07:51.000   45.950206953  -66.641706963    20.4647   6  13   0.2839   0.1789   0.6134   0.1159  -0.0731  -0.1884   0.00    0.0
2019/09/16 15:07:52.000   45.950207277  -66.641707021    20.4114   6  13   0.2793   0.1760   0.6064   0.1140  -0.0717  -0.1862   0.00    0.0
2019/09/16 15:07:53.000   45.950207312  -66.641707003    20.3848   6  13   0.2750   0.1732   0.5997   0.1121  -0.0703  -0.1841   0.00    0.0
2019/09/16 15:07:54.000   45.950207469  -66.641706890    20.3973   6  13   0.2708   0.1706   0.5933   0.1104  -0.0690  -0.1821   0.00    0.0
2019/09/16 15:07:55.000   45.950207527  -66.641706851    20.4463   6  13   0.2668   0.1680   0.5872   0.1087  -0.0678  -0.1802   0.00    0.0
2019/09/16 15:07:56.000   45.950207556  -66.641706704    20.4724   6  13   0.2630   0.1656   0.5815   0.1071  -0.0666  -0.1784   0.00    0.0
2019/09/16 15:07:57.000   45.950207765  -66.641706642    20.4693   6  13   0.2593   0.1633   0.5760   0.1056  -0.0654  -0.1766   0.00    0.0
2019/09/16 15:07:58.000   45.950207726  -66.641706748    20.4337   6  13   0.2558   0.1611   0.5707   0.1041  -0.0643  -0.1750   0.00    0.0
2019/09/16 15:07:59.000   45.950207863  -66.641706820    20.4283   6  13   0.2525   0.1589   0.5656   0.1027  -0.0632  -0.1734   0.00    0.0
2019/09/16 15:08:00.000   45.950207865  -66.641706896    20.4257   6  13   0.2492   0.1569   0.5608   0.1014  -0.0622  -0.1719   0.00    0.0
2019/09/16 15:08:01.000   45.950207884  -66.641707060    20.4186   6  13   0.2461   0.1549   0.5562   0.1001  -0.0612  -0.1704   0.00    0.0
2019/09/16 15:08:02.000   45.950208101  -66.641707062    20.3677   6  13   0.2431   0.1530   0.5517   0.0988  -0.0602  -0.1690   0.00    0.0
2019/09/16 15:08:03.000   45.950208069  -66.641707244    20.3413   6  13   0.2402   0.1512   0.5475   0.0976  -0.0593  -0.1677   0.00    0.0
2019/09/16 15:08:04.000   45.950207920  -66.641707414    20.3478   6  13   0.2374   0.1494   0.5434   0.0964  -0.0584  -0.1664   0.00    0.0
2019/09/16 15:08:05.000   45.950208073  -66.641707310    20.3069   6  13   0.2347   0.1477   0.5394   0.0953  -0.0575  -0.1651   0.00    0.0
2019/09/16 15:08:06.000   45.950208076  -66.641707404    20.2928   6  13   0.2321   0.1460   0.5356   0.0942  -0.0567  -0.1639   0.00    0.0
2019/09/16 15:08:07.000   45.950208071  -66.641707471    20.2981   6  13   0.2296   0.1444   0.5319   0.0931  -0.0559  -0.1628   0.00    0.0
2019/09/16 15:08:08.000   45.950208244  -66.641707341    20.2529   6  13   0.2272   0.1429   0.5284   0.0921  -0.0551  -0.1616   0.00    0.0
2019/09/16 15:08:09.000   45.950208445  -66.641707334    20.2400   6  13   0.2248   0.1414   0.5250   0.0911  -0.0543  -0.1606   0.00    0.0
2019/09/16 15:08:10.000   45.950208413  -66.641707381    20.2534   6  13   0.2225   0.1399   0.5216   0.0901  -0.0536  -0.1595   0.00    0.0
2019/09/16 15:08:11.000   45.950208516  -66.641707564    20.2671   6  13   0.2203   0.1385   0.5184   0.0892  -0.0528  -0.1585   0.00    0.0
2019/09/16 15:08:12.000   45.950208531  -66.641707698    20.2451   6  13   0.2182   0.1371   0.5154   0.0883  -0.0521  -0.1575   0.00    0.0
2019/09/16 15:08:13.000   45.950208649  -66.641707863    20.2242   6  13   0.2161   0.1358   0.5124   0.0874  -0.0514  -0.1566   0.00    0.0
2019/09/16 15:08:14.000   45.950208660  -66.641708111    20.2393   6  13   0.2141   0.1345   0.5094   0.0866  -0.0507  -0.1557   0.00    0.0
2019/09/16 15:08:15.000   45.950208679  -66.641708227    20.2535   6  13   0.2121   0.1333   0.5066   0.0857  -0.0501  -0.1548   0.00    0.0
2019/09/16 15:08:16.000   45.950208796  -66.641708201    20.2580   6  13   0.2102   0.1320   0.5039   0.0849  -0.0494  -0.1539   0.00    0.0
2019/09/16 15:08:17.000   45.950208890  -66.641708200    20.2696   6  13   0.2083   0.1308   0.5012   0.0841  -0.0488  -0.1531   0.00    0.0
2019/09/16 15:08:18.000   45.950209027  -66.641708312    20.2499   6  13   0.2065   0.1297   0.4987   0.0834  -0.0482  -0.1523   0.00    0.0
2019/09/16 15:08:19.000   45.950209205  -66.641708255    20.2533   6  13   0.2047   0.1286   0.4962   0.0826  -0.0476  -0.1515   0.00    0.0
2019/09/16 15:08:20.000   45.950209331  -66.641708259    20.2279   6  13   0.2030   0.1275   0.4937   0.0819  -0.0470  -0.1507   0.00    0.0
2019/09/16 15:08:21.000   45.950209395  -66.641708287    20.2315   6  13   0.2013   0.1264   0.4914   0.0812  -0.0464  -0.1500   0.00    0.0
2019/09/16 15:08:22.000   45.950209499  -66.641708363    20.2301   6  13   0.1996   0.1254   0.4891   0.0805  -0.0459  -0.1492   0.00    0.0
2019/09/16 15:08:23.000   45.950209619  -66.641708265    20.2332   6  13   0.1980   0.1243   0.4868   0.0798  -0.0453  -0.1485   0.00    0.0
2019/09/16 15:08:24.000   45.950209648  -66.641708114    20.2269   6  13   0.1965   0.1233   0.4846   0.0791  -0.0448  -0.1478   0.00    0.0
2019/09/16 15:08:25.000   45.950209796  -66.641708112    20.2225   6  13   0.1949   0.1224   0.4825   0.0785  -0.0443  -0.1472   0.00    0.0
2019/09/16 15:08:26.000   45.950210070  -66.641708087    20.2262   6  13   0.1935   0.1214   0.4804   0.0779  -0.0438  -0.1465   0.00    0.0
2019/09/16 15:08:27.000   45.950210233  -66.641707980    20.2089   6  13   0.1920   0.1205   0.4784   0.0772  -0.0433  -0.1459   0.00    0.0
2019/09/16 15:08:28.000   45.950210373  -66.641707963    20.2244   6  13   0.1906   0.1196   0.4764   0.0766  -0.0428  -0.1452   0.00    0.0
2019/09/16 15:08:29.000   45.950210544  -66.641707846    20.2240   6  13   0.1892   0.1187   0.4745   0.0761  -0.0423  -0.1446   0.00    0.0
2019/09/16 15:08:30.000   45.950210789  -66.641707714    20.2099   6  13   0.1878   0.1178   0.4726   0.0755  -0.0418  -0.1440   0.00    0.0
2019/09/16 15:08:31.000   45.950210880  -66.641707558    20.1910   6  13   0.1865   0.1170   0.4707   0.0749  -0.0413  -0.1434   0.00    0.0
2019/09/16 15:08:32.000   45.950210996  -66.641707499    20.1858   6  13   0.1852   0.1162   0.4689   0.0744  -0.0409  -0.1429   0.00    0.0
2019/09/16 15:08:33.000   45.950211019  -66.641707378    20.1851   6  13   0.1839   0.1153   0.4672   0.0738  -0.0404  -0.1423   0.00    0.0
2019/09/16 15:08:34.000   45.950211125  -66.641707268    20.1877   6  13   0.1826   0.1145   0.4655   0.0733  -0.0400  -0.1418   0.00    0.0
2019/09/16 15:08:35.000   45.950211220  -66.641707125    20.1732   6  13   0.1814   0.1138   0.4638   0.0728  -0.0395  -0.1412   0.00    0.0
2019/09/16 15:08:36.000   45.950211301  -66.641707095    20.1739   6  13   0.1802   0.1130   0.4621   0.0722  -0.0391  -0.1407   0.00    0.0
2019/09/16 15:08:37.000   45.950211302  -66.641707044    20.1797   6  13   0.1790   0.1122   0.4605   0.0717  -0.0387  -0.1402   0.00    0.0
2019/09/16 15:08:38.000   45.950211266  -66.641707042    20.1865   6  13   0.1779   0.1115   0.4589   0.0713  -0.0383  -0.1397   0.00    0.0
2019/09/16 15:08:39.000   45.950211187  -66.641707004    20.2109   6  13   0.1767   0.1108   0.4574   0.0708  -0.0379  -0.1392   0.00    0.0
2019/09/16 15:08:40.000   45.950211222  -66.641707055    20.1974   6  13   0.1756   0.1101   0.4559   0.0703  -0.0375  -0.1387   0.00    0.0
2019/09/16 15:08:41.000   45.950211227  -66.641707088    20.2062   6  13   0.1745   0.1094   0.4544   0.0698  -0.0371  -0.1383   0.00    0.0
2019/09/16 15:08:42.000   45.950211272  -66.641707101    20.2076   6  13   0.1735   0.1087   0.4529   0.0694  -0.0367  -0.1378   0.00    0.0
2019/09/16 15:08:43.000   45.950211391  -66.641707166    20.2090   6  13   0.1724   0.1080   0.4515   0.0689  -0.0363  -0.1373   0.00    0.0
2019/09/16 15:08:44.000   45.950211581  -66.641707180    20.2003   6  13   0.1714   0.1074   0.4501   0.0685  -0.0359  -0.1369   0.00    0.0
2019/09/16 15:08:45.000   45.950211665  -66.641707191    20.1865   6  13   0.1704   0.1067   0.4487   0.0681  -0.0355  -0.1364   0.00    0.0
2019/09/16 15:08:46.000   45.950211683  -66.641707179    20.1811   6  13   0.1694   0.1061   0.4473   0.0676  -0.0352  -0.1360   0.00    0.0
2019/09/16 15:08:47.000   45.950211631  -66.641707182    20.1918   6  13   0.1684   0.1055   0.4460   0.0672  -0.0348  -0.1356   0.00    0.0
2019/09/16 15:08:48.000   45.950211719  -66.641707232    20.1835   6  13   0.1674   0.1049   0.4447   0.0668  -0.0345  -0.1352   0.00    0.0
2019/09/16 15:08:49.000   45.950211704  -66.641707213    20.1823   6  13   0.1665   0.1043   0.4434   0.0664  -0.0341  -0.1348   0.00    0.0
2019/09/16 15:08:50.000   45.950211727  -66.641707187    20.1923   6  13   0.1655   0.1037   0.4421   0.0660  -0.0338  -0.1344   0.00    0.0
2019/09/16 15:08:51.000   45.950211675  -66.641707135    20.2028   6  13   0.1646   0.1031   0.4409   0.0656  -0.0334  -0.1340   0.00    0.0
2019/09/16 15:08:52.000   45.950211658  -66.641707057    20.2001   6  13   0.1637   0.1025   0.4397   0.0652  -0.0331  -0.1336   0.00    0.0
2019/09/16 15:08:53.000   45.950211611  -66.641707149    20.2154   6  13   0.1628   0.1020   0.4385   0.0649  -0.0327  -0.1332   0.00    0.0
2019/09/16 15:08:54.000   45.950211666  -66.641707186    20.2228   6  13   0.1620   0.1014   0.4373   0.0645  -0.0324  -0.1328   0.00    0.0
2019/09/16 15:08:55.000   45.950211558  -66.641707251    20.2401   6  13   0.1611   0.1009   0.4361   0.0641  -0.0321  -0.1324   0.00    0.0
2019/09/16 15:08:56.000   45.950211541  -66.641707359    20.2453   6  13   0.1603   0.1003   0.4350   0.0638  -0.0318  -0.1321   0.00    0.0
2019/09/16 15:08:57.000   45.950211456  -66.641707413    20.2565   6  13   0.1594   0.0998   0.4338   0.0634  -0.0314  -0.1317   0.00    0.0
2019/09/16 15:08:58.000   45.950211394  -66.641707455    20.2676   6  13   0.1586   0.0993   0.4327   0.0631  -0.0311  -0.1314   0.00    0.0
2019/09/16 15:08:59.000   45.950211332  -66.641707497    20.2701   6  13   0.1578   0.0988   0.4316   0.0627  -0.0308  -0.1310   0.00    0.0
2019/09/16 15:09:00.000   45.950211281  -66.641707545    20.2808   6  13   0.1570   0.0983   0.4305   0.0624  -0.0305  -0.1307   0.00    0.0
2019/09/16 15:09:01.000   45.950211186  -66.641707577    20.2965   6  13   0.1562   0.0978   0.4295   0.0620  -0.0302  -0.1303   0.00    0.0
2019/09/16 15:09:02.000   45.950211163  -66.641707584    20.3039   6  13   0.1554   0.0973   0.4284   0.0617  -0.0299  -0.1300   0.00    0.0
2019/09/16 15:09:03.000   45.950211026  -66.641707644    20.2997   6  13   0.1547   0.0968   0.4274   0.0614  -0.0296  -0.1296   0.00    0.0
2019/09/16 15:09:04.000   45.950210854  -66.641707640    20.3033   6  13   0.1539   0.0963   0.4264   0.0611  -0.0293  -0.1293   0.00    0.0
2019/09/16 15:09:05.000   45.950210808  -66.641707706    20.3156   6  13   0.1532   0.0958   0.4254   0.0607  -0.0290  -0.1290   0.00    0.0
2019/09/16 15:09:06.000   45.950210708  -66.641707753    20.3272   6  13   0.1525   0.0954   0.4244   0.0604  -0.0287  -0.1287   0.00    0.0
2019/09/16 15:09:07.000   45.950210650  -66.641707717    20.3335   6  13   0.1517   0.0949   0.4234   0.0601  -0.0285  -0.1284   0.00    0.0
2019/09/16 15:09:08.000   45.950210540  -66.641707697    20.3344   6  13   0.1510   0.0945   0.4224   0.0598  -0.0282  -0.1280   0.00    0.0
2019/09/16 15:09:09.000   45.950210434  -66.641707691    20.3386   6  13   0.1503   0.0940   0.4215   0.0595  -0.0279  -0.1277   0.00    0.0
2019/09/16 15:09:10.000   45.950210365  -66.641707750    20.3587   6  13   0.1497   0.0936   0.4205   0.0592  -0.0276  -0.1274   0.00    0.0
2019/09/16 15:09:11.000   45.950210316  -66.641707758    20.3631   6  13   0.1490   0.0932   0.4196   0.0589  -0.0274  -0.1271   0.00    0.0
2019/09/16 15:09:12.000   45.950210245  -66.641707723    20.3762   6  13   0.1483   0.0927   0.4187   0.0586  -0.0271  -0.1268   0.00    0.0
2019/09/16 15:09:13.000   45.950210220  -66.641707665    20.3823   6  13   0.1476   0.0923   0.4177   0.0584  -0.0268  -0.1265   0.00    0.0
2019/09/16 15:09:14.000   45.950210136  -66.641707665    20.3768   6  13   0.1470   0.0919   0.4168   0.0581  -0.0265  -0.1263   0.00    0.0
2019/09/16 15:09:15.000   45.950210057  -66.641707703    20.3765   6  13   0.1463   0.0915   0.4160   0.0578  -0.0263  -0.1260   0.00    0.0
2019/09/16 15:09:16.000   45.950209949  -66.641707752    20.3802   6  13   0.1457   0.0911   0.4151   0.0575  -0.0260  -0.1257   0.00    0.0
2019/09/16 15:09:17.000   45.950209894  -66.641707786    20.3839   6  13   0.1451   0.0907   0.4142   0.0573  -0.0258  -0.1254   0.00    0.0
2019/09/16 15:09:18.000   45.950209809  -66.641707835    20.3799   6  13   0.1445   0.0903   0.4133   0.0570  -0.0255  -0.1251   0.00    0.0
2019/09/16 15:09:19.000   45.950209658  -66.641707813    20.3894   6  13   0.1438   0.0899   0.4125   0.0567  -0.0253  -0.1248   0.00    0.0
2019/09/16 15:09:20.000   45.950209550  -66.641707758    20.3956   6  13   0.1432   0.0895   0.4116   0.0565  -0.0250  -0.1246   0.00    0.0
2019/09/16 15:09:21.000   45.950209366  -66.641707774    20.3999   6  13   0.1426   0.0892   0.4108   0.0562  -0.0248  -0.1243   0.00    0.0
2019/09/16 15:09:22.000   45.950209202  -66.641707812    20.4010   6  13   0.1420   0.0888   0.4100   0.0560  -0.0245  -0.1240   0.00    0.0
2019/09/16 15:09:23.000   45.950209069  -66.641707872    20.4011   6  13   0.1415   0.0884   0.4092   0.0557  -0.0243  -0.1238   0.00    0.0
2019/09/16 15:09:24.000   45.950209010  -66.641707855    20.3913   6  13   0.1409   0.0881   0.4084   0.0555  -0.0240  -0.1235   0.00    0.0
2019/09/16 15:09:25.000   45.950208949  -66.641707810    20.3932   6  13   0.1403   0.0877   0.4076   0.0552  -0.0238  -0.1233   0.00    0.0
2019/09/16 15:09:26.000   45.950208955  -66.641707818    20.3808   6  13   0.1397   0.0873   0.4068   0.0550  -0.0235  -0.1230   0.00    0.0
2019/09/16 15:09:27.000   45.950208870  -66.641707796    20.3738   6  13   0.1392   0.0870   0.4060   0.0547  -0.0233  -0.1227   0.00    0.0
2019/09/16 15:09:28.000   45.950208799  -66.641707771    20.3732   6  13   0.1386   0.0866   0.4052   0.0545  -0.0231  -0.1225   0.00    0.0
2019/09/16 15:09:29.000   45.950208812  -66.641707781    20.3619   6  13   0.1381   0.0863   0.4044   0.0543  -0.0228  -0.1222   0.00    0.0
2019/09/16 15:09:30.000   45.950208814  -66.641707792    20.3460   6  13   0.1376   0.0860   0.4037   0.0540  -0.0226  -0.1220   0.00    0.0
2019/09/16 15:09:31.000   45.950208792  -66.641707749    20.3332   6  13   0.1370   0.0856   0.4029   0.0538  -0.0224  -0.1217   0.00    0.0
2019/09/16 15:09:32.000   45.950208745  -66.641707719    20.3196   6  13   0.1365   0.0853   0.4021   0.0536  -0.0221  -0.1215   0.00    0.0
2019/09/16 15:09:33.000   45.950208727  -66.641707724    20.3134   6  13   0.1360   0.0850   0.4014   0.0534  -0.0219  -0.1212   0.00    0.0
2019/09/16 15:09:34.000   45.950208784  -66.641707670    20.2950   6  13   0.1355   0.0846   0.4007   0.0531  -0.0217  -0.1210   0.00    0.0
2019/09/16 15:09:35.000   45.950208759  -66.641707667    20.2763   6  13   0.1350   0.0843   0.3999   0.0529  -0.0214  -0.1208   0.00    0.0
2019/09/16 15:09:36.000   45.950208762  -66.641707662    20.2745   6  13   0.1344   0.0840   0.3992   0.0527  -0.0212  -0.1205   0.00    0.0
2019/09/16 15:09:37.000   45.950208748  -66.641707667    20.2723   6  13   0.1340   0.0837   0.3985   0.0525  -0.0210  -0.1203   0.00    0.0
2019/09/16 15:09:38.000   45.950208732  -66.641707687    20.2554   6  13   0.1335   0.0834   0.3978   0.0523  -0.0208  -0.1201   0.00    0.0
2019/09/16 15:09:39.000   45.950208743  -66.641707695    20.2412   6  13   0.1330   0.0831   0.3970   0.0521  -0.0206  -0.1198   0.00    0.0
2019/09/16 15:09:40.000   45.950208701  -66.641707716    20.2299   6  13   0.1325   0.0828   0.3963   0.0519  -0.0203  -0.1196   0.00    0.0
2019/09/16 15:09:41.000   45.950208679  -66.641707714    20.2153   6  13   0.1320   0.0825   0.3956   0.0517  -0.0201  -0.1194   0.00    0.0
2019/09/16 15:09:42.000   45.950208659  -66.641707757    20.2115   6  13   0.1315   0.0822   0.3949   0.0515  -0.0199  -0.1191   0.00    0.0
2019/09/16 15:09:43.000   45.950208627  -66.641707781    20.2123   6  13   0.1311   0.0819   0.3943   0.0513  -0.0197  -0.1189   0.00    0.0
2019/09/16 15:09:44.000   45.950208505  -66.641707822    20.2108   6  13   0.1306   0.0816   0.3936   0.0511  -0.0195  -0.1187   0.00    0.0
2019/09/16 15:09:45.000   45.950208495  -66.641707822    20.1966   6  13   0.1301   0.0813   0.3929   0.0509  -0.0193  -0.1185   0.00    0.0
2019/09/16 15:09:46.000   45.950208473  -66.641707894    20.1941   6  13   0.1297   0.0810   0.3922   0.0507  -0.0191  -0.1182   0.00    0.0
2019/09/16 15:09:47.000   45.950208430  -66.641707939    20.1912   6  13   0.1292   0.0807   0.3915   0.0505  -0.0188  -0.1180   0.00    0.0
2019/09/16 15:09:48.000   45.950208380  -66.641707983    20.1834   6  13   0.1288   0.0805   0.3909   0.0503  -0.0186  -0.1178   0.00    0.0
2019/09/16 15:09:49.000   45.950208361  -66.641708018    20.1757   6  13   0.1284   0.0802   0.3902   0.0501  -0.0184  -0.1176   0.00    0.0
2019/09/16 15:09:50.000   45.950208347  -66.641708070    20.1673   6  13   0.1279   0.0799   0.3895   0.0499  -0.0182  -0.1174   0.00    0.0
2019/09/16 15:09:51.000   45.950208347  -66.641708108    20.1609   6  13   0.1275   0.0796   0.3889   0.0497  -0.0180  -0.1172   0.00    0.0
2019/09/16 15:09:52.000   45.950208385  -66.641708130    20.1615   6  13   0.1271   0.0794   0.3882   0.0495  -0.0178  -0.1169   0.00    0.0
2019/09/16 15:09:53.000   45.950208393  -66.641708164    20.1624   6  13   0.1266   0.0791   0.3876   0.0494  -0.0176  -0.1167   0.00    0.0
2019/09/16 15:09:54.000   45.950208377  -66.641708219    20.1658   6  13   0.1262   0.0788   0.3869   0.0492  -0.0174  -0.1165   0.00    0.0
2019/09/16 15:09:55.000   45.950208343  -66.641708250    20.1691   6  13   0.1258   0.0786   0.3863   0.0490  -0.0172  -0.1163   0.00    0.0
2019/09/16 15:09:56.000   45.950208361  -66.641708229    20.1724   6  13   0.1254   0.0783   0.3857   0.0488  -0.0170  -0.1161   0.00    0.0
2019/09/16 15:09:57.000   45.950208353  -66.641708190    20.1695   6  13   0.1250   0.0781   0.3850   0.0487  -0.0168  -0.1159   0.00    0.0
2019/09/16 15:09:58.000   45.950208369  -66.641708206    20.1793   6  13   0.1246   0.0778   0.3844   0.0485  -0.0166  -0.1157   0.00    0.0
2019/09/16 15:09:59.000   45.950208389  -66.641708217    20.1707   6  13   0.1242   0.0776   0.3838   0.0483  -0.0164  -0.1155   0.00    0.0
2019/09/16 15:10:00.000   45.950208411  -66.641708224    20.1744   6  13   0.1238   0.0773   0.3831   0.0481  -0.0162  -0.1153   0.00    0.0
2019/09/16 15:10:01.000   45.950208440  -66.641708195    20.1776   6  13   0.1234   0.0771   0.3825   0.0480  -0.0160  -0.1151   0.00    0.0
2019/09/16 15:10:02.000   45.950208464  -66.641708179    20.1721   6  13   0.1230   0.0768   0.3819   0.0478  -0.0158  -0.1149   0.00    0.0
2019/09/16 15:10:03.000   45.950208458  -66.641708180    20.1682   6  13   0.1226   0.0766   0.3813   0.0476  -0.0156  -0.1147   0.00    0.0
2019/09/16 15:10:04.000   45.950208458  -66.641708215    20.1788   6  13   0.1222   0.0763   0.3807   0.0475  -0.0154  -0.1145   0.00    0.0
2019/09/16 15:10:05.000   45.950208448  -66.641708251    20.1805   6  13   0.1218   0.0761   0.3801   0.0473  -0.0152  -0.1143   0.00    0.0
2019/09/16 15:10:06.000   45.950208500  -66.641708281    20.1837   6  13   0.1214   0.0759   0.3795   0.0471  -0.0150  -0.1141   0.00    0.0
2019/09/16 15:10:07.000   45.950208512  -66.641708266    20.1985   6  13   0.1211   0.0756   0.3788   0.0470  -0.0148  -0.1139   0.00    0.0
2019/09/16 15:10:08.000   45.950208513  -66.641708271    20.2101   6  13   0.1207   0.0754   0.3782   0.0468  -0.0146  -0.1137   0.00    0.0
2019/09/16 15:10:09.000   45.950208577  -66.641708252    20.2210   6  13   0.1203   0.0752   0.3776   0.0467  -0.0144  -0.1135   0.00    0.0
2019/09/16 15:10:10.000   45.950208590  -66.641708251    20.2162   6  13   0.1200   0.0749   0.3771   0.0465  -0.0142  -0.1133   0.00    0.0
2019/09/16 15:10:11.000   45.950208580  -66.641708238    20.2069   6  13   0.1196   0.0747   0.3765   0.0464  -0.0140  -0.1131   0.00    0.0
2019/09/16 15:10:12.000   45.950208533  -66.641708255    20.2002   6  13   0.1192   0.0745   0.3759   0.0462  -0.0138  -0.1129   0.00    0.0
2019/09/16 15:10:13.000   45.950208567  -66.641708263    20.1946   6  13   0.1189   0.0743   0.3753   0.0460  -0.0136  -0.1127   0.00    0.0
2019/09/16 15:10:14.000   45.950208602  -66.641708290    20.1882   6  13   0.1185   0.0741   0.3747   0.0459  -0.0134  -0.1125   0.00    0.0
2019/09/16 15:10:15.000   45.950208588  -66.641708337    20.1819   6  13   0.1182   0.0738   0.3741   0.0457  -0.0132  -0.1123   0.00    0.0
2019/09/16 15:10:16.000   45.950208639  -66.641708370    20.1724   6  13   0.1178   0.0736   0.3735   0.0456  -0.0131  -0.1121   0.00    0.0
2019/09/16 15:10:17.000   45.950208627  -66.641708431    20.1754   6  13   0.1175   0.0734   0.3729   0.0455  -0.0129  -0.1119   0.00    0.0
2019/09/16 15:10:18.000   45.950208603  -66.641708441    20.1699   6  13   0.1172   0.0732   0.3724   0.0453  -0.0127  -0.1117   0.00    0.0
2019/09/16 15:10:19.000   45.950208591  -66.641708498    20.1645   6  13   0.1168   0.0730   0.3718   0.0452  -0.0125  -0.1115   0.00    0.0
2019/09/16 15:10:20.000   45.950208621  -66.641708487    20.1573   6  13   0.1165   0.0728   0.3712   0.0450  -0.0123  -0.1113   0.00    0.0
2019/09/16 15:10:21.000   45.950208607  -66.641708519    20.1584   6  13   0.1161   0.0726   0.3706   0.0449  -0.0121  -0.1111   0.00    0.0
2019/09/16 15:10:22.000   45.950208616  -66.641708567    20.1606   6  13   0.1158   0.0724   0.3701   0.0447  -0.0119  -0.1110   0.00    0.0
2019/09/16 15:10:23.000   45.950208611  -66.641708632    20.1626   6  13   0.1155   0.0722   0.3695   0.0446  -0.0117  -0.1108   0.00    0.0
2019/09/16 15:10:24.000   45.950208630  -66.641708675    20.1581   6  13   0.1152   0.0720   0.3689   0.0445  -0.0115  -0.1106   0.00    0.0
2019/09/16 15:10:25.000   45.950208623  -66.641708733    20.1556   6  13   0.1148   0.0718   0.3684   0.0443  -0.0113  -0.1104   0.00    0.0
2019/09/16 15:10:26.000   45.950208623  -66.641708778    20.1422   6  13   0.1145   0.0716   0.3678   0.0442  -0.0111  -0.1102   0.00    0.0
2019/09/16 15:10:27.000   45.950208640  -66.641708786    20.1360   6  13   0.1142   0.0714   0.3672   0.0440  -0.0109  -0.1100   0.00    0.0
2019/09/16 15:10:28.000   45.950208612  -66.641708838    20.1309   6  13   0.1139   0.0712   0.3667   0.0439  -0.0107  -0.1098   0.00    0.0
2019/09/16 15:10:29.000   45.950208579  -66.641708888    20.1301   6  13   0.1136   0.0710   0.3661   0.0438  -0.0105  -0.1096   0.00    0.0
2019/09/16 15:10:30.000   45.950208593  -66.641708878    20.1323   6  13   0.1133   0.0708   0.3655   0.0436  -0.0103  -0.1095   0.00    0.0
2019/09/16 15:10:31.000   45.950208590  -66.641708914    20.1408   6  13   0.1129   0.0706   0.3650   0.0435  -0.0101  -0.1093   0.00    0.0
2019/09/16 15:10:32.000   45.950208563  -66.641708895    20.1441   6  13   0.1126   0.0704   0.3644   0.0434  -0.0099  -0.1091   0.00    0.0
2019/09/16 15:10:33.000   45.950208590  -66.641708897    20.1514   6  13   0.1123   0.0702   0.3639   0.0432  -0.0097  -0.1089   0.00    0.0
2019/09/16 15:10:34.000   45.950208612  -66.641708892    20.1608   6  13   0.1120   0.0700   0.3633   0.0431  -0.0095  -0.1087   0.00    0.0
2019/09/16 15:10:35.000   45.950208624  -66.641708904    20.1571   6  13   0.1117   0.0698   0.3628   0.0430  -0.0093  -0.1085   0.00    0.0
2019/09/16 15:10:36.000   45.950208633  -66.641708905    20.1603   6  13   0.1114   0.0697   0.3622   0.0429  -0.0091  -0.1084   0.00    0.0
2019/09/16 15:10:37.000   45.950208665  -66.641708912    20.1680   6  13   0.1111   0.0695   0.3617   0.0427  -0.0089  -0.1082   0.00    0.0
2019/09/16 15:10:38.000   45.950208689  -66.641708944    20.1689   6  13   0.1108   0.0693   0.3611   0.0426  -0.0086  -0.1080   0.00    0.0
2019/09/16 15:10:39.000   45.950208706  -66.641708968    20.1673   6  13   0.1105   0.0691   0.3606   0.0425  -0.0084  -0.1078   0.00    0.0
2019/09/16 15:10:40.000   45.950208737  -66.641708978    20.1640   6  13   0.1103   0.0689   0.3600   0.0424  -0.0082  -0.1076   0.00    0.0
2019/09/16 15:10:41.000   45.950208763  -66.641708986    20.1586   6  13   0.1100   0.0688   0.3595   0.0422  -0.0080  -0.1075   0.00    0.0
2019/09/16 15:10:42.000   45.950208783  -66.641708991    20.1580   6  13   0.1097   0.0686   0.3590   0.0421  -0.0078  -0.1073   0.00    0.0
2019/09/16 15:10:43.000   45.950208789  -66.641709009    20.1555   6  13   0.1094   0.0684   0.3584   0.0420  -0.0075  -0.1071   0.00    0.0
2019/09/16 15:10:44.000   45.950208810  -66.641709027    20.1465   6  13   0.1091   0.0682   0.3579   0.0419  -0.0073  -0.1069   0.00    0.0
2019/09/16 15:10:45.000   45.950208829  -66.641709057    20.1402   6  13   0.1088   0.0681   0.3573   0.0418  -0.0071  -0.1068   0.00    0.0
2019/09/16 15:10:46.000   45.950208835  -66.641709063    20.1308   6  13   0.1086   0.0679   0.3568   0.0416  -0.0068  -0.1066   0.00    0.0
2019/09/16 15:10:47.000   45.950208845  -66.641709084    20.1320   6  13   0.1083   0.0677   0.3563   0.0415  -0.0066  -0.1064   0.00    0.0
2019/09/16 15:10:48.000   45.950208830  -66.641709051    20.1262   6  13   0.1080   0.0676   0.3557   0.0414  -0.0064  -0.1062   0.00    0.0
2019/09/16 15:10:49.000   45.950208842  -66.641709028    20.1222   6  13   0.1077   0.0674   0.3552   0.0413  -0.0061  -0.1060   0.00    0.0
2019/09/16 15:10:50.000   45.950208860  -66.641709003    20.1258   6  13   0.1075   0.0672   0.3547   0.0412  -0.0058  -0.1059   0.00    0.0
2019/09/16 15:10:51.000   45.950208887  -66.641709009    20.1263   6  13   0.1072   0.0671   0.3541   0.0411  -0.0056  -0.1057   0.00    0.0
2019/09/16 15:10:52.000   45.950208889  -66.641709033    20.1277   6  13   0.1069   0.0669   0.3536   0.0409  -0.0053  -0.1055   0.00    0.0
2019/09/16 15:10:53.000   45.950208887  -66.641709027    20.1257   6  13   0.1067   0.0667   0.3531   0.0408  -0.0050  -0.1053   0.00    0.0
2019/09/16 15:10:54.000   45.950208879  -66.641709044    20.1224   6  13   0.1064   0.0666   0.3525   0.0407  -0.0047  -0.1052   0.00    0.0
2019/09/16 15:10:55.000   45.950208833  -66.641709034    20.1317   6  13   0.1061   0.0664   0.3520   0.0406  -0.0044  -0.1050   0.00    0.0
2019/09/16 15:10:56.000   45.950208792  -66.641709032    20.1422   6  13   0.1059   0.0663   0.3515   0.0405  -0.0040  -0.1048   0.00    0.0
2019/09/16 15:10:57.000   45.950208789  -66.641709048    20.1417   6  13   0.1056   0.0661   0.3510   0.0404  -0.0036  -0.1047   0.00    0.0
2019/09/16 15:10:58.000   45.950208758  -66.641709039    20.1440   6  13   0.1053   0.0659   0.3504   0.0403  -0.0032  -0.1045   0.00    0.0
2019/09/16 15:10:59.000   45.950208708  -66.641709020    20.1483   6  13   0.1051   0.0658   0.3499   0.0402  -0.0028  -0.1043   0.00    0.0
2019/09/16 15:11:00.000   45.950208679  -66.641709036    20.1424   6  13   0.1048   0.0656   0.3494   0.0401  -0.0022  -0.1041   0.00    0.0
2019/09/16 15:11:01.000   45.950208672  -66.641709034    20.1443   6  13   0.1046   0.0655   0.3489   0.0399  -0.0015  -0.1040   0.00    0.0
2019/09/16 15:11:02.000   45.950208683  -66.641709040    20.1424   6  13   0.1043   0.0653   0.3483   0.0398   0.0005  -0.1038   0.00    0.0
2019/09/16 15:11:03.000   45.950208669  -66.641709088    20.1386   6  13   0.1041   0.0652   0.3478   0.0397   0.0017  -0.1036   0.00    0.0
2019/09/16 15:11:04.000   45.950208682  -66.641709077    20.1287   6  13   0.1038   0.0650   0.3473   0.0396   0.0023  -0.1034   0.00    0.0
2019/09/16 15:11:05.000   45.950208671  -66.641709052    20.1196   6  13   0.1036   0.0649   0.3468   0.0395   0.0028  -0.1033   0.00    0.0
2019/09/16 15:11:06.000   45.950208628  -66.641709027    20.1157   6  13   0.1033   0.0647   0.3463   0.0394   0.0032  -0.1031   0.00    0.0
2019/09/16 15:11:07.000   45.950208634  -66.641709008    20.1052   6  13   0.1031   0.0646   0.3457   0.0393   0.0036  -0.1029   0.00    0.0
2019/09/16 15:11:08.000   45.950208616  -66.641708994    20.1011   6  13   0.1029   0.0644   0.3452   0.0392   0.0039  -0.1028   0.00    0.0
2019/09/16 15:11:09.000   45.950208605  -66.641708990    20.1029   6  13   0.1026   0.0643   0.3447   0.0391   0.0042  -0.1026   0.00    0.0
2019/09/16 15:11:10.000   45.950208596  -66.641708965    20.1027   6  13   0.1024   0.0641   0.3442   0.0390   0.0045  -0.1024   0.00    0.0
2019/09/16 15:11:11.000   45.950208605  -66.641708926    20.1038   6  13   0.1021   0.0640   0.3437   0.0389   0.0047  -0.1023   0.00    0.0
2019/09/16 15:11:12.000   45.950208577  -66.641708904    20.1033   6  13   0.1019   0.0639   0.3432   0.0388   0.0050  -0.1021   0.00    0.0
2019/09/16 15:11:13.000   45.950208575  -66.641708882    20.1003   6  13   0.1017   0.0637   0.3426   0.0387   0.0052  -0.1019   0.00    0.0
2019/09/16 15:11:14.000   45.950208566  -66.641708857    20.1017   6  13   0.1014   0.0636   0.3421   0.0386   0.0054  -0.1018   0.00    0.0
2019/09/16 15:11:15.000   45.950208564  -66.641708854    20.0984   6  13   0.1012   0.0634   0.3416   0.0385   0.0056  -0.1016   0.00    0.0
2019/09/16 15:11:16.000   45.950208561  -66.641708843    20.0969   6  13   0.1010   0.0633   0.3411   0.0384   0.0058  -0.1014   0.00    0.0
2019/09/16 15:11:17.000   45.950208558  -66.641708827    20.0994   6  13   0.1007   0.0632   0.3406   0.0383   0.0060  -0.1013   0.00    0.0
2019/09/16 15:11:18.000   45.950208547  -66.641708825    20.1040   6  13   0.1005   0.0630   0.3401   0.0382   0.0061  -0.1011   0.00    0.0
2019/09/16 15:11:19.000   45.950208543  -66.641708795    20.1078   6  13   0.1003   0.0629   0.3396   0.0381   0.0063  -0.1009   0.00    0.0
2019/09/16 15:11:20.000   45.950208515  -66.641708817    20.1110   6  13   0.1001   0.0627   0.3391   0.0380   0.0065  -0.1008   0.00    0.0
2019/09/16 15:11:21.000   45.950208533  -66.641708808    20.1084   6  13   0.0998   0.0626   0.3386   0.0379   0.0066  -0.1006   0.00    0.0
2019/09/16 15:11:22.000   45.950208537  -66.641708835    20.1129   6  13   0.0996   0.0625   0.3380   0.0378   0.0068  -0.1004   0.00    0.0
2019/09/16 15:11:23.000   45.950208576  -66.641708811    20.1112   6  13   0.0994   0.0623   0.3375   0.0377   0.0069  -0.1003   0.00    0.0
2019/09/16 15:11:24.000   45.950208576  -66.641708806    20.1105   6  13   0.0992   0.0622   0.3370   0.0377   0.0070  -0.1001   0.00    0.0
2019/09/16 15:11:25.000   45.950208604  -66.641708798    20.1095   6  13   0.0989   0.0621   0.3365   0.0376   0.0072  -0.0999   0.00    0.0
2019/09/16 15:11:26.000   45.950208609  -66.641708770    20.1077   6  13   0.0987   0.0619   0.3360   0.0375   0.0073  -0.0998   0.00    0.0
2019/09/16 15:11:27.000   45.950208598  -66.641708784    20.1098   6  13   0.0985   0.0618   0.3355   0.0374   0.0074  -0.0996   0.00    0.0
2019/09/16 15:11:28.000   45.950208615  -66.641708801    20.1064   6  13   0.0983   0.0617   0.3350   0.0373   0.0076  -0.0994   0.00    0.0
2019/09/16 15:11:29.000   45.950208619  -66.641708797    20.1144   6  13   0.0981   0.0616   0.3345   0.0372   0.0077  -0.0993   0.00    0.0
2019/09/16 15:11:30.000   45.950208608  -66.641708781    20.1116   6  13   0.0979   0.0614   0.3340   0.0371   0.0078  -0.0991   0.00    0.0
2019/09/16 15:11:31.000   45.950208577  -66.641708780    20.1166   6  13   0.0977   0.0613   0.3335   0.0370   0.0079  -0.0990   0.00    0.0
2019/09/16 15:11:32.000   45.950208568  -66.641708796    20.1160   6  13   0.0974   0.0612   0.3330   0.0369   0.0080  -0.0988   0.00    0.0
2019/09/16 15:11:33.000   45.950208559  -66.641708783    20.1255   6  13   0.0972   0.0610   0.3325   0.0368   0.0081  -0.0986   0.00    0.0
2019/09/16 15:11:34.000   45.950208559  -66.641708787    20.1270   6  13   0.0970   0.0609   0.3320   0.0367   0.0082  -0.0985   0.00    0.0
2019/09/16 15:11:35.000   45.950208562  -66.641708787    20.1264   6  13   0.0968   0.0608   0.3315   0.0367   0.0083  -0.0983   0.00    0.0
2019/09/16 15:11:36.000   45.950208559  -66.641708809    20.1255   6  13   0.0966   0.0607   0.3310   0.0366   0.0084  -0.0981   0.00    0.0
2019/09/16 15:11:37.000   45.950208595  -66.641708811    20.1196   6  13   0.0964   0.0606   0.3305   0.0365   0.0085  -0.0980   0.00    0.0
2019/09/16 15:11:38.000   45.950208615  -66.641708838    20.1194   6  13   0.0962   0.0604   0.3300   0.0364   0.0086  -0.0978   0.00    0.0
2019/09/16 15:11:39.000   45.950208649  -66.641708825    20.1188   6  13   0.0960   0.0603   0.3295   0.0363   0.0087  -0.0977   0.00    0.0
2019/09/16 15:11:40.000   45.950208682  -66.641708807    20.1180   6  13   0.0958   0.0602   0.3290   0.0362   0.0088  -0.0975   0.00    0.0
2019/09/16 15:11:41.000   45.950208716  -66.641708810    20.1188   6  13   0.0956   0.0601   0.3285   0.0361   0.0089  -0.0973   0.00    0.0
2019/09/16 15:11:42.000   45.950208745  -66.641708790    20.1256   6  13   0.0954   0.0599   0.3280   0.0361   0.0089  -0.0972   0.00    0.0
2019/09/16 15:11:43.000   45.950208787  -66.641708767    20.1260   6  13   0.0952   0.0598   0.3275   0.0360   0.0090  -0.0970   0.00    0.0
2019/09/16 15:11:44.000   45.950208793  -66.641708794    20.1255   6  13   0.0950   0.0597   0.3270   0.0359   0.0091  -0.0969   0.00    0.0
2019/09/16 15:11:45.000   45.950208824  -66.641708814    20.1267   6  13   0.0948   0.0596   0.3265   0.0358   0.0092  -0.0967   0.00    0.0
2019/09/16 15:11:46.000   45.950208863  -66.641708812    20.1265   6  13   0.0946   0.0595   0.3260   0.0357   0.0092  -0.0965   0.00    0.0
2019/09/16 15:11:47.000   45.950208862  -66.641708853    20.1341   6  13   0.0944   0.0594   0.3255   0.0356   0.0093  -0.0964   0.00    0.0
2019/09/16 15:11:48.000   45.950208872  -66.641708879    20.1362   6  13   0.0942   0.0592   0.3251   0.0356   0.0094  -0.0962   0.00    0.0
2019/09/16 15:11:49.000   45.950208880  -66.641708889    20.1370   6  13   0.0940   0.0591   0.3246   0.0355   0.0095  -0.0961   0.00    0.0
2019/09/16 15:11:50.000   45.950208903  -66.641708922    20.1331   6  13   0.0938   0.0590   0.3241   0.0354   0.0095  -0.0959   0.00    0.0
2019/09/16 15:11:51.000   45.950208921  -66.641708960    20.1176   6  13   0.0936   0.0589   0.3236   0.0353   0.0096  -0.0958   0.00    0.0
2019/09/16 15:11:52.000   45.950208922  -66.641708982    20.1102   6  13   0.0934   0.0588   0.3231   0.0352   0.0097  -0.0956   0.00    0.0
2019/09/16 15:11:53.000   45.950208915  -66.641708999    20.1090   6  13   0.0932   0.0587   0.3226   0.0352   0.0097  -0.0954   0.00    0.0
2019/09/16 15:11:54.000   45.950208903  -66.641709016    20.1037   6  13   0.0931   0.0586   0.3221   0.0351   0.0098  -0.0953   0.00    0.0
2019/09/16 15:11:55.000   45.950208884  -66.641709052    20.0955   6  13   0.0929   0.0584   0.3216   0.0350   0.0099  -0.0951   0.00    0.0
2019/09/16 15:11:56.000   45.950208878  -66.641709090    20.0865   6  13   0.0927   0.0583   0.3211   0.0349   0.0099  -0.0950   0.00    0.0
2019/09/16 15:11:57.000   45.950208871  -66.641709108    20.0828   6  13   0.0925   0.0582   0.3207   0.0348   0.0100  -0.0948   0.00    0.0
2019/09/16 15:11:58.000   45.950208842  -66.641709145    20.0789   6  13   0.0923   0.0581   0.3202   0.0348   0.0100  -0.0947   0.00    0.0
2019/09/16 15:11:59.000   45.950208839  -66.641709165    20.0735   6  13   0.0921   0.0580   0.3197   0.0347   0.0101  -0.0945   0.00    0.0
2019/09/16 15:12:00.000   45.950208859  -66.641709184    20.0719   6  13   0.0919   0.0579   0.3192   0.0346   0.0101  -0.0944   0.00    0.0
2019/09/16 15:12:01.000   45.950208844  -66.641709188    20.0645   6  13   0.0918   0.0578   0.3187   0.0345   0.0102  -0.0942   0.00    0.0
2019/09/16 15:12:02.000   45.950208869  -66.641709173    20.0543   6  13   0.0916   0.0577   0.3182   0.0345   0.0102  -0.0941   0.00    0.0
2019/09/16 15:12:03.000   45.950208870  -66.641709185    20.0451   6  13   0.0914   0.0576   0.3177   0.0344   0.0103  -0.0939   0.00    0.0
2019/09/16 15:12:04.000   45.950208876  -66.641709181    20.0344   6  13   0.0912   0.0575   0.3173   0.0343   0.0104  -0.0937   0.00    0.0
2019/09/16 15:12:05.000   45.950208867  -66.641709177    20.0266   6  13   0.0910   0.0574   0.3168   0.0342   0.0104  -0.0936   0.00    0.0
2019/09/16 15:12:06.000   45.950208856  -66.641709194    20.0219   6  13   0.0909   0.0573   0.3163   0.0342   0.0105  -0.0934   0.00    0.0
2019/09/16 15:12:07.000   45.950208829  -66.641709219    20.0102   6  13   0.0907   0.0572   0.3158   0.0341   0.0105  -0.0933   0.00    0.0
2019/09/16 15:12:08.000   45.950208809  -66.641709229    20.0128   6  13   0.0905   0.0571   0.3153   0.0340   0.0105  -0.0931   0.00    0.0
2019/09/16 15:12:09.000   45.950208763  -66.641709245    20.0138   6  13   0.0903   0.0569   0.3149   0.0339   0.0106  -0.0930   0.00    0.0
2019/09/16 15:12:10.000   45.950208732  -66.641709266    20.0142   6  13   0.0902   0.0568   0.3144   0.0339   0.0106  -0.0928   0.00    0.0
2019/09/16 15:12:11.000   45.950208741  -66.641709266    20.0114   6  13   0.0900   0.0567   0.3139   0.0338   0.0107  -0.0927   0.00    0.0
2019/09/16 15:12:12.000   45.950208723  -66.641709279    20.0067   6  13   0.0898   0.0566   0.3134   0.0337   0.0107  -0.0925   0.00    0.0
2019/09/16 15:12:13.000   45.950208704  -66.641709261    20.0095   6  13   0.0896   0.0565   0.3129   0.0336   0.0108  -0.0924   0.00    0.0
2019/09/16 15:12:14.000   45.950208700  -66.641709269    20.0032   6  13   0.0895   0.0564   0.3125   0.0336   0.0108  -0.0922   0.00    0.0
2019/09/16 15:12:15.000   45.950208684  -66.641709286    19.9991   6  13   0.0893   0.0563   0.3120   0.0335   0.0108  -0.0921   0.00    0.0
2019/09/16 15:12:16.000   45.950208672  -66.641709282    19.9937   6  13   0.0891   0.0562   0.3115   0.0334   0.0109  -0.0919   0.00    0.0
2019/09/16 15:12:17.000   45.950208674  -66.641709281    19.9905   6  13   0.0890   0.0561   0.3110   0.0334   0.0109  -0.0918   0.00    0.0
2019/09/16 15:12:18.000   45.950208677  -66.641709288    19.9874   6  13   0.0888   0.0560   0.3106   0.0333   0.0110  -0.0916   0.00    0.0
2019/09/16 15:12:19.000   45.950208662  -66.641709251    19.9923   6  13   0.0886   0.0559   0.3101   0.0332   0.0110  -0.0915   0.00    0.0
2019/09/16 15:12:20.000   45.950208635  -66.641709272    19.9850   6  13   0.0885   0.0558   0.3096   0.0331   0.0110  -0.0913   0.00    0.0
2019/09/16 15:12:21.000   45.950208597  -66.641709315    19.9792   6  13   0.0883   0.0557   0.3092   0.0331   0.0111  -0.0912   0.00    0.0
2019/09/16 15:12:22.000   45.950208584  -66.641709294    19.9807   6  13   0.0881   0.0556   0.3087   0.0330   0.0111  -0.0910   0.00    0.0
2019/09/16 15:12:23.000   45.950208543  -66.641709280    19.9788   6  13   0.0880   0.0556   0.3082   0.0329   0.0111  -0.0909   0.00    0.0
2019/09/16 15:12:24.000   45.950208519  -66.641709259    19.9742   6  13   0.0878   0.0555   0.3077   0.0329   0.0112  -0.0907   0.00    0.0
2019/09/16 15:12:25.000   45.950208496  -66.641709248    19.9763   6  13   0.0876   0.0554   0.3073   0.0328   0.0112  -0.0906   0.00    0.0
2019/09/16 15:12:26.000   45.950208461  -66.641709236    19.9762   6  13   0.0875   0.0553   0.3068   0.0327   0.0112  -0.0904   0.00    0.0
2019/09/16 15:12:27.000   45.950208428  -66.641709247    19.9803   6  13   0.0873   0.0552   0.3063   0.0327   0.0113  -0.0903   0.00    0.0
2019/09/16 15:12:28.000   45.950208403  -66.641709257    19.9801   6  13   0.0871   0.0551   0.3059   0.0326   0.0113  -0.0902   0.00    0.0
2019/09/16 15:12:29.000   45.950208382  -66.641709272    19.9823   6  13   0.0870   0.0550   0.3054   0.0325   0.0113  -0.0900   0.00    0.0
2019/09/16 15:12:30.000   45.950208351  -66.641709262    19.9876   6  13   0.0868   0.0549   0.3049   0.0325   0.0114  -0.0899   0.00    0.0
2019/09/16 15:12:31.000   45.950208318  -66.641709268    19.9879   6  13   0.0867   0.0548   0.3045   0.0324   0.0114  -0.0897   0.00    0.0
2019/09/16 15:12:32.000   45.950208278  -66.641709279    19.9859   6  13   0.0865   0.0547   0.3040   0.0323   0.0114  -0.0896   0.00    0.0
2019/09/16 15:12:33.000   45.950208249  -66.641709272    19.9844   6  13   0.0863   0.0546   0.3035   0.0323   0.0115  -0.0894   0.00    0.0
2019/09/16 15:12:34.000   45.950208226  -66.641709267    19.9764   6  13   0.0862   0.0545   0.3031   0.0322   0.0115  -0.0893   0.00    0.0
2019/09/16 15:12:35.000   45.950208201  -66.641709290    19.9736   6  13   0.0860   0.0544   0.3026   0.0321   0.0115  -0.0891   0.00    0.0
2019/09/16 15:12:36.000   45.950208168  -66.641709309    19.9753   6  13   0.0859   0.0543   0.3021   0.0321   0.0115  -0.0890   0.00    0.0
2019/09/16 15:12:37.000   45.950208154  -66.641709324    19.9773   6  13   0.0857   0.0542   0.3017   0.0320   0.0116  -0.0889   0.00    0.0
2019/09/16 15:12:38.000   45.950208125  -66.641709359    19.9793   6  13   0.0856   0.0542   0.3012   0.0319   0.0116  -0.0887   0.00    0.0
2019/09/16 15:12:39.000   45.950208101  -66.641709376    19.9760   6  13   0.0854   0.0541   0.3008   0.0319   0.0116  -0.0886   0.00    0.0
2019/09/16 15:12:40.000   45.950208071  -66.641709375    19.9749   6  13   0.0853   0.0540   0.3003   0.0318   0.0116  -0.0884   0.00    0.0
2019/09/16 15:12:41.000   45.950208053  -66.641709381    19.9769   6  13   0.0851   0.0539   0.2998   0.0318   0.0117  -0.0883   0.00    0.0
2019/09/16 15:12:42.000   45.950208045  -66.641709374    19.9787   6  13   0.0850   0.0538   0.2994   0.0317   0.0117  -0.0881   0.00    0.0
2019/09/16 15:12:43.000   45.950208008  -66.641709402    19.9816   6  13   0.0848   0.0537   0.2989   0.0316   0.0117  -0.0880   0.00    0.0
2019/09/16 15:12:44.000   45.950207956  -66.641709399    19.9822   6  13   0.0847   0.0536   0.2985   0.0316   0.0117  -0.0879   0.00    0.0
2019/09/16 15:12:45.000   45.950207925  -66.641709389    19.9779   6  13   0.0845   0.0535   0.2980   0.0315   0.0118  -0.0877   0.00    0.0
2019/09/16 15:12:46.000   45.950207921  -66.641709388    19.9732   6  13   0.0844   0.0534   0.2976   0.0314   0.0118  -0.0876   0.00    0.0
2019/09/16 15:12:47.000   45.950207895  -66.641709371    19.9742   6  13   0.0842   0.0534   0.2971   0.0314   0.0118  -0.0874   0.00    0.0
2019/09/16 15:12:48.000   45.950207857  -66.641709372    19.9727   6  13   0.0841   0.0533   0.2966   0.0313   0.0118  -0.0873   0.00    0.0
2019/09/16 15:12:49.000   45.950207841  -66.641709362    19.9706   6  13   0.0839   0.0532   0.2962   0.0313   0.0119  -0.0872   0.00    0.0
2019/09/16 15:12:50.000   45.950207843  -66.641709365    19.9644   6  13   0.0838   0.0531   0.2957   0.0312   0.0119  -0.0870   0.00    0.0
2019/09/16 15:12:51.000   45.950207825  -66.641709367    19.9600   6  13   0.0836   0.0530   0.2953   0.0311   0.0119  -0.0869   0.00    0.0
2019/09/16 15:12:52.000   45.950207797  -66.641709364    19.9621   6  13   0.0835   0.0529   0.2948   0.0311   0.0119  -0.0867   0.00    0.0
2019/09/16 15:12:53.000   45.950207786  -66.641709354    19.9614   6  13   0.0833   0.0529   0.2944   0.0310   0.0119  -0.0866   0.00    0.0
2019/09/16 15:12:54.000   45.950207772  -66.641709349    19.9616   6  13   0.0832   0.0528   0.2939   0.0309   0.0120  -0.0865   0.00    0.0
2019/09/16 15:12:55.000   45.950207756  -66.641709346    19.9708   6  13   0.0830   0.0527   0.2935   0.0309   0.0120  -0.0863   0.00    0.0
2019/09/16 15:12:56.000   45.950207772  -66.641709336    19.9710   6  13   0.0829   0.0526   0.2930   0.0308   0.0120  -0.0862   0.00    0.0
2019/09/16 15:12:57.000   45.950207768  -66.641709313    19.9695   6  13   0.0828   0.0525   0.2926   0.0308   0.0120  -0.0861   0.00    0.0
2019/09/16 15:12:58.000   45.950207760  -66.641709313    19.9647   6  13   0.0826   0.0524   0.2921   0.0307   0.0120  -0.0859   0.00    0.0
2019/09/16 15:12:59.000   45.950207759  -66.641709317    19.9620   6  13   0.0825   0.0524   0.2917   0.0307   0.0120  -0.0858   0.00    0.0
2019/09/16 15:13:00.000   45.950207767  -66.641709336    19.9614   6  13   0.0823   0.0523   0.2912   0.0306   0.0121  -0.0856   0.00    0.0
2019/09/16 15:13:01.000   45.950207760  -66.641709332    19.9610   6  13   0.0822   0.0522   0.2908   0.0305   0.0121  -0.0855   0.00    0.0
2019/09/16 15:13:02.000   45.950207758  -66.641709336    19.9608   6  13   0.0820   0.0521   0.2904   0.0305   0.0121  -0.0854   0.00    0.0
2019/09/16 15:13:03.000   45.950207767  -66.641709328    19.9556   6  13   0.0819   0.0520   0.2899   0.0304   0.0121  -0.0852   0.00    0.0
2019/09/16 15:13:04.000   45.950207785  -66.641709325    19.9529   6  13   0.0818   0.0519   0.2895   0.0304   0.0121  -0.0851   0.00    0.0
2019/09/16 15:13:05.000   45.950207805  -66.641709317    19.9546   6  13   0.0816   0.0519   0.2890   0.0303   0.0121  -0.0850   0.00    0.0
2019/09/16 15:13:06.000   45.950207827  -66.641709320    19.9551   6  13   0.0815   0.0518   0.2886   0.0302   0.0122  -0.0848   0.00    0.0
2019/09/16 15:13:07.000   45.950207859  -66.641709314    19.9527   6  13   0.0814   0.0517   0.2881   0.0302   0.0122  -0.0847   0.00    0.0
2019/09/16 15:13:08.000   45.950207873  -66.641709311    19.9454   6  13   0.0812   0.0516   0.2877   0.0301   0.0122  -0.0846   0.00    0.0
2019/09/16 15:13:09.000   45.950207874  -66.641709312    19.9433   6  13   0.0811   0.0516   0.2873   0.0301   0.0122  -0.0844   0.00    0.0
2019/09/16 15:13:10.000   45.950207890  -66.641709322    19.9355   6  13   0.0809   0.0515   0.2868   0.0300   0.0122  -0.0843   0.00    0.0
2019/09/16 15:13:11.000   45.950207916  -66.641709324    19.9401   6  13   0.0808   0.0514   0.2864   0.0300   0.0122  -0.0842   0.00    0.0
2019/09/16 15:13:12.000   45.950207925  -66.641709322    19.9431   6  13   0.0807   0.0513   0.2860   0.0299   0.0122  -0.0840   0.00    0.0
2019/09/16 15:13:13.000   45.950207937  -66.641709318    19.9419   6  13   0.0805   0.0512   0.2855   0.0298   0.0123  -0.0839   0.00    0.0
2019/09/16 15:13:14.000   45.950207953  -66.641709310    19.9411   6  13   0.0804   0.0512   0.2851   0.0298   0.0123  -0.0838   0.00    0.0
2019/09/16 15:13:15.000   45.950207984  -66.641709289    19.9410   6  13   0.0803   0.0511   0.2846   0.0297   0.0123  -0.0836   0.00    0.0
2019/09/16 15:13:16.000   45.950207995  -66.641709288    19.9445   6  13   0.0801   0.0510   0.2842   0.0297   0.0123  -0.0835   0.00    0.0
2019/09/16 15:13:17.000   45.950208006  -66.641709266    19.9445   6  13   0.0800   0.0509   0.2838   0.0296   0.0123  -0.0834   0.00    0.0
2019/09/16 15:13:18.000   45.950208035  -66.641709255    19.9465   6  13   0.0799   0.0509   0.2833   0.0296   0.0123  -0.0832   0.00    0.0
2019/09/16 15:13:19.000   45.950208055  -66.641709249    19.9448   6  13   0.0797   0.0508   0.2829   0.0295   0.0123  -0.0831   0.00    0.0
2019/09/16 15:13:20.000   45.950208085  -66.641709231    19.9445   6  13   0.0796   0.0507   0.2825   0.0295   0.0123  -0.0830   0.00    0.0
2019/09/16 15:13:21.000   45.950208105  -66.641709214    19.9450   6  13   0.0795   0.0506   0.2821   0.0294   0.0123  -0.0829   0.00    0.0
2019/09/16 15:13:22.000   45.950208108  -66.641709197    19.9482   6  13   0.0794   0.0506   0.2816   0.0294   0.0124  -0.0827   0.00    0.0
2019/09/16 15:13:23.000   45.950208106  -66.641709191    19.9522   6  13   0.0792   0.0505   0.2812   0.0293   0.0124  -0.0826   0.00    0.0
2019/09/16 15:13:24.000   45.950208104  -66.641709192    19.9540   6  13   0.0791   0.0504   0.2808   0.0292   0.0124  -0.0825   0.00    0.0
2019/09/16 15:13:25.000   45.950208134  -66.641709176    19.9522   6  13   0.0790   0.0503   0.2803   0.0292   0.0124  -0.0823   0.00    0.0
2019/09/16 15:13:26.000   45.950208132  -66.641709173    19.9512   6  13   0.0788   0.0503   0.2799   0.0291   0.0124  -0.0822   0.00    0.0
2019/09/16 15:13:27.000   45.950208155  -66.641709183    19.9483   6  13   0.0787   0.0502   0.2795   0.0291   0.0124  -0.0821   0.00    0.0
2019/09/16 15:13:28.000   45.950208190  -66.641709179    19.9468   6  13   0.0786   0.0501   0.2791   0.0290   0.0124  -0.0820   0.00    0.0
2019/09/16 15:13:29.000   45.950208199  -66.641709178    19.9455   6  13   0.0785   0.0500   0.2786   0.0290   0.0124  -0.0818   0.00    0.0
2019/09/16 15:13:30.000   45.950208216  -66.641709164    19.9440   6  13   0.0783   0.0500   0.2782   0.0289   0.0124  -0.0817   0.00    0.0
2019/09/16 15:13:31.000   45.950208222  -66.641709157    19.9448   6  13   0.0782   0.0499   0.2778   0.0289   0.0124  -0.0816   0.00    0.0
2019/09/16 15:13:32.000   45.950208237  -66.641709137    19.9464   6  13   0.0781   0.0498   0.2774   0.0288   0.0125  -0.0815   0.00    0.0
2019/09/16 15:13:33.000   45.950208255  -66.641709116    19.9496   6  13   0.0780   0.0498   0.2769   0.0288   0.0125  -0.0813   0.00    0.0
2019/09/16 15:13:34.000   45.950208268  -66.641709084    19.9520   6  13   0.0778   0.0497   0.2765   0.0287   0.0125  -0.0812   0.00    0.0
2019/09/16 15:13:35.000   45.950208288  -66.641709065    19.9504   6  13   0.0777   0.0496   0.2761   0.0287   0.0125  -0.0811   0.00    0.0
2019/09/16 15:13:36.000   45.950208295  -66.641709046    19.9539   6  13   0.0776   0.0495   0.2757   0.0286   0.0125  -0.0810   0.00    0.0
2019/09/16 15:13:37.000   45.950208299  -66.641709036    19.9499   6  13   0.0775   0.0495   0.2753   0.0286   0.0125  -0.0808   0.00    0.0
2019/09/16 15:13:38.000   45.950208280  -66.641709035    19.9519   6  13   0.0773   0.0494   0.2748   0.0285   0.0125  -0.0807   0.00    0.0
2019/09/16 15:13:39.000   45.950208272  -66.641709004    19.9580   6  13   0.0772   0.0493   0.2744   0.0285   0.0125  -0.0806   0.00    0.0
2019/09/16 15:13:40.000   45.950208280  -66.641708991    19.9556   6  13   0.0771   0.0493   0.2740   0.0284   0.0125  -0.0805   0.00    0.0
2019/09/16 15:13:41.000   45.950208276  -66.641708990    19.9585   6  13   0.0770   0.0492   0.2736   0.0284   0.0125  -0.0803   0.00    0.0
2019/09/16 15:13:42.000   45.950208273  -66.641708985    19.9646   6  13   0.0769   0.0491   0.2732   0.0283   0.0125  -0.0802   0.00    0.0
2019/09/16 15:13:43.000   45.950208271  -66.641708972    19.9686   6  13   0.0767   0.0491   0.2728   0.0283   0.0125  -0.0801   0.00    0.0
2019/09/16 15:13:44.000   45.950208282  -66.641708976    19.9694   6  13   0.0766   0.0490   0.2724   0.0282   0.0125  -0.0800   0.00    0.0
2019/09/16 15:13:45.000   45.950208263  -66.641708975    19.9687   6  13   0.0765   0.0489   0.2719   0.0282   0.0125  -0.0799   0.00    0.0
2019/09/16 15:13:46.000   45.950208268  -66.641708965    19.9681   6  13   0.0764   0.0488   0.2715   0.0281   0.0126  -0.0797   0.00    0.0
2019/09/16 15:13:47.000   45.950208265  -66.641708955    19.9742   6  13   0.0763   0.0488   0.2711   0.0281   0.0126  -0.0796   0.00    0.0
2019/09/16 15:13:48.000   45.950208256  -66.641708969    19.9767   6  13   0.0761   0.0487   0.2707   0.0280   0.0126  -0.0795   0.00    0.0
2019/09/16 15:13:49.000   45.950208252  -66.641708990    19.9780   6  13   0.0760   0.0486   0.2703   0.0280   0.0126  -0.0794   0.00    0.0
2019/09/16 15:13:50.000   45.950208244  -66.641709005    19.9799   6  13   0.0759   0.0486   0.2699   0.0279   0.0126  -0.0793   0.00    0.0
2019/09/16 15:13:51.000   45.950208225  -66.641709010    19.9868   6  13   0.0758   0.0485   0.2695   0.0279   0.0126  -0.0791   0.00    0.0
2019/09/16 15:13:52.000   45.950208209  -66.641709030    19.9945   6  13   0.0757   0.0484   0.2691   0.0278   0.0126  -0.0790   0.00    0.0
2019/09/16 15:13:53.000   45.950208213  -66.641709025    20.0028   6  13   0.0756   0.0484   0.2687   0.0278   0.0126  -0.0789   0.00    0.0
2019/09/16 15:13:54.000   45.950208235  -66.641709017    20.0021   6  13   0.0754   0.0483   0.2683   0.0277   0.0126  -0.0788   0.00    0.0
2019/09/16 15:13:55.000   45.950208242  -66.641708996    20.0020   6  13   0.0753   0.0482   0.2679   0.0277   0.0126  -0.0787   0.00    0.0
2019/09/16 15:13:56.000   45.950208241  -66.641708986    20.0033   6  13   0.0752   0.0482   0.2675   0.0276   0.0126  -0.0785   0.00    0.0
2019/09/16 15:13:57.000   45.950208256  -66.641708981    19.9995   6  13   0.0751   0.0481   0.2671   0.0276   0.0126  -0.0784   0.00    0.0
2019/09/16 15:13:58.000   45.950208259  -66.641708992    19.9983   6  13   0.0750   0.0481   0.2666   0.0275   0.0126  -0.0783   0.00    0.0
2019/09/16 15:13:59.000   45.950208268  -66.641708994    19.9981   6  13   0.0749   0.0480   0.2662   0.0275   0.0126  -0.0782   0.00    0.0
2019/09/16 15:14:00.000   45.950208271  -66.641708987    20.0018   6  13   0.0748   0.0479   0.2658   0.0274   0.0126  -0.0781   0.00    0.0
2019/09/16 15:14:01.000   45.950208268  -66.641708981    20.0046   6  13   0.0747   0.0479   0.2654   0.0274   0.0126  -0.0780   0.00    0.0
2019/09/16 15:14:02.000   45.950208271  -66.641708959    20.0073   6  13   0.0745   0.0478   0.2650   0.0273   0.0126  -0.0778   0.00    0.0
2019/09/16 15:14:03.000   45.950208276  -66.641708925    20.0099   6  13   0.0744   0.0477   0.2646   0.0273   0.0126  -0.0777   0.00    0.0
2019/09/16 15:14:04.000   45.950208273  -66.641708917    20.0098   6  13   0.0743   0.0477   0.2643   0.0273   0.0126  -0.0776   0.00    0.0
2019/09/16 15:14:05.000   45.950208271  -66.641708929    20.0111   6  13   0.0742   0.0476   0.2639   0.0272   0.0126  -0.0775   0.00    0.0
2019/09/16 15:14:06.000   45.950208270  -66.641708948    20.0140   6  13   0.0741   0.0475   0.2635   0.0272   0.0126  -0.0774   0.00    0.0
2019/09/16 15:14:07.000   45.950208271  -66.641708952    20.0129   6  13   0.0740   0.0475   0.2631   0.0271   0.0127  -0.0773   0.00    0.0
2019/09/16 15:14:08.000   45.950208284  -66.641708949    20.0108   6  13   0.0739   0.0474   0.2627   0.0271   0.0127  -0.0772   0.00    0.0
2019/09/16 15:14:09.000   45.950208302  -66.641708944    20.0065   6  13   0.0738   0.0474   0.2623   0.0270   0.0127  -0.0770   0.00    0.0
2019/09/16 15:14:10.000   45.950208320  -66.641708942    20.0085   6  13   0.0737   0.0473   0.2619   0.0270   0.0127  -0.0769   0.00    0.0
2019/09/16 15:14:11.000   45.950208319  -66.641708946    20.0134   6  13   0.0735   0.0472   0.2615   0.0269   0.0127  -0.0768   0.00    0.0
2019/09/16 15:14:12.000   45.950208321  -66.641708956    20.0162   6  13   0.0734   0.0472   0.2611   0.0269   0.0127  -0.0767   0.00    0.0
2019/09/16 15:14:13.000   45.950208324  -66.641708989    20.0148   6  13   0.0733   0.0471   0.2607   0.0268   0.0127  -0.0766   0.00    0.0
2019/09/16 15:14:14.000   45.950208329  -66.641708996    20.0151   6  13   0.0732   0.0470   0.2603   0.0268   0.0127  -0.0765   0.00    0.0
2019/09/16 15:14:15.000   45.950208330  -66.641709006    20.0176   6  13   0.0731   0.0470   0.2599   0.0267   0.0127  -0.0764   0.00    0.0
2019/09/16 15:14:16.000   45.950208337  -66.641709001    20.0151   6  13   0.0730   0.0469   0.2595   0.0267   0.0127  -0.0763   0.00    0.0
2019/09/16 15:14:17.000   45.950208360  -66.641708995    20.0131   6  13   0.0729   0.0469   0.2592   0.0267   0.0127  -0.0761   0.00    0.0
2019/09/16 15:14:18.000   45.950208361  -66.641709004    20.0126   6  13   0.0728   0.0468   0.2588   0.0266   0.0127  -0.0760   0.00    0.0
2019/09/16 15:14:19.000   45.950208366  -66.641709010    20.0105   6  13   0.0727   0.0467   0.2584   0.0266   0.0127  -0.0759   0.00    0.0
2019/09/16 15:14:20.000   45.950208381  -66.641709014    20.0122   6  13   0.0726   0.0467   0.2580   0.0265   0.0127  -0.0758   0.00    0.0
2019/09/16 15:14:21.000   45.950208377  -66.641709024    20.0150   6  13   0.0725   0.0466   0.2576   0.0265   0.0127  -0.0757   0.00    0.0
2019/09/16 15:14:22.000   45.950208398  -66.641709011    20.0162   6  13   0.0724   0.0466   0.2572   0.0264   0.0127  -0.0756   0.00    0.0
2019/09/16 15:14:23.000   45.950208394  -66.641708991    20.0206   6  13   0.0723   0.0465   0.2568   0.0264   0.0127  -0.0755   0.00    0.0
2019/09/16 15:14:24.000   45.950208397  -66.641708984    20.0242   6  13   0.0722   0.0464   0.2565   0.0263   0.0127  -0.0754   0.00    0.0
2019/09/16 15:14:25.000   45.950208427  -66.641708972    20.0266   6  13   0.0721   0.0464   0.2561   0.0263   0.0127  -0.0753   0.00    0.0
