% program   : RTKLIB ver.2.4.2
% inp file  : ../data/CAR_2890.18O
% inp file  : ../data/CAR_2890.18N
% inp file  : ../data/igs20232.*
% obs start : 2018/10/16 19:05:36.0 GPST (week2023 241536.0s)
% obs end   : 2018/10/16 20:01:25.0 GPST (week2023 244885.0s)
% pos mode  : ppp-kinematic
% solution  : forward
% elev mask : 15.0 deg
% dynamics  : on
% tidecorr  : off
% tropo opt : est ztd
% ephemeris : precise
% antenna1  : APSAPS-3L       NONE  ( 0.0000  0.0000  0.0936)
%
% (lat/lon/height=WGS84/ellipsoidal,Q=1:fix,2:float,3:sbas,4:dgps,5:single,6:ppp,ns=# of satellites)
%  GPST                        latitude(deg) longitude(deg)  height(m)   Q  ns   sdn(m)   sde(m)   sdu(m)  sdne(m)  sdeu(m)  sdun(m) age(s)  ratio
2018/10/16 19:05:35.999572107   45.950323215  -66.641372289    -1.8382   6   4  15.1258   3.8723  17.9317  -6.7779  -7.5582  15.7835   0.00    0.0
2018/10/16 19:05:36.999572315   45.950330428  -66.641377355    -0.5379   6   4  10.7108   2.7403  12.6969  -4.7991  -5.3507  11.1769   0.00    0.0
2018/10/16 19:05:37.999572530   45.950320365  -66.641373413    -2.3915   6   4   8.7572   2.2391  10.3804  -3.9236  -4.3737   9.1386   0.00    0.0
2018/10/16 19:05:38.999572744   45.950306732  -66.641368758    -4.4794   6   4   7.5943   1.9406   9.0012  -3.4023  -3.7919   7.9253   0.00    0.0
2018/10/16 19:05:39.999572957   45.950292408  -66.641363057    -6.2561   6   4   6.8018   1.7370   8.0612  -3.0471  -3.3953   7.0984   0.00    0.0
2018/10/16 19:05:40.999573169   45.950281096  -66.641358079    -7.7990   6   4   6.2176   1.5869   7.3683  -2.7852  -3.1030   6.4890   0.00    0.0
2018/10/16 19:05:41.999573377   45.950273959  -66.641354470    -8.6086   6   4   5.7643   1.4703   6.8305  -2.5820  -2.8760   6.0160   0.00    0.0
2018/10/16 19:05:42.999573585   45.950271653  -66.641351533    -8.8176   6   4   5.3995   1.3764   6.3976  -2.4184  -2.6933   5.6354   0.00    0.0
2018/10/16 19:05:43.999573791   45.950273669  -66.641351194    -8.2875   6   4   5.0978   1.2987   6.0396  -2.2831  -2.5422   5.3207   0.00    0.0
2018/10/16 19:05:44.999573996   45.950279071  -66.641352961    -7.3113   6   4   4.8430   1.2330   5.7372  -2.1689  -2.4145   5.0549   0.00    0.0
2018/10/16 19:05:45.999574207   45.950281820  -66.641354642    -6.8071   6   4   4.6238   1.1765   5.4770  -2.0706  -2.3047   4.8261   0.00    0.0
2018/10/16 19:05:46.999574419   45.950283362  -66.641356251    -6.5816   6   4   4.4328   1.1272   5.2504  -1.9849  -2.2089   4.6269   0.00    0.0
2018/10/16 19:05:47.999574627   45.950285819  -66.641358217    -6.2550   6   4   4.2645   1.0837   5.0507  -1.9094  -2.1245   4.4514   0.00    0.0
2018/10/16 19:05:48.999574838   45.950286723  -66.641359465    -6.1013   6   4   4.1148   1.0450   4.8729  -1.8423  -2.0494   4.2952   0.00    0.0
2018/10/16 19:05:49.999575048   45.950286604  -66.641361130    -6.0458   6   4   3.9805   1.0103   4.7135  -1.7820  -1.9821   4.1552   0.00    0.0
2018/10/16 19:05:50.999575261   45.950285226  -66.641361907    -6.2384   6   4   3.8591   0.9789   4.5695  -1.7276  -1.9212   4.0286   0.00    0.0
2018/10/16 19:05:51.999575469   45.950285236  -66.641362588    -6.2694   6   4   3.7488   0.9503   4.4385  -1.6781  -1.8658   3.9136   0.00    0.0
2018/10/16 19:05:52.999575675   45.950287258  -66.641363525    -5.9723   6   4   3.6480   0.9242   4.3187  -1.6329  -1.8152   3.8084   0.00    0.0
2018/10/16 19:05:53.999575887   45.950288111  -66.641363699    -5.8166   6   4   3.5553   0.9002   4.2087  -1.5913  -1.7686   3.7118   0.00    0.0
2018/10/16 19:05:54.999576096   45.950289867  -66.641364399    -5.6009   6   4   3.4698   0.8780   4.1072  -1.5529  -1.7257   3.6226   0.00    0.0
2018/10/16 19:05:55.999576311   45.950289241  -66.641364232    -5.6992   6   4   3.3907   0.8574   4.0132  -1.5174  -1.6859   3.5401   0.00    0.0
2018/10/16 19:05:56.999576523   45.950288109  -66.641363371    -5.9152   6   4   3.3171   0.8383   3.9258  -1.4844  -1.6489   3.4634   0.00    0.0
2018/10/16 19:05:57.999576731   45.950288564  -66.641362838    -5.9094   6   4   3.2484   0.8205   3.8442  -1.4536  -1.6144   3.3918   0.00    0.0
2018/10/16 19:05:58.999576939   45.950289249  -66.641362480    -5.8682   6   4   3.1843   0.8038   3.7680  -1.4248  -1.5821   3.3249   0.00    0.0
2018/10/16 19:05:59.999577151   45.950289077  -66.641362215    -5.9299   6   4   3.1241   0.7881   3.6965  -1.3978  -1.5519   3.2622   0.00    0.0
2018/10/16 19:06:00.999577355   45.950291181  -66.641362874    -5.6489   6   4   3.0676   0.7734   3.6293  -1.3724  -1.5234   3.2033   0.00    0.0
2018/10/16 19:06:01.999577567   45.950292466  -66.641363670    -5.5167   6   4   3.0144   0.7595   3.5661  -1.3485  -1.4967   3.1478   0.00    0.0
2018/10/16 19:06:02.999577776   45.950293650  -66.641364602    -5.3879   6   4   2.9642   0.7464   3.5063  -1.3260  -1.4714   3.0954   0.00    0.0
2018/10/16 19:06:03.999577979   45.950296632  -66.641366296    -4.9666   6   4   2.9168   0.7340   3.4498  -1.3047  -1.4475   3.0459   0.00    0.0
2018/10/16 19:06:04.999578191   45.950298308  -66.641367658    -4.6885   6   4   2.8718   0.7223   3.3963  -1.2845  -1.4248   2.9990   0.00    0.0
2018/10/16 19:06:05.999578406   45.950298135  -66.641368236    -4.6675   6   4   2.8291   0.7111   3.3455  -1.2653  -1.4033   2.9545   0.00    0.0
2018/10/16 19:06:06.999578616   45.950298051  -66.641368672    -4.6317   6   4   2.7886   0.7005   3.2972  -1.2471  -1.3828   2.9122   0.00    0.0
2018/10/16 19:06:07.999578829   45.950297623  -66.641369113    -4.6713   6   4   2.7500   0.6904   3.2513  -1.2298  -1.3634   2.8720   0.00    0.0
2018/10/16 19:06:08.999579043   45.950295783  -66.641369047    -4.8654   6   4   2.7133   0.6808   3.2075  -1.2133  -1.3448   2.8337   0.00    0.0
2018/10/16 19:06:09.999579253   45.950293944  -66.641369214    -5.0307   6   4   2.6783   0.6716   3.1657  -1.1975  -1.3271   2.7971   0.00    0.0
2018/10/16 19:06:10.999579460   45.950293305  -66.641369893    -5.0024   6   4   2.6448   0.6628   3.1258  -1.1825  -1.3102   2.7622   0.00    0.0
2018/10/16 19:06:11.999579676   45.950290709  -66.641369792    -5.2646   6   4   2.6128   0.6544   3.0876  -1.1681  -1.2941   2.7288   0.00    0.0
2018/10/16 19:06:12.999579888   45.950287276  -66.641369400    -5.6230   6   4   2.5822   0.6463   3.0510  -1.1544  -1.2786   2.6969   0.00    0.0
2018/10/16 19:06:13.999580099   45.950283151  -66.641368553    -6.0109   6   4   2.5529   0.6386   3.0160  -1.1412  -1.2638   2.6663   0.00    0.0
2018/10/16 19:06:14.999580309   45.950279142  -66.641367524    -6.3775   6   4   2.5248   0.6312   2.9824  -1.1286  -1.2496   2.6369   0.00    0.0
2018/10/16 19:06:15.999580517   45.950276005  -66.641366814    -6.6003   6   4   2.4971   0.6239   2.9494  -1.1161  -1.2356   2.6081   0.00    0.0
2018/10/16 19:06:16.999580721   45.950274585  -66.641366715    -6.6120   6   4   2.4702   0.6168   2.9175  -1.1040  -1.2220   2.5801   0.00    0.0
2018/10/16 19:06:17.999580931   45.950273055  -66.641366626    -6.6693   6   4   2.4444   0.6100   2.8868  -1.0924  -1.2089   2.5532   0.00    0.0
2018/10/16 19:06:18.999581146   45.950270388  -66.641365969    -6.9053   6   4   2.4194   0.6034   2.8571  -1.0812  -1.1963   2.5272   0.00    0.0
2018/10/16 19:06:19.999581355   45.950268621  -66.641365539    -6.9940   6   4   2.3954   0.5970   2.8285  -1.0704  -1.1841   2.5022   0.00    0.0
2018/10/16 19:06:20.999581567   45.950266041  -66.641364832    -7.2027   6   4   2.3722   0.5909   2.8009  -1.0599  -1.1724   2.4780   0.00    0.0
2018/10/16 19:06:21.999581779   45.950263330  -66.641363951    -7.4332   6   4   2.3498   0.5849   2.7742  -1.0499  -1.1610   2.4547   0.00    0.0
2018/10/16 19:06:22.999581988   45.950261749  -66.641363755    -7.5045   6   4   2.3281   0.5792   2.7485  -1.0401  -1.1501   2.4322   0.00    0.0
2018/10/16 19:06:23.999582196   45.950260379  -66.641363538    -7.5220   6   4   2.3072   0.5736   2.7236  -1.0307  -1.1395   2.4104   0.00    0.0
2018/10/16 19:06:24.999582408   45.950258746  -66.641363231    -7.5839   6   4   2.2869   0.5683   2.6995  -1.0216  -1.1292   2.3893   0.00    0.0
2018/10/16 19:06:25.999582618   45.950256741  -66.641363004    -7.6980   6   4   2.2674   0.5631   2.6761  -1.0128  -1.1193   2.3689   0.00    0.0
2018/10/16 19:06:26.999582826   45.950254930  -66.641362875    -7.7737   6   4   2.2484   0.5580   2.6536  -1.0043  -1.1097   2.3492   0.00    0.0
2018/10/16 19:06:27.999583038   45.950252347  -66.641362320    -7.9666   6   4   2.2301   0.5531   2.6317  -0.9960  -1.1004   2.3301   0.00    0.0
2018/10/16 19:06:28.999583250   45.950249726  -66.641361785    -8.1669   6   4   2.2123   0.5484   2.6105  -0.9880  -1.0914   2.3116   0.00    0.0
2018/10/16 19:06:29.999583462   45.950246634  -66.641361005    -8.4045   6   4   2.1950   0.5438   2.5899  -0.9803  -1.0826   2.2936   0.00    0.0
2018/10/16 19:06:30.999583672   45.950244334  -66.641360599    -8.5609   6   4   2.1785   0.5394   2.5701  -0.9728  -1.0742   2.2764   0.00    0.0
2018/10/16 19:06:31.999583884   45.950242043  -66.641360217    -8.7205   6   4   2.1625   0.5351   2.5509  -0.9656  -1.0660   2.2597   0.00    0.0
2018/10/16 19:06:32.999584098   45.950239220  -66.641359685    -8.9670   6   4   2.1469   0.5309   2.5323  -0.9586  -1.0581   2.2435   0.00    0.0
2018/10/16 19:06:33.999584304   45.950237310  -66.641359544    -9.0796   6   4   2.1319   0.5269   2.5142  -0.9518  -1.0505   2.2277   0.00    0.0
2018/10/16 19:06:34.999584514   45.950235586  -66.641359464    -9.1764   6   4   2.1173   0.5230   2.4966  -0.9452  -1.0430   2.2125   0.00    0.0
2018/10/16 19:06:35.999584723   45.950234594  -66.641359483    -9.1840   6   4   2.1031   0.5191   2.4796  -0.9389  -1.0358   2.1977   0.00    0.0
2018/10/16 19:06:36.999584929   45.950234205  -66.641359629    -9.0874   6   4   2.0894   0.5154   2.4631  -0.9327  -1.0288   2.1833   0.00    0.0
2018/10/16 19:06:37.999585136   45.950234356  -66.641360091    -8.9136   6   4   2.0760   0.5119   2.4470  -0.9267  -1.0220   2.1694   0.00    0.0
2018/10/16 19:06:38.999585354   45.950233068  -66.641360092    -8.9658   6   4   2.0631   0.5084   2.4314  -0.9208  -1.0154   2.1559   0.00    0.0
2018/10/16 19:06:39.999585567   45.950231761  -66.641360032    -9.0201   6   4   2.0505   0.5050   2.4163  -0.9152  -1.0089   2.1428   0.00    0.0
2018/10/16 19:06:40.999585785   45.950228956  -66.641359470    -9.2938   6   4   2.0384   0.5017   2.4016  -0.9097  -1.0027   2.1300   0.00    0.0
2018/10/16 19:06:41.999586000   45.950225811  -66.641358789    -9.5860   6   4   2.0265   0.4985   2.3873  -0.9043  -0.9967   2.1177   0.00    0.0
2018/10/16 19:06:42.999586211   45.950222747  -66.641358070    -9.8567   6   4   2.0151   0.4954   2.3734  -0.8992  -0.9908   2.1057   0.00    0.0
2018/10/16 19:06:43.999586419   45.950219727  -66.641357442   -10.1133   6   4   2.0040   0.4923   2.3599  -0.8942  -0.9851   2.0940   0.00    0.0
2018/10/16 19:06:44.999586630   45.950217195  -66.641356904   -10.3034   6   4   1.9932   0.4894   2.3468  -0.8893  -0.9795   2.0827   0.00    0.0
2018/10/16 19:06:45.999586838   45.950215241  -66.641356562   -10.4077   6   4   1.9812   0.4862   2.3327  -0.8839  -0.9735   2.0704   0.00    0.0
2018/10/16 19:06:46.999587059   45.950211862  -66.641355657   -10.7189   6   4   1.9697   0.4831   2.3190  -0.8787  -0.9676   2.0584   0.00    0.0
2018/10/16 19:06:47.999587268   45.950209183  -66.641354997   -10.9739   6   4   1.9584   0.4800   2.3056  -0.8736  -0.9618   2.0467   0.00    0.0
2018/10/16 19:06:48.999587478   45.950206145  -66.641354221   -11.2775   6   4   1.9474   0.4770   2.2925  -0.8687  -0.9562   2.0353   0.00    0.0
2018/10/16 19:06:49.999587688   45.950203691  -66.641353585   -11.5096   6   4   1.9367   0.4741   2.2798  -0.8638  -0.9508   2.0242   0.00    0.0
2018/10/16 19:06:50.999587899   45.950201553  -66.641352993   -11.7191   6   4   1.9263   0.4713   2.2673  -0.8591  -0.9454   2.0134   0.00    0.0
2018/10/16 19:06:51.999588112   45.950199304  -66.641352183   -11.9560   6   4   1.9161   0.4685   2.2551  -0.8545  -0.9402   2.0028   0.00    0.0
2018/10/16 19:06:52.999588317   45.950197679  -66.641351544   -12.1286   6   4   1.9061   0.4658   2.2433  -0.8501  -0.9351   1.9925   0.00    0.0
2018/10/16 19:06:53.999588530   45.950195754  -66.641350694   -12.3449   6   4   1.8964   0.4631   2.2317  -0.8457  -0.9302   1.9824   0.00    0.0
2018/10/16 19:06:54.999588739   45.950194341  -66.641350036   -12.5122   6   4   1.8870   0.4606   2.2204  -0.8414  -0.9253   1.9725   0.00    0.0
2018/10/16 19:06:55.999588951   45.950193014  -66.641349563   -12.6597   6   4   1.8777   0.4580   2.2093  -0.8372  -0.9206   1.9629   0.00    0.0
2018/10/16 19:06:56.999589159   45.950191278  -66.641349094   -12.8293   6   4   1.8687   0.4556   2.1985  -0.8332  -0.9160   1.9536   0.00    0.0
2018/10/16 19:06:57.999589371   45.950189707  -66.641348747   -12.9978   6   4   1.8599   0.4531   2.1880  -0.8292  -0.9115   1.9445   0.00    0.0
2018/10/16 19:06:58.999589588   45.950187899  -66.641348273   -13.1864   6   4   1.8513   0.4508   2.1777  -0.8254  -0.9071   1.9355   0.00    0.0
2018/10/16 19:06:59.999589803   45.950185246  -66.641347483   -13.5111   6   4   1.8430   0.4485   2.1676  -0.8216  -0.9028   1.9269   0.00    0.0
2018/10/16 19:07:00.999590014   45.950183050  -66.641346809   -13.7482   6   4   1.8350   0.4463   2.1580  -0.8180  -0.8987   1.9185   0.00    0.0
2018/10/16 19:07:01.999590222   45.950180994  -66.641346271   -13.9614   6   4   1.8272   0.4441   2.1486  -0.8145  -0.8947   1.9104   0.00    0.0
2018/10/16 19:07:02.999590436   45.950178632  -66.641345736   -14.2267   6   4   1.8197   0.4420   2.1394  -0.8110  -0.8908   1.9025   0.00    0.0
2018/10/16 19:07:03.999590645   45.950176061  -66.641345081   -14.5255   6   4   1.8123   0.4400   2.1305  -0.8077  -0.8870   1.8949   0.00    0.0
2018/10/16 19:07:04.999590855   45.950174393  -66.641344740   -14.7061   6   4   1.8052   0.4380   2.1218  -0.8045  -0.8833   1.8874   0.00    0.0
2018/10/16 19:07:05.999591058   45.950173415  -66.641344472   -14.8117   6   4   1.7982   0.4361   2.1133  -0.8013  -0.8797   1.8801   0.00    0.0
2018/10/16 19:07:06.999591271   45.950172515  -66.641344179   -14.9159   6   4   1.7915   0.4342   2.1050  -0.7983  -0.8762   1.8730   0.00    0.0
2018/10/16 19:07:07.999591484   45.950171157  -66.641343678   -15.0993   6   4   1.7849   0.4323   2.0970  -0.7953  -0.8727   1.8661   0.00    0.0
2018/10/16 19:07:08.999591694   45.950170305  -66.641343332   -15.2344   6   4   1.7785   0.4305   2.0891  -0.7924  -0.8694   1.8594   0.00    0.0
2018/10/16 19:07:09.999591906   45.950169479  -66.641342890   -15.3546   6   4   1.7723   0.4288   2.0815  -0.7896  -0.8662   1.8529   0.00    0.0
2018/10/16 19:07:10.999592117   45.950168545  -66.641342435   -15.4986   6   4   1.7663   0.4271   2.0740  -0.7869  -0.8630   1.8466   0.00    0.0
2018/10/16 19:07:11.999592328   45.950167716  -66.641342174   -15.6060   6   4   1.7605   0.4254   2.0668  -0.7842  -0.8600   1.8405   0.00    0.0
2018/10/16 19:07:12.999592536   45.950167342  -66.641342017   -15.6562   6   4   1.7548   0.4238   2.0598  -0.7816  -0.8570   1.8345   0.00    0.0
2018/10/16 19:07:13.999592754   45.950166237  -66.641341616   -15.7796   6   4   1.7493   0.4223   2.0529  -0.7791  -0.8541   1.8287   0.00    0.0
2018/10/16 19:07:14.999592967   45.950165036  -66.641341124   -15.9367   6   4   1.7440   0.4207   2.0463  -0.7767  -0.8513   1.8231   0.00    0.0
2018/10/16 19:07:15.999593178   45.950163485  -66.641340572   -16.1159   6   4   1.7373   0.4189   2.0384  -0.7738  -0.8480   1.8163   0.00    0.0
2018/10/16 19:07:16.999593388   45.950162738  -66.641340250   -16.1921   6   4   1.7306   0.4170   2.0304  -0.7707  -0.8445   1.8094   0.00    0.0
2018/10/16 19:07:17.999593593   45.950162664  -66.641340223   -16.1887   6   4   1.7241   0.4152   2.0227  -0.7678  -0.8412   1.8026   0.00    0.0
2018/10/16 19:07:18.999593804   45.950162659  -66.641340139   -16.1759   6   4   1.7177   0.4134   2.0151  -0.7649  -0.8379   1.7960   0.00    0.0
2018/10/16 19:07:19.999594013   45.950162921  -66.641340204   -16.1568   6   4   1.7115   0.4117   2.0076  -0.7621  -0.8347   1.7896   0.00    0.0
2018/10/16 19:07:20.999594229   45.950162583  -66.641340094   -16.2112   6   4   1.7054   0.4100   2.0004  -0.7593  -0.8315   1.7833   0.00    0.0
2018/10/16 19:07:21.999594444   45.950162451  -66.641339978   -16.2646   6   4   1.6994   0.4083   1.9932  -0.7566  -0.8284   1.7771   0.00    0.0
2018/10/16 19:07:22.999594658   45.950161959  -66.641339651   -16.3497   6   4   1.6936   0.4067   1.9863  -0.7540  -0.8254   1.7711   0.00    0.0
2018/10/16 19:07:23.999594872   45.950161191  -66.641339226   -16.4758   6   4   1.6879   0.4051   1.9794  -0.7514  -0.8225   1.7652   0.00    0.0
2018/10/16 19:07:24.999595084   45.950160890  -66.641338863   -16.5270   6   4   1.6824   0.4035   1.9728  -0.7489  -0.8196   1.7595   0.00    0.0
2018/10/16 19:07:25.999595299   45.950160224  -66.641338358   -16.6323   6   4   1.6770   0.4020   1.9663  -0.7464  -0.8168   1.7539   0.00    0.0
2018/10/16 19:07:26.999595511   45.950159492  -66.641337795   -16.7335   6   4   1.6717   0.4005   1.9599  -0.7441  -0.8141   1.7484   0.00    0.0
2018/10/16 19:07:27.999595720   45.950158837  -66.641337216   -16.8119   6   4   1.6665   0.3990   1.9537  -0.7417  -0.8114   1.7431   0.00    0.0
2018/10/16 19:07:28.999595929   45.950158776  -66.641337037   -16.8056   6   4   1.6615   0.3976   1.9477  -0.7395  -0.8088   1.7379   0.00    0.0
2018/10/16 19:07:29.999596139   45.950159259  -66.641336923   -16.7444   6   4   1.6567   0.3962   1.9418  -0.7373  -0.8063   1.7328   0.00    0.0
2018/10/16 19:07:30.999596350   45.950159770  -66.641336761   -16.6790   6   4   1.6521   0.3948   1.9362  -0.7352  -0.8039   1.7281   0.00    0.0
2018/10/16 19:07:31.999596566   45.950160006  -66.641336611   -16.6483   6   4   1.6477   0.3936   1.9308  -0.7332  -0.8016   1.7235   0.00    0.0
2018/10/16 19:07:32.999596778   45.950160596  -66.641336734   -16.5793   6   4   1.6435   0.3923   1.9255  -0.7313  -0.7993   1.7190   0.00    0.0
2018/10/16 19:07:33.999596991   45.950160984  -66.641336850   -16.5245   6   4   1.6394   0.3911   1.9204  -0.7294  -0.7972   1.7147   0.00    0.0
2018/10/16 19:07:34.999597209   45.950161347  -66.641336854   -16.4475   6   4   1.6354   0.3900   1.9154  -0.7276  -0.7951   1.7105   0.00    0.0
2018/10/16 19:07:35.999597422   45.950161047  -66.641336596   -16.4836   6   4   1.6315   0.3888   1.9106  -0.7258  -0.7930   1.7065   0.00    0.0
2018/10/16 19:07:36.999597637   45.950160807  -66.641336361   -16.5125   6   4   1.6278   0.3877   1.9059  -0.7241  -0.7910   1.7026   0.00    0.0
2018/10/16 19:07:37.999597856   45.950160319  -66.641336133   -16.5534   6   4   1.6242   0.3866   1.9013  -0.7225  -0.7891   1.6988   0.00    0.0
2018/10/16 19:07:38.999598073   45.950159118  -66.641335701   -16.6848   6   4   1.6208   0.3856   1.8969  -0.7209  -0.7872   1.6951   0.00    0.0
2018/10/16 19:07:39.999598288   45.950157611  -66.641335181   -16.8549   6   4   1.6174   0.3846   1.8926  -0.7194  -0.7855   1.6916   0.00    0.0
2018/10/16 19:07:40.999598497   45.950156717  -66.641334893   -16.9503   6   4   1.6142   0.3836   1.8885  -0.7179  -0.7837   1.6882   0.00    0.0
2018/10/16 19:07:41.999598699   45.950157230  -66.641335154   -16.8675   6   4   1.6111   0.3827   1.8845  -0.7165  -0.7821   1.6850   0.00    0.0
2018/10/16 19:07:42.999598905   45.950158211  -66.641335438   -16.7303   6   4   1.6082   0.3818   1.8807  -0.7152  -0.7805   1.6818   0.00    0.0
2018/10/16 19:07:43.999599114   45.950159415  -66.641335782   -16.5548   6   4   1.6054   0.3809   1.8770  -0.7139  -0.7789   1.6788   0.00    0.0
2018/10/16 19:07:44.999599331   45.950160596  -66.641336106   -16.3964   6   4   1.6027   0.3800   1.8734  -0.7126  -0.7774   1.6759   0.00    0.0
2018/10/16 19:07:45.999599545   45.950161585  -66.641336444   -16.2826   6   4   1.5981   0.3787   1.8680  -0.7105  -0.7750   1.6712   0.00    0.0
2018/10/16 19:07:46.999599755   45.950162888  -66.641336729   -16.1409   6   4   1.5936   0.3774   1.8627  -0.7085  -0.7727   1.6667   0.00    0.0
2018/10/16 19:07:47.999599963   45.950164451  -66.641337140   -15.9659   6   4   1.5893   0.3762   1.8576  -0.7065  -0.7705   1.6622   0.00    0.0
2018/10/16 19:07:48.999600179   45.950165795  -66.641337418   -15.8351   6   4   1.5851   0.3750   1.8525  -0.7046  -0.7683   1.6578   0.00    0.0
2018/10/16 19:07:49.999600392   45.950167422  -66.641337802   -15.6603   6   4   1.5809   0.3738   1.8476  -0.7027  -0.7661   1.6536   0.00    0.0
2018/10/16 19:07:50.999600610   45.950168491  -66.641337850   -15.5642   6   4   1.5769   0.3726   1.8428  -0.7009  -0.7640   1.6495   0.00    0.0
2018/10/16 19:07:51.999600823   45.950169328  -66.641337744   -15.5041   6   4   1.5730   0.3715   1.8381  -0.6991  -0.7620   1.6454   0.00    0.0
2018/10/16 19:07:52.999601040   45.950170012  -66.641337661   -15.4466   6   4   1.5692   0.3703   1.8335  -0.6974  -0.7600   1.6415   0.00    0.0
2018/10/16 19:07:53.999601261   45.950170053  -66.641337252   -15.4920   6   4   1.5655   0.3692   1.8290  -0.6957  -0.7580   1.6377   0.00    0.0
2018/10/16 19:07:54.999601467   45.950170631  -66.641337048   -15.4424   6   4   1.5619   0.3682   1.8247  -0.6941  -0.7561   1.6340   0.00    0.0
2018/10/16 19:07:55.999601682   45.950171083  -66.641336948   -15.4089   6   4   1.5584   0.3671   1.8204  -0.6925  -0.7543   1.6304   0.00    0.0
2018/10/16 19:07:56.999601890   45.950171574  -66.641336838   -15.3708   6   4   1.5550   0.3661   1.8163  -0.6909  -0.7525   1.6269   0.00    0.0
2018/10/16 19:07:57.999602099   45.950172431  -66.641336875   -15.2821   6   4   1.5517   0.3652   1.8123  -0.6894  -0.7508   1.6235   0.00    0.0
2018/10/16 19:07:58.999602309   45.950173754  -66.641337093   -15.1441   6   4   1.5485   0.3642   1.8084  -0.6880  -0.7491   1.6202   0.00    0.0
2018/10/16 19:07:59.999602522   45.950174472  -66.641337050   -15.0776   6   4   1.5455   0.3633   1.8047  -0.6866  -0.7475   1.6170   0.00    0.0
2018/10/16 19:08:00.999602738   45.950175467  -66.641337062   -14.9793   6   4   1.5427   0.3624   1.8012  -0.6854  -0.7460   1.6141   0.00    0.0
2018/10/16 19:08:01.999602952   45.950176039  -66.641337021   -14.9214   6   4   1.5401   0.3616   1.7979  -0.6842  -0.7446   1.6114   0.00    0.0
2018/10/16 19:08:02.999603158   45.950176865  -66.641337039   -14.8456   6   4   1.5376   0.3608   1.7947  -0.6830  -0.7432   1.6088   0.00    0.0
2018/10/16 19:08:03.999603366   45.950178396  -66.641337354   -14.6630   6   4   1.5352   0.3601   1.7916  -0.6819  -0.7419   1.6063   0.00    0.0
2018/10/16 19:08:04.999603579   45.950179927  -66.641337702   -14.4869   6   4   1.5330   0.3593   1.7886  -0.6809  -0.7407   1.6039   0.00    0.0
2018/10/16 19:08:05.999603790   45.950181394  -66.641338034   -14.3127   6   4   1.5308   0.3586   1.7858  -0.6799  -0.7395   1.6016   0.00    0.0
2018/10/16 19:08:06.999604006   45.950182916  -66.641338369   -14.1337   6   4   1.5288   0.3580   1.7830  -0.6789  -0.7383   1.5994   0.00    0.0
2018/10/16 19:08:07.999604221   45.950184003  -66.641338564   -14.0137   6   4   1.5268   0.3573   1.7804  -0.6780  -0.7372   1.5973   0.00    0.0
2018/10/16 19:08:08.999604434   45.950185010  -66.641338671   -13.9171   6   4   1.5250   0.3567   1.7779  -0.6772  -0.7362   1.5954   0.00    0.0
2018/10/16 19:08:09.999604645   45.950186164  -66.641338769   -13.7870   6   4   1.5233   0.3561   1.7756  -0.6764  -0.7352   1.5936   0.00    0.0
2018/10/16 19:08:10.999604848   45.950188061  -66.641339067   -13.5647   6   4   1.5217   0.3555   1.7733  -0.6756  -0.7343   1.5918   0.00    0.0
2018/10/16 19:08:11.999605062   45.950189610  -66.641339169   -13.3866   6   4   1.5202   0.3550   1.7712  -0.6749  -0.7334   1.5902   0.00    0.0
2018/10/16 19:08:12.999605273   45.950191476  -66.641339385   -13.1656   6   4   1.5188   0.3545   1.7692  -0.6743  -0.7326   1.5887   0.00    0.0
2018/10/16 19:08:13.999605483   45.950193094  -66.641339567   -12.9656   6   4   1.5176   0.3540   1.7673  -0.6737  -0.7318   1.5873   0.00    0.0
2018/10/16 19:08:14.999605701   45.950194183  -66.641339611   -12.8350   6   4   1.5164   0.3535   1.7655  -0.6732  -0.7311   1.5861   0.00    0.0
2018/10/16 19:08:15.999605910   45.950195849  -66.641339960   -12.6247   6   4   1.5133   0.3526   1.7619  -0.6718  -0.7295   1.5829   0.00    0.0
2018/10/16 19:08:16.999606120   45.950197450  -66.641340295   -12.4178   6   4   1.5100   0.3517   1.7581  -0.6703  -0.7278   1.5796   0.00    0.0
2018/10/16 19:08:17.999606331   45.950199266  -66.641340733   -12.1764   6   4   1.5069   0.3507   1.7544  -0.6688  -0.7262   1.5764   0.00    0.0
2018/10/16 19:08:18.999606542   45.950201213  -66.641341205   -11.9200   6   4   1.5038   0.3498   1.7507  -0.6674  -0.7246   1.5733   0.00    0.0
2018/10/16 19:08:19.999606755   45.950202921  -66.641341566   -11.7011   6   4   1.5009   0.3489   1.7472  -0.6661  -0.7230   1.5703   0.00    0.0
2018/10/16 19:08:20.999606966   45.950204401  -66.641341868   -11.5127   6   4   1.4980   0.3480   1.7438  -0.6648  -0.7215   1.5673   0.00    0.0
2018/10/16 19:08:21.999607177   45.950206330  -66.641342324   -11.2742   6   4   1.4952   0.3472   1.7404  -0.6635  -0.7200   1.5645   0.00    0.0
2018/10/16 19:08:22.999607395   45.950207771  -66.641342600   -11.0925   6   4   1.4926   0.3464   1.7372  -0.6623  -0.7186   1.5618   0.00    0.0
2018/10/16 19:08:23.999607615   45.950208660  -66.641342662   -10.9827   6   4   1.4900   0.3456   1.7341  -0.6611  -0.7172   1.5591   0.00    0.0
2018/10/16 19:08:24.999607831   45.950209622  -66.641342660   -10.8550   6   4   1.4875   0.3448   1.7311  -0.6600  -0.7159   1.5566   0.00    0.0
2018/10/16 19:08:25.999608042   45.950211002  -66.641342810   -10.6817   6   4   1.4852   0.3441   1.7281  -0.6589  -0.7146   1.5541   0.00    0.0
2018/10/16 19:08:26.999608264   45.950211735  -66.641342725   -10.6097   6   4   1.4829   0.3433   1.7253  -0.6578  -0.7134   1.5518   0.00    0.0
2018/10/16 19:08:27.999608482   45.950212148  -66.641342548   -10.5878   6   4   1.4807   0.3426   1.7226  -0.6568  -0.7122   1.5495   0.00    0.0
2018/10/16 19:08:28.999608697   45.950212293  -66.641342293   -10.6118   6   4   1.4786   0.3420   1.7200  -0.6559  -0.7111   1.5474   0.00    0.0
2018/10/16 19:08:29.999608905   45.950212684  -66.641342117   -10.5937   6   4   1.4767   0.3413   1.7175  -0.6550  -0.7100   1.5454   0.00    0.0
2018/10/16 19:08:30.999609119   45.950213512  -66.641342092   -10.5270   6   4   1.4751   0.3408   1.7154  -0.6542  -0.7091   1.5437   0.00    0.0
2018/10/16 19:08:31.999609330   45.950214297  -66.641342171   -10.4404   6   4   1.4736   0.3402   1.7134  -0.6535  -0.7082   1.5421   0.00    0.0
2018/10/16 19:08:32.999609538   45.950215368  -66.641342348   -10.3170   6   4   1.4722   0.3397   1.7115  -0.6529  -0.7074   1.5406   0.00    0.0
2018/10/16 19:08:33.999609747   45.950216647  -66.641342577   -10.1550   6   4   1.4709   0.3393   1.7097  -0.6523  -0.7067   1.5393   0.00    0.0
2018/10/16 19:08:34.999609955   45.950217947  -66.641342769    -9.9937   6   4   1.4697   0.3388   1.7080  -0.6517  -0.7060   1.5380   0.00    0.0
2018/10/16 19:08:35.999610165   45.950219526  -66.641343143    -9.7918   6   4   1.4687   0.3384   1.7065  -0.6512  -0.7053   1.5369   0.00    0.0
2018/10/16 19:08:36.999610377   45.950220870  -66.641343500    -9.6104   6   4   1.4677   0.3380   1.7050  -0.6508  -0.7047   1.5359   0.00    0.0
2018/10/16 19:08:37.999610595   45.950222120  -66.641343853    -9.4402   6   4   1.4669   0.3376   1.7037  -0.6504  -0.7042   1.5349   0.00    0.0
2018/10/16 19:08:38.999610807   45.950223512  -66.641344199    -9.2578   6   4   1.4661   0.3373   1.7025  -0.6500  -0.7037   1.5341   0.00    0.0
2018/10/16 19:08:39.999611025   45.950224360  -66.641344390    -9.1453   6   4   1.4655   0.3369   1.7013  -0.6497  -0.7032   1.5334   0.00    0.0
2018/10/16 19:08:40.999611239   45.950225263  -66.641344538    -9.0194   6   4   1.4650   0.3366   1.7004  -0.6494  -0.7029   1.5328   0.00    0.0
2018/10/16 19:08:41.999611458   45.950225682  -66.641344460    -8.9714   6   4   1.4646   0.3364   1.6995  -0.6492  -0.7025   1.5323   0.00    0.0
2018/10/16 19:08:42.999611671   45.950226022  -66.641344406    -8.9264   6   4   1.4643   0.3361   1.6987  -0.6491  -0.7022   1.5319   0.00    0.0
2018/10/16 19:08:43.999611881   45.950226696  -66.641344407    -8.8528   6   4   1.4641   0.3359   1.6981  -0.6490  -0.7020   1.5317   0.00    0.0
2018/10/16 19:08:44.999612095   45.950227726  -66.641344558    -8.7296   6   4   1.4641   0.3357   1.6975  -0.6489  -0.7018   1.5315   0.00    0.0
2018/10/16 19:08:45.999612308   45.950228089  -66.641344525    -8.7005   6   4   1.4616   0.3350   1.6944  -0.6477  -0.7005   1.5289   0.00    0.0
2018/10/16 19:08:46.999612520   45.950229296  -66.641344838    -8.5638   6   4   1.4591   0.3342   1.6915  -0.6466  -0.6991   1.5264   0.00    0.0
2018/10/16 19:08:47.999612740   45.950229966  -66.641344981    -8.5057   6   4   1.4567   0.3334   1.6887  -0.6455  -0.6979   1.5240   0.00    0.0
2018/10/16 19:08:48.999612953   45.950230855  -66.641345242    -8.4180   6   4   1.4544   0.3327   1.6859  -0.6444  -0.6966   1.5216   0.00    0.0
2018/10/16 19:08:49.999613174   45.950231520  -66.641345465    -8.3629   6   4   1.4522   0.3320   1.6833  -0.6434  -0.6955   1.5194   0.00    0.0
2018/10/16 19:08:50.999613388   45.950231628  -66.641345447    -8.3815   6   4   1.4501   0.3314   1.6808  -0.6424  -0.6943   1.5172   0.00    0.0
2018/10/16 19:08:51.999613603   45.950232017  -66.641345560    -8.3566   6   4   1.4480   0.3307   1.6783  -0.6415  -0.6932   1.5152   0.00    0.0
2018/10/16 19:08:52.999613818   45.950232292  -66.641345613    -8.3401   6   4   1.4461   0.3301   1.6760  -0.6406  -0.6922   1.5132   0.00    0.0
2018/10/16 19:08:53.999614027   45.950232626  -66.641345687    -8.3082   6   4   1.4443   0.3295   1.6738  -0.6398  -0.6912   1.5114   0.00    0.0
2018/10/16 19:08:54.999614240   45.950233268  -66.641345845    -8.2371   6   4   1.4425   0.3289   1.6716  -0.6390  -0.6903   1.5096   0.00    0.0
2018/10/16 19:08:55.999614451   45.950233285  -66.641345807    -8.2441   6   4   1.4409   0.3284   1.6696  -0.6382  -0.6894   1.5079   0.00    0.0
2018/10/16 19:08:56.999614663   45.950233781  -66.641345876    -8.1945   6   4   1.4394   0.3278   1.6677  -0.6375  -0.6885   1.5064   0.00    0.0
2018/10/16 19:08:57.999614880   45.950233753  -66.641345847    -8.2168   6   4   1.4379   0.3273   1.6658  -0.6368  -0.6877   1.5049   0.00    0.0
2018/10/16 19:08:58.999615092   45.950233933  -66.641345909    -8.2036   6   4   1.4366   0.3268   1.6641  -0.6362  -0.6870   1.5035   0.00    0.0
2018/10/16 19:08:59.999615307   45.950234759  -66.641346172    -8.1082   6   4   1.4354   0.3264   1.6625  -0.6357  -0.6862   1.5023   0.00    0.0
2018/10/16 19:09:00.999615515   45.950235567  -66.641346455    -8.0325   6   4   1.4345   0.3260   1.6613  -0.6352  -0.6857   1.5014   0.00    0.0
2018/10/16 19:09:01.999615727   45.950235966  -66.641346575    -7.9906   6   4   1.4338   0.3257   1.6601  -0.6349  -0.6852   1.5006   0.00    0.0
2018/10/16 19:09:02.999615940   45.950236224  -66.641346653    -7.9745   6   4   1.4332   0.3254   1.6591  -0.6346  -0.6848   1.5000   0.00    0.0
2018/10/16 19:09:03.999616158   45.950236255  -66.641346688    -7.9955   6   4   1.4328   0.3251   1.6583  -0.6343  -0.6845   1.4994   0.00    0.0
2018/10/16 19:09:04.999616372   45.950237005  -66.641346991    -7.9250   6   4   1.4324   0.3248   1.6575  -0.6341  -0.6841   1.4990   0.00    0.0
2018/10/16 19:09:05.999616590   45.950237201  -66.641347039    -7.9202   6   4   1.4321   0.3246   1.6568  -0.6340  -0.6839   1.4987   0.00    0.0
2018/10/16 19:09:06.999616802   45.950237128  -66.641346980    -7.9397   6   4   1.4320   0.3244   1.6563  -0.6339  -0.6837   1.4984   0.00    0.0
2018/10/16 19:09:07.999617011   45.950237563  -66.641347141    -7.8866   6   4   1.4319   0.3242   1.6558  -0.6338  -0.6835   1.4983   0.00    0.0
2018/10/16 19:09:08.999617222   45.950238009  -66.641347243    -7.8186   6   4   1.4320   0.3241   1.6555  -0.6338  -0.6834   1.4984   0.00    0.0
2018/10/16 19:09:09.999617442   45.950238175  -66.641347228    -7.7845   6   4   1.4322   0.3239   1.6553  -0.6339  -0.6834   1.4985   0.00    0.0
2018/10/16 19:09:10.999617655   45.950238609  -66.641347262    -7.7202   6   4   1.4325   0.3238   1.6553  -0.6340  -0.6834   1.4987   0.00    0.0
2018/10/16 19:09:11.999617868   45.950238685  -66.641347120    -7.7028   6   4   1.4329   0.3238   1.6553  -0.6341  -0.6834   1.4991   0.00    0.0
2018/10/16 19:09:12.999618078   45.950239423  -66.641347233    -7.6034   6   4   1.4334   0.3237   1.6554  -0.6343  -0.6835   1.4995   0.00    0.0
2018/10/16 19:09:13.999618292   45.950240200  -66.641347422    -7.5031   6   4   1.4341   0.3237   1.6557  -0.6346  -0.6837   1.5001   0.00    0.0
2018/10/16 19:09:14.999618509   45.950240365  -66.641347389    -7.4837   6   4   1.4348   0.3237   1.6561  -0.6349  -0.6839   1.5008   0.00    0.0
2018/10/16 19:09:15.999618721   45.950240279  -66.641347334    -7.4981   6   4   1.4329   0.3232   1.6541  -0.6341  -0.6830   1.4990   0.00    0.0
2018/10/16 19:09:16.999618934   45.950240686  -66.641347503    -7.4383   6   4   1.4309   0.3225   1.6517  -0.6332  -0.6820   1.4970   0.00    0.0
2018/10/16 19:09:17.999619149   45.950240799  -66.641347552    -7.4084   6   4   1.4290   0.3219   1.6495  -0.6323  -0.6809   1.4951   0.00    0.0
2018/10/16 19:09:18.999619370   45.950240954  -66.641347570    -7.3878   6   4   1.4272   0.3213   1.6473  -0.6314  -0.6800   1.4932   0.00    0.0
2018/10/16 19:09:19.999619587   45.950240847  -66.641347516    -7.3804   6   4   1.4255   0.3208   1.6453  -0.6306  -0.6790   1.4915   0.00    0.0
2018/10/16 19:09:20.999619816   45.950239711  -66.641347064    -7.5127   6   4   1.4239   0.3202   1.6433  -0.6299  -0.6781   1.4899   0.00    0.0
2018/10/16 19:09:21.999620026   45.950238359  -66.641346572    -7.6693   6   4   1.4223   0.3197   1.6415  -0.6292  -0.6773   1.4884   0.00    0.0
2018/10/16 19:09:22.999620237   45.950238089  -66.641346440    -7.6945   6   4   1.4209   0.3192   1.6398  -0.6285  -0.6765   1.4870   0.00    0.0
2018/10/16 19:09:23.999620451   45.950237610  -66.641346221    -7.7415   6   4   1.4196   0.3187   1.6381  -0.6279  -0.6758   1.4856   0.00    0.0
2018/10/16 19:09:24.999620655   45.950237409  -66.641346128    -7.7553   6   4   1.4184   0.3183   1.6366  -0.6273  -0.6751   1.4844   0.00    0.0
2018/10/16 19:09:25.999620867   45.950237245  -66.641346050    -7.7615   6   4   1.4173   0.3179   1.6352  -0.6268  -0.6745   1.4833   0.00    0.0
2018/10/16 19:09:26.999621082   45.950237294  -66.641346034    -7.7409   6   4   1.4163   0.3175   1.6339  -0.6263  -0.6739   1.4823   0.00    0.0
2018/10/16 19:09:27.999621296   45.950237207  -66.641346000    -7.7589   6   4   1.4154   0.3171   1.6327  -0.6259  -0.6733   1.4814   0.00    0.0
2018/10/16 19:09:28.999621514   45.950237494  -66.641346077    -7.7178   6   4   1.4147   0.3167   1.6316  -0.6255  -0.6728   1.4806   0.00    0.0
2018/10/16 19:09:29.999621719   45.950237883  -66.641346200    -7.6764   6   4   1.4140   0.3164   1.6307  -0.6252  -0.6724   1.4799   0.00    0.0
2018/10/16 19:09:30.999621931   45.950238407  -66.641346335    -7.6240   6   4   1.4138   0.3162   1.6301  -0.6251  -0.6722   1.4796   0.00    0.0
2018/10/16 19:09:31.999622152   45.950238370  -66.641346293    -7.6328   6   4   1.4137   0.3160   1.6297  -0.6250  -0.6720   1.4795   0.00    0.0
2018/10/16 19:09:32.999622368   45.950238302  -66.641346231    -7.6468   6   4   1.4137   0.3159   1.6294  -0.6250  -0.6719   1.4795   0.00    0.0
2018/10/16 19:09:33.999622587   45.950238205  -66.641346177    -7.6499   6   4   1.4138   0.3157   1.6293  -0.6250  -0.6718   1.4796   0.00    0.0
2018/10/16 19:09:34.999622802   45.950237753  -66.641346035    -7.6990   6   4   1.4141   0.3156   1.6292  -0.6251  -0.6718   1.4798   0.00    0.0
2018/10/16 19:09:35.999623020   45.950237118  -66.641345840    -7.7649   6   4   1.4144   0.3156   1.6293  -0.6252  -0.6719   1.4802   0.00    0.0
2018/10/16 19:09:36.999623235   45.950237037  -66.641345830    -7.7685   6   4   1.4149   0.3155   1.6295  -0.6254  -0.6720   1.4806   0.00    0.0
2018/10/16 19:09:37.999623445   45.950236739  -66.641345747    -7.7967   6   4   1.4155   0.3155   1.6298  -0.6257  -0.6722   1.4812   0.00    0.0
2018/10/16 19:09:38.999623655   45.950236529  -66.641345719    -7.8100   6   4   1.4163   0.3155   1.6302  -0.6260  -0.6724   1.4819   0.00    0.0
2018/10/16 19:09:39.999623866   45.950236077  -66.641345591    -7.8539   6   4   1.4171   0.3156   1.6308  -0.6263  -0.6727   1.4827   0.00    0.0
2018/10/16 19:09:40.999624081   45.950235790  -66.641345459    -7.8751   6   4   1.4181   0.3156   1.6315  -0.6267  -0.6730   1.4837   0.00    0.0
2018/10/16 19:09:41.999624309   45.950235128  -66.641345217    -7.9367   6   4   1.4192   0.3157   1.6323  -0.6272  -0.6734   1.4847   0.00    0.0
2018/10/16 19:09:42.999624519   45.950234256  -66.641344879    -8.0388   6   4   1.4204   0.3158   1.6332  -0.6277  -0.6739   1.4859   0.00    0.0
2018/10/16 19:09:43.999624733   45.950233806  -66.641344632    -8.0903   6   4   1.4217   0.3160   1.6343  -0.6283  -0.6744   1.4872   0.00    0.0
2018/10/16 19:09:44.999624951   45.950232508  -66.641344138    -8.2588   6   4   1.4232   0.3162   1.6355  -0.6289  -0.6750   1.4886   0.00    0.0
2018/10/16 19:09:45.999625168   45.950231849  -66.641343874    -8.3333   6   4   1.4319   0.3179   1.6441  -0.6331  -0.6790   1.4973   0.00    0.0
2018/10/16 19:09:46.999625384   45.950230370  -66.641343332    -8.5200   6   4   1.4298   0.3172   1.6417  -0.6320  -0.6778   1.4952   0.00    0.0
2018/10/16 19:09:47.999625597   45.950229540  -66.641343081    -8.6113   6   4   1.4277   0.3166   1.6393  -0.6311  -0.6768   1.4931   0.00    0.0
2018/10/16 19:09:48.999625818   45.950227995  -66.641342561    -8.7884   6   4   1.4257   0.3160   1.6371  -0.6301  -0.6757   1.4912   0.00    0.0
2018/10/16 19:09:49.999626026   45.950226651  -66.641342154    -8.9406   6   4   1.4239   0.3154   1.6350  -0.6293  -0.6747   1.4893   0.00    0.0
2018/10/16 19:09:50.999626245   45.950225964  -66.641341995    -9.0055   6   4   1.4221   0.3148   1.6330  -0.6284  -0.6738   1.4876   0.00    0.0
2018/10/16 19:09:51.999626461   45.950224627  -66.641341596    -9.1751   6   4   1.4205   0.3143   1.6311  -0.6276  -0.6729   1.4859   0.00    0.0
2018/10/16 19:09:52.999626669   45.950224153  -66.641341553    -9.2252   6   4   1.4189   0.3138   1.6292  -0.6269  -0.6721   1.4844   0.00    0.0
2018/10/16 19:09:53.999626880   45.950222780  -66.641341153    -9.3814   6   4   1.4174   0.3133   1.6275  -0.6262  -0.6713   1.4830   0.00    0.0
2018/10/16 19:09:54.999627094   45.950222201  -66.641341002    -9.4467   6   4   1.4161   0.3128   1.6260  -0.6256  -0.6705   1.4816   0.00    0.0
2018/10/16 19:09:55.999627304   45.950221704  -66.641340897    -9.4894   6   4   1.4149   0.3124   1.6245  -0.6250  -0.6698   1.4804   0.00    0.0
2018/10/16 19:09:56.999627525   45.950221215  -66.641340769    -9.5406   6   4   1.4137   0.3120   1.6231  -0.6244  -0.6692   1.4793   0.00    0.0
2018/10/16 19:09:57.999627742   45.950219944  -66.641340379    -9.7078   6   4   1.4127   0.3116   1.6218  -0.6239  -0.6686   1.4783   0.00    0.0
2018/10/16 19:09:58.999627954   45.950219209  -66.641340179    -9.7828   6   4   1.4118   0.3112   1.6207  -0.6235  -0.6681   1.4774   0.00    0.0
2018/10/16 19:09:59.999628171   45.950217524  -66.641339624    -9.9843   6   4   1.4110   0.3109   1.6197  -0.6231  -0.6676   1.4766   0.00    0.0
2018/10/16 19:10:00.999628388   45.950216917  -66.641339443   -10.0493   6   4   1.4118   0.3109   1.6202  -0.6234  -0.6679   1.4773   0.00    0.0
2018/10/16 19:10:01.999628608   45.950215409  -66.641338956   -10.2390   6   4   1.4128   0.3110   1.6210  -0.6238  -0.6682   1.4784   0.00    0.0
2018/10/16 19:10:02.999628823   45.950214405  -66.641338656   -10.3603   6   4   1.4140   0.3111   1.6219  -0.6243  -0.6687   1.4795   0.00    0.0
2018/10/16 19:10:03.999629032   45.950213491  -66.641338362   -10.4796   6   4   1.4153   0.3112   1.6230  -0.6249  -0.6691   1.4808   0.00    0.0
2018/10/16 19:10:04.999629248   45.950212708  -66.641338093   -10.5800   6   4   1.4167   0.3114   1.6241  -0.6255  -0.6697   1.4821   0.00    0.0
2018/10/16 19:10:05.999629474   45.950211703  -66.641337741   -10.7208   6   4   1.4182   0.3116   1.6255  -0.6262  -0.6703   1.4837   0.00    0.0
2018/10/16 19:10:06.999629691   45.950210144  -66.641337181   -10.9346   6   4   1.4199   0.3118   1.6269  -0.6269  -0.6710   1.4853   0.00    0.0
2018/10/16 19:10:07.999629901   45.950209160  -66.641336834   -11.0662   6   4   1.4217   0.3120   1.6285  -0.6277  -0.6717   1.4871   0.00    0.0
2018/10/16 19:10:08.999630113   45.950208464  -66.641336576   -11.1555   6   4   1.4236   0.3123   1.6302  -0.6285  -0.6725   1.4890   0.00    0.0
2018/10/16 19:10:09.999630324   45.950207635  -66.641336232   -11.2603   6   4   1.4257   0.3126   1.6321  -0.6295  -0.6734   1.4911   0.00    0.0
2018/10/16 19:10:10.999630539   45.950206912  -66.641335924   -11.3513   6   4   1.4279   0.3129   1.6341  -0.6304  -0.6743   1.4933   0.00    0.0
2018/10/16 19:10:11.999630753   45.950206021  -66.641335525   -11.4717   6   4   1.4303   0.3133   1.6362  -0.6315  -0.6753   1.4956   0.00    0.0
2018/10/16 19:10:12.999630970   45.950205355  -66.641335236   -11.5649   6   4   1.4328   0.3137   1.6385  -0.6326  -0.6764   1.4981   0.00    0.0
2018/10/16 19:10:13.999631185   45.950204960  -66.641334993   -11.6211   6   4   1.4354   0.3141   1.6409  -0.6337  -0.6775   1.5007   0.00    0.0
2018/10/16 19:10:14.999631410   45.950204347  -66.641334687   -11.7130   6   4   1.4381   0.3146   1.6435  -0.6350  -0.6787   1.5034   0.00    0.0
2018/10/16 19:10:15.999631616   45.950203933  -66.641334482   -11.7808   6   4   1.4251   0.3115   1.6295  -0.6286  -0.6722   1.4901   0.00    0.0
2018/10/16 19:10:16.999631827   45.950203225  -66.641334175   -11.8847   6   4   1.4237   0.3111   1.6279  -0.6280  -0.6714   1.4888   0.00    0.0
2018/10/16 19:10:17.999632035   45.950202925  -66.641334026   -11.9370   6   4   1.4224   0.3106   1.6265  -0.6274  -0.6707   1.4875   0.00    0.0
2018/10/16 19:10:18.999632241   45.950203166  -66.641334063   -11.9103   6   4   1.4212   0.3102   1.6251  -0.6268  -0.6701   1.4864   0.00    0.0
2018/10/16 19:10:19.999632451   45.950203726  -66.641334211   -11.8443   6   4   1.4201   0.3098   1.6239  -0.6263  -0.6695   1.4854   0.00    0.0
2018/10/16 19:10:20.999632670   45.950204227  -66.641334322   -11.7856   6   4   1.4192   0.3094   1.6228  -0.6259  -0.6690   1.4845   0.00    0.0
2018/10/16 19:10:21.999632901   45.950204227  -66.641334263   -11.7965   6   4   1.4184   0.3091   1.6218  -0.6255  -0.6685   1.4837   0.00    0.0
2018/10/16 19:10:22.999633123   45.950203617  -66.641333967   -11.8794   6   4   1.4177   0.3088   1.6210  -0.6251  -0.6681   1.4830   0.00    0.0
2018/10/16 19:10:23.999633338   45.950203403  -66.641333837   -11.9094   6   4   1.4171   0.3085   1.6202  -0.6248  -0.6677   1.4825   0.00    0.0
2018/10/16 19:10:24.999633555   45.950203111  -66.641333709   -11.9518   6   4   1.4166   0.3082   1.6196  -0.6246  -0.6674   1.4820   0.00    0.0
2018/10/16 19:10:25.999633772   45.950202735  -66.641333536   -12.0046   6   4   1.4163   0.3080   1.6191  -0.6244  -0.6672   1.4817   0.00    0.0
2018/10/16 19:10:26.999633991   45.950202452  -66.641333436   -12.0387   6   4   1.4161   0.3078   1.6188  -0.6243  -0.6670   1.4816   0.00    0.0
2018/10/16 19:10:27.999634212   45.950201585  -66.641333134   -12.1561   6   4   1.4160   0.3076   1.6185  -0.6243  -0.6669   1.4815   0.00    0.0
2018/10/16 19:10:28.999634436   45.950200448  -66.641332721   -12.3114   6   4   1.4160   0.3075   1.6184  -0.6243  -0.6668   1.4816   0.00    0.0
2018/10/16 19:10:29.999634662   45.950199827  -66.641332422   -12.3976   6   4   1.4162   0.3074   1.6185  -0.6243  -0.6668   1.4818   0.00    0.0
2018/10/16 19:10:30.999634873   45.950198525  -66.641331821   -12.5821   6   4   1.4169   0.3074   1.6190  -0.6246  -0.6670   1.4825   0.00    0.0
2018/10/16 19:10:31.999635095   45.950197493  -66.641331348   -12.7182   6   4   1.4178   0.3074   1.6196  -0.6250  -0.6673   1.4834   0.00    0.0
2018/10/16 19:10:32.999635302   45.950196895  -66.641330950   -12.8128   6   4   1.4189   0.3075   1.6205  -0.6254  -0.6677   1.4844   0.00    0.0
2018/10/16 19:10:33.999635509   45.950196936  -66.641330796   -12.8267   6   4   1.4200   0.3076   1.6214  -0.6259  -0.6681   1.4856   0.00    0.0
2018/10/16 19:10:34.999635725   45.950196152  -66.641330342   -12.9540   6   4   1.4213   0.3077   1.6225  -0.6264  -0.6686   1.4869   0.00    0.0
2018/10/16 19:10:35.999635944   45.950195689  -66.641330040   -13.0366   6   4   1.4228   0.3079   1.6238  -0.6270  -0.6691   1.4883   0.00    0.0
2018/10/16 19:10:36.999636153   45.950195172  -66.641329684   -13.1252   6   4   1.4244   0.3081   1.6251  -0.6277  -0.6698   1.4899   0.00    0.0
2018/10/16 19:10:37.999636356   45.950195614  -66.641329645   -13.0904   6   4   1.4261   0.3083   1.6267  -0.6284  -0.6705   1.4916   0.00    0.0
2018/10/16 19:10:38.999636571   45.950196297  -66.641329714   -13.0228   6   4   1.4280   0.3086   1.6283  -0.6292  -0.6712   1.4935   0.00    0.0
2018/10/16 19:10:39.999636788   45.950196287  -66.641329616   -13.0544   6   4   1.4300   0.3089   1.6302  -0.6301  -0.6720   1.4955   0.00    0.0
2018/10/16 19:10:40.999637001   45.950196097  -66.641329399   -13.0936   6   4   1.4322   0.3092   1.6321  -0.6310  -0.6729   1.4976   0.00    0.0
2018/10/16 19:10:41.999637222   45.950196408  -66.641329378   -13.0772   6   4   1.4345   0.3096   1.6343  -0.6320  -0.6739   1.4999   0.00    0.0
2018/10/16 19:10:42.999637433   45.950196931  -66.641329456   -13.0372   6   4   1.4370   0.3100   1.6365  -0.6331  -0.6749   1.5024   0.00    0.0
2018/10/16 19:10:43.999637646   45.950198153  -66.641329754   -12.8968   6   4   1.4396   0.3104   1.6390  -0.6342  -0.6760   1.5050   0.00    0.0
2018/10/16 19:10:44.999637864   45.950198484  -66.641329845   -12.8795   6   4   1.4424   0.3109   1.6415  -0.6354  -0.6772   1.5077   0.00    0.0
2018/10/16 19:10:45.999638069   45.950199568  -66.641330179   -12.7675   6   4   1.4411   0.3104   1.6401  -0.6348  -0.6765   1.5065   0.00    0.0
2018/10/16 19:10:46.999638292   45.950199341  -66.641329968   -12.8266   6   4   1.4399   0.3100   1.6388  -0.6342  -0.6758   1.5054   0.00    0.0
2018/10/16 19:10:47.999638508   45.950200418  -66.641330295   -12.7187   6   4   1.4389   0.3096   1.6376  -0.6337  -0.6753   1.5044   0.00    0.0
2018/10/16 19:10:48.999638726   45.950201089  -66.641330398   -12.6607   6   4   1.4379   0.3092   1.6366  -0.6333  -0.6748   1.5035   0.00    0.0
2018/10/16 19:10:49.999638954   45.950201180  -66.641330314   -12.6858   6   4   1.4372   0.3089   1.6357  -0.6329  -0.6743   1.5028   0.00    0.0
2018/10/16 19:10:50.999639167   45.950201993  -66.641330460   -12.6184   6   4   1.4365   0.3086   1.6349  -0.6325  -0.6739   1.5022   0.00    0.0
2018/10/16 19:10:51.999639393   45.950201643  -66.641330193   -12.7066   6   4   1.4359   0.3084   1.6343  -0.6323  -0.6736   1.5017   0.00    0.0
2018/10/16 19:10:52.999639617   45.950201199  -66.641329945   -12.7940   6   4   1.4355   0.3081   1.6338  -0.6321  -0.6733   1.5013   0.00    0.0
2018/10/16 19:10:53.999639835   45.950201322  -66.641329834   -12.8194   6   4   1.4353   0.3079   1.6334  -0.6319  -0.6731   1.5011   0.00    0.0
2018/10/16 19:10:54.999640063   45.950200451  -66.641329415   -12.9658   6   4   1.4351   0.3077   1.6332  -0.6319  -0.6730   1.5010   0.00    0.0
2018/10/16 19:10:55.999640277   45.950200043  -66.641329179   -13.0336   6   4   1.4351   0.3076   1.6331  -0.6318  -0.6729   1.5011   0.00    0.0
2018/10/16 19:10:56.999640487   45.950199960  -66.641329064   -13.0597   6   4   1.4353   0.3075   1.6331  -0.6319  -0.6729   1.5013   0.00    0.0
2018/10/16 19:10:57.999640703   45.950199354  -66.641328826   -13.1556   6   4   1.4356   0.3074   1.6333  -0.6320  -0.6730   1.5016   0.00    0.0
2018/10/16 19:10:58.999640920   45.950199230  -66.641328780   -13.1873   6   4   1.4360   0.3073   1.6336  -0.6322  -0.6731   1.5021   0.00    0.0
2018/10/16 19:10:59.999641129   45.950199546  -66.641328863   -13.1713   6   4   1.4366   0.3073   1.6341  -0.6324  -0.6733   1.5027   0.00    0.0
2018/10/16 19:11:00.999641339   45.950199917  -66.641328991   -13.1410   6   4   1.4377   0.3074   1.6351  -0.6329  -0.6737   1.5039   0.00    0.0
2018/10/16 19:11:01.999641564   45.950199633  -66.641328886   -13.1862   6   4   1.4390   0.3075   1.6362  -0.6334  -0.6742   1.5052   0.00    0.0
2018/10/16 19:11:02.999641790   45.950199014  -66.641328608   -13.2768   6   4   1.4405   0.3077   1.6376  -0.6340  -0.6748   1.5067   0.00    0.0
2018/10/16 19:11:03.999642010   45.950198557  -66.641328391   -13.3498   6   4   1.4422   0.3079   1.6390  -0.6347  -0.6754   1.5083   0.00    0.0
2018/10/16 19:11:04.999642227   45.950197978  -66.641328220   -13.4327   6   4   1.4440   0.3082   1.6407  -0.6354  -0.6761   1.5101   0.00    0.0
2018/10/16 19:11:05.999642447   45.950197783  -66.641328140   -13.4710   6   4   1.4459   0.3084   1.6424  -0.6363  -0.6769   1.5121   0.00    0.0
2018/10/16 19:11:06.999642661   45.950197716  -66.641328117   -13.4948   6   4   1.4480   0.3087   1.6444  -0.6372  -0.6778   1.5142   0.00    0.0
2018/10/16 19:11:07.999642875   45.950197919  -66.641328191   -13.4845   6   4   1.4503   0.3091   1.6465  -0.6381  -0.6787   1.5164   0.00    0.0
2018/10/16 19:11:08.999643076   45.950197680  -66.641328082   -13.5303   6   4   1.4527   0.3094   1.6488  -0.6392  -0.6797   1.5189   0.00    0.0
2018/10/16 19:11:09.999643295   45.950197909  -66.641328190   -13.5092   6   4   1.4553   0.3099   1.6512  -0.6403  -0.6808   1.5214   0.00    0.0
2018/10/16 19:11:10.999643508   45.950198580  -66.641328388   -13.4340   6   4   1.4580   0.3103   1.6538  -0.6414  -0.6820   1.5242   0.00    0.0
2018/10/16 19:11:11.999643723   45.950199075  -66.641328499   -13.3862   6   4   1.4609   0.3108   1.6566  -0.6427  -0.6832   1.5271   0.00    0.0
2018/10/16 19:11:12.999643942   45.950199708  -66.641328628   -13.3243   6   4   1.4640   0.3113   1.6595  -0.6440  -0.6845   1.5302   0.00    0.0
2018/10/16 19:11:13.999644164   45.950200032  -66.641328665   -13.2907   6   4   1.4673   0.3119   1.6626  -0.6454  -0.6859   1.5334   0.00    0.0
2018/10/16 19:11:14.999644385   45.950199745  -66.641328525   -13.3317   6   4   1.4707   0.3125   1.6659  -0.6469  -0.6874   1.5368   0.00    0.0
2018/10/16 19:11:15.999644594   45.950200393  -66.641328726   -13.2464   6   4   1.4699   0.3121   1.6651  -0.6466  -0.6870   1.5362   0.00    0.0
2018/10/16 19:11:16.999644803   45.950200963  -66.641328955   -13.1530   6   4   1.4689   0.3118   1.6641  -0.6461  -0.6864   1.5353   0.00    0.0
2018/10/16 19:11:17.999645025   45.950200749  -66.641328860   -13.1755   6   4   1.4681   0.3114   1.6631  -0.6457  -0.6860   1.5345   0.00    0.0
2018/10/16 19:11:18.999645246   45.950200722  -66.641328858   -13.1681   6   4   1.4674   0.3111   1.6624  -0.6453  -0.6856   1.5339   0.00    0.0
2018/10/16 19:11:19.999645476   45.950200236  -66.641328641   -13.2137   6   4   1.4668   0.3109   1.6617  -0.6451  -0.6852   1.5334   0.00    0.0
2018/10/16 19:11:20.999645702   45.950200221  -66.641328627   -13.2096   6   4   1.4664   0.3106   1.6612  -0.6448  -0.6849   1.5330   0.00    0.0
2018/10/16 19:11:21.999645920   45.950199019  -66.641328195   -13.3704   6   4   1.4661   0.3104   1.6609  -0.6447  -0.6847   1.5328   0.00    0.0
2018/10/16 19:11:22.999646140   45.950198124  -66.641327800   -13.4854   6   4   1.4660   0.3102   1.6607  -0.6446  -0.6846   1.5327   0.00    0.0
2018/10/16 19:11:23.999646349   45.950197884  -66.641327646   -13.5283   6   4   1.4660   0.3101   1.6606  -0.6446  -0.6845   1.5328   0.00    0.0
2018/10/16 19:11:24.999646561   45.950197482  -66.641327450   -13.5953   6   4   1.4661   0.3100   1.6607  -0.6446  -0.6845   1.5330   0.00    0.0
2018/10/16 19:11:25.999646775   45.950197364  -66.641327347   -13.6199   6   4   1.4665   0.3099   1.6610  -0.6447  -0.6846   1.5334   0.00    0.0
2018/10/16 19:11:26.999646993   45.950197533  -66.641327287   -13.6146   6   4   1.4669   0.3099   1.6614  -0.6449  -0.6848   1.5339   0.00    0.0
2018/10/16 19:11:27.999647212   45.950197797  -66.641327307   -13.6098   6   4   1.4676   0.3099   1.6619  -0.6452  -0.6850   1.5346   0.00    0.0
2018/10/16 19:11:28.999647424   45.950198552  -66.641327476   -13.5288   6   4   1.4683   0.3099   1.6627  -0.6455  -0.6853   1.5355   0.00    0.0
2018/10/16 19:11:29.999647640   45.950198763  -66.641327487   -13.5157   6   4   1.4693   0.3100   1.6636  -0.6459  -0.6856   1.5365   0.00    0.0
2018/10/16 19:11:30.999647854   45.950199243  -66.641327617   -13.4535   6   4   1.4709   0.3101   1.6651  -0.6466  -0.6863   1.5381   0.00    0.0
2018/10/16 19:11:31.999648065   45.950198894  -66.641327461   -13.4962   6   4   1.4727   0.3104   1.6667  -0.6473  -0.6870   1.5399   0.00    0.0
2018/10/16 19:11:32.999648277   45.950198819  -66.641327402   -13.5046   6   4   1.4747   0.3107   1.6686  -0.6482  -0.6878   1.5419   0.00    0.0
2018/10/16 19:11:33.999648495   45.950198946  -66.641327504   -13.4738   6   4   1.4768   0.3110   1.6706  -0.6491  -0.6887   1.5441   0.00    0.0
2018/10/16 19:11:34.999648714   45.950199352  -66.641327688   -13.4197   6   4   1.4791   0.3113   1.6729  -0.6500  -0.6896   1.5464   0.00    0.0
2018/10/16 19:11:35.999648932   45.950199986  -66.641327946   -13.3385   6   4   1.4816   0.3117   1.6752  -0.6511  -0.6907   1.5490   0.00    0.0
2018/10/16 19:11:36.999649156   45.950201102  -66.641328386   -13.1895   6   4   1.4843   0.3121   1.6778  -0.6523  -0.6918   1.5517   0.00    0.0
2018/10/16 19:11:37.999649364   45.950201058  -66.641328438   -13.1873   6   4   1.4872   0.3126   1.6805  -0.6535  -0.6930   1.5545   0.00    0.0
2018/10/16 19:11:38.999649581   45.950201174  -66.641328509   -13.1704   6   4   1.4902   0.3131   1.6835  -0.6548  -0.6943   1.5576   0.00    0.0
2018/10/16 19:11:39.999649800   45.950202406  -66.641328996   -13.0154   6   4   1.4934   0.3136   1.6866  -0.6562  -0.6957   1.5608   0.00    0.0
2018/10/16 19:11:40.999650019   45.950202140  -66.641328947   -13.0457   6   4   1.4968   0.3142   1.6899  -0.6576  -0.6971   1.5642   0.00    0.0
2018/10/16 19:11:41.999650251   45.950202134  -66.641329005   -13.0430   6   4   1.5004   0.3148   1.6934  -0.6592  -0.6987   1.5678   0.00    0.0
2018/10/16 19:11:42.999650471   45.950201908  -66.641328962   -13.0748   6   4   1.5041   0.3155   1.6970  -0.6608  -0.7003   1.5716   0.00    0.0
2018/10/16 19:11:43.999650695   45.950201609  -66.641328906   -13.1146   6   4   1.5081   0.3162   1.7009  -0.6625  -0.7020   1.5756   0.00    0.0
2018/10/16 19:11:44.999650911   45.950201765  -66.641328993   -13.1124   6   4   1.5122   0.3169   1.7049  -0.6643  -0.7038   1.5797   0.00    0.0
2018/10/16 19:11:45.999651134   45.950201307  -66.641328817   -13.1883   6   4   1.5129   0.3169   1.7051  -0.6645  -0.7039   1.5802   0.00    0.0
2018/10/16 19:11:46.999651354   45.950200548  -66.641328609   -13.2896   6   4   1.5120   0.3165   1.7042  -0.6641  -0.7034   1.5794   0.00    0.0
2018/10/16 19:11:47.999651569   45.950199769  -66.641328359   -13.4008   6   4   1.5113   0.3162   1.7035  -0.6638  -0.7030   1.5788   0.00    0.0
2018/10/16 19:11:48.999651785   45.950199548  -66.641328346   -13.4184   6   4   1.5107   0.3160   1.7029  -0.6635  -0.7027   1.5783   0.00    0.0
2018/10/16 19:11:49.999652002   45.950200259  -66.641328675   -13.3201   6   4   1.5103   0.3157   1.7025  -0.6633  -0.7025   1.5780   0.00    0.0
2018/10/16 19:11:50.999652212   45.950200681  -66.641328899   -13.2612   6   4   1.5100   0.3155   1.7022  -0.6631  -0.7023   1.5778   0.00    0.0
2018/10/16 19:11:51.999652424   45.950200993  -66.641329119   -13.2083   6   4   1.5099   0.3154   1.7021  -0.6630  -0.7022   1.5778   0.00    0.0
2018/10/16 19:11:52.999652640   45.950200806  -66.641329157   -13.2082   6   4   1.5100   0.3153   1.7022  -0.6630  -0.7022   1.5780   0.00    0.0
2018/10/16 19:11:53.999652857   45.950201071  -66.641329299   -13.1619   6   4   1.5102   0.3152   1.7024  -0.6631  -0.7022   1.5783   0.00    0.0
2018/10/16 19:11:54.999653076   45.950200992  -66.641329348   -13.1610   6   4   1.5107   0.3151   1.7028  -0.6633  -0.7023   1.5788   0.00    0.0
2018/10/16 19:11:55.999653294   45.950201314  -66.641329525   -13.1071   6   4   1.5112   0.3151   1.7034  -0.6635  -0.7025   1.5795   0.00    0.0
2018/10/16 19:11:56.999653509   45.950200218  -66.641329214   -13.2410   6   4   1.5120   0.3151   1.7042  -0.6638  -0.7028   1.5803   0.00    0.0
2018/10/16 19:11:57.999653735   45.950199982  -66.641329206   -13.2621   6   4   1.5129   0.3152   1.7051  -0.6642  -0.7032   1.5814   0.00    0.0
2018/10/16 19:11:58.999653955   45.950199797  -66.641329154   -13.2838   6   4   1.5140   0.3153   1.7062  -0.6647  -0.7036   1.5826   0.00    0.0
2018/10/16 19:11:59.999654160   45.950200758  -66.641329529   -13.1590   6   4   1.5153   0.3154   1.7075  -0.6652  -0.7042   1.5839   0.00    0.0
2018/10/16 19:12:00.999654366   45.950201119  -66.641329656   -13.1111   6   4   1.5174   0.3157   1.7096  -0.6661  -0.7051   1.5861   0.00    0.0
2018/10/16 19:12:01.999654568   45.950201631  -66.641329874   -13.0338   6   4   1.5198   0.3161   1.7119  -0.6671  -0.7061   1.5885   0.00    0.0
2018/10/16 19:12:02.999654793   45.950202345  -66.641330163   -12.9346   6   4   1.5224   0.3165   1.7144  -0.6682  -0.7071   1.5912   0.00    0.0
2018/10/16 19:12:03.999655019   45.950202718  -66.641330340   -12.8640   6   4   1.5252   0.3169   1.7171  -0.6694  -0.7083   1.5940   0.00    0.0
2018/10/16 19:12:04.999655248   45.950203319  -66.641330567   -12.7802   6   4   1.5282   0.3174   1.7200  -0.6707  -0.7096   1.5970   0.00    0.0
2018/10/16 19:12:05.999655466   45.950203443  -66.641330670   -12.7492   6   4   1.5314   0.3179   1.7231  -0.6720  -0.7109   1.6002   0.00    0.0
2018/10/16 19:12:06.999655683   45.950204240  -66.641330991   -12.6415   6   4   1.5348   0.3185   1.7264  -0.6735  -0.7123   1.6036   0.00    0.0
2018/10/16 19:12:07.999655906   45.950204413  -66.641331098   -12.5985   6   4   1.5383   0.3191   1.7299  -0.6750  -0.7139   1.6072   0.00    0.0
2018/10/16 19:12:08.999656142   45.950204903  -66.641331283   -12.5228   6   4   1.5421   0.3197   1.7336  -0.6767  -0.7155   1.6110   0.00    0.0
2018/10/16 19:12:09.999656361   45.950204419  -66.641331188   -12.5706   6   4   1.5461   0.3204   1.7375  -0.6784  -0.7172   1.6150   0.00    0.0
2018/10/16 19:12:10.999656565   45.950204246  -66.641331185   -12.5931   6   4   1.5503   0.3212   1.7416  -0.6802  -0.7190   1.6192   0.00    0.0
2018/10/16 19:12:11.999656776   45.950204386  -66.641331300   -12.5741   6   4   1.5547   0.3219   1.7459  -0.6821  -0.7209   1.6237   0.00    0.0
2018/10/16 19:12:12.999656998   45.950204441  -66.641331352   -12.5647   6   4   1.5593   0.3228   1.7505  -0.6841  -0.7229   1.6283   0.00    0.0
2018/10/16 19:12:13.999657212   45.950204591  -66.641331422   -12.5394   6   4   1.5641   0.3236   1.7552  -0.6862  -0.7250   1.6331   0.00    0.0
2018/10/16 19:12:14.999657429   45.950204807  -66.641331529   -12.5126   6   4   1.5691   0.3245   1.7602  -0.6884  -0.7272   1.6382   0.00    0.0
2018/10/16 19:12:15.999657665   45.950204903  -66.641331552   -12.4977   6   4   1.5685   0.3243   1.7597  -0.6881  -0.7269   1.6377   0.00    0.0
2018/10/16 19:12:16.999657874   45.950204141  -66.641331350   -12.5897   6   4   1.5678   0.3240   1.7591  -0.6878  -0.7266   1.6371   0.00    0.0
2018/10/16 19:12:17.999658095   45.950204750  -66.641331583   -12.5094   6   4   1.5673   0.3237   1.7586  -0.6875  -0.7263   1.6367   0.00    0.0
