% program   : RTKPOST ver.2.4.2
% inp file  : Z:\home\emerson\Desktop\Connected_folders\gnssins\data\APS_center.19O
% inp file  : Z:\home\emerson\Desktop\Connected_folders\gnssins\data\APS_center.19N
% inp file  : Z:\home\emerson\Desktop\Connected_folders\gnssins\data\igs20452.*
% obs start : 2019/03/19 19:46:07.0 GPST (week2045 243967.0s)
% obs end   : 2019/03/19 20:15:56.0 GPST (week2045 245756.0s)
% pos mode  : ppp-kinematic
% solution  : forward
% elev mask : 15.0 deg
% dynamics  : on
% tidecorr  : off
% tropo opt : est ztd
% ephemeris : precise
% navi sys  : gps glonass
% antenna1  :                       ( 0.0000  0.0000  0.0000)
%
% (lat/lon/height=WGS84/ellipsoidal,Q=1:fix,2:float,3:sbas,4:dgps,5:single,6:ppp,ns=# of satellites)
%  GPST                  latitude(deg) longitude(deg)  height(m)   Q  ns   sdn(m)   sde(m)   sdu(m)  sdne(m)  sdeu(m)  sdun(m) age(s)  ratio
2019/03/19 19:46:06.994   45.950524082  -66.641481957     8.5957   6   5   4.1428   1.4996   6.0965   0.9577   0.7461   4.2905   0.00    0.0
2019/03/19 19:46:07.994   45.950521334  -66.641484421     7.8904   6   5   2.9303   1.0606   4.3166   0.6782   0.5317   3.0349   0.00    0.0
2019/03/19 19:46:08.994   45.950518275  -66.641485527     7.3758   6   5   2.3931   0.8661   3.5288   0.5545   0.4373   2.4786   0.00    0.0
2019/03/19 19:46:09.994   45.950516054  -66.641486162     7.2413   6   5   2.0728   0.7502   3.0596   0.4808   0.3814   2.1469   0.00    0.0
2019/03/19 19:46:10.994   45.950514228  -66.641486881     7.2177   6   5   1.8542   0.6711   2.7398   0.4306   0.3435   1.9206   0.00    0.0
2019/03/19 19:46:11.994   45.950512287  -66.641487187     7.2342   6   5   1.6927   0.6127   2.5039   0.3936   0.3157   1.7534   0.00    0.0
2019/03/19 19:46:12.994   45.950510457  -66.641486911     7.2842   6   5   1.5673   0.5674   2.3208   0.3648   0.2943   1.6235   0.00    0.0
2019/03/19 19:46:13.994   45.950508867  -66.641486531     7.2736   6   5   1.4661   0.5309   2.1733   0.3417   0.2771   1.5187   0.00    0.0
2019/03/19 19:46:14.994   45.950506939  -66.641486061     7.2510   6   5   1.3822   0.5006   2.0513   0.3226   0.2629   1.4319   0.00    0.0
2019/03/19 19:46:15.994   45.950504745  -66.641485633     7.1766   6   5   1.3110   0.4750   1.9479   0.3063   0.2509   1.3582   0.00    0.0
2019/03/19 19:46:16.994   45.950502475  -66.641485208     7.0852   6   5   1.2496   0.4529   1.8589   0.2923   0.2406   1.2946   0.00    0.0
2019/03/19 19:46:17.994   45.950500132  -66.641484962     6.9883   6   5   1.1958   0.4337   1.7813   0.2801   0.2317   1.2390   0.00    0.0
2019/03/19 19:46:18.994   45.950497877  -66.641484764     6.9359   6   5   1.1482   0.4167   1.7127   0.2692   0.2238   1.1898   0.00    0.0
2019/03/19 19:46:19.994   45.950495418  -66.641484800     6.8855   6   5   1.1057   0.4016   1.6516   0.2596   0.2168   1.1458   0.00    0.0
2019/03/19 19:46:20.994   45.950492984  -66.641484887     6.8693   6   5   1.0674   0.3880   1.5967   0.2509   0.2105   1.1062   0.00    0.0
2019/03/19 19:46:21.994   45.950490531  -66.641485155     6.8845   6   5   1.0325   0.3757   1.5469   0.2430   0.2048   1.0702   0.00    0.0
2019/03/19 19:46:22.994   45.950488447  -66.641485301     6.9554   6   5   1.0007   0.3645   1.5016   0.2358   0.1997   1.0373   0.00    0.0
2019/03/19 19:46:23.994   45.950486661  -66.641485662     7.0026   6   5   0.9714   0.3542   1.4601   0.2292   0.1949   1.0071   0.00    0.0
2019/03/19 19:46:24.994   45.950485455  -66.641485883     7.0953   6   5   0.9444   0.3448   1.4218   0.2231   0.1905   0.9792   0.00    0.0
2019/03/19 19:46:25.994   45.950484497  -66.641486146     7.2014   6   5   0.9193   0.3361   1.3865   0.2175   0.1865   0.9533   0.00    0.0
2019/03/19 19:46:27.000   45.950483470  -66.641486352     7.2589   6   5   0.8959   0.3280   1.3537   0.2122   0.1828   0.9292   0.00    0.0
2019/03/19 19:46:28.000   45.950482442  -66.641486492     7.2704   6   5   0.8741   0.3205   1.3231   0.2073   0.1793   0.9066   0.00    0.0
2019/03/19 19:46:29.000   45.950481559  -66.641486557     7.3219   6   5   0.8536   0.3135   1.2945   0.2027   0.1761   0.8855   0.00    0.0
2019/03/19 19:46:30.000   45.950480707  -66.641486388     7.3543   6   5   0.8343   0.3069   1.2677   0.1984   0.1730   0.8657   0.00    0.0
2019/03/19 19:46:31.000   45.950479944  -66.641486218     7.3941   6   5   0.8162   0.3007   1.2426   0.1944   0.1702   0.8471   0.00    0.0
2019/03/19 19:46:32.000   45.950479305  -66.641486131     7.4135   6   5   0.7992   0.2949   1.2191   0.1907   0.1675   0.8296   0.00    0.0
2019/03/19 19:46:33.000   45.950478591  -66.641485971     7.4221   6   5   0.7832   0.2895   1.1969   0.1871   0.1651   0.8132   0.00    0.0
2019/03/19 19:46:34.000   45.950477859  -66.641485860     7.4253   6   5   0.7680   0.2843   1.1759   0.1838   0.1628   0.7976   0.00    0.0
2019/03/19 19:46:35.000   45.950477346  -66.641485833     7.4762   6   5   0.7537   0.2794   1.1561   0.1806   0.1606   0.7828   0.00    0.0
2019/03/19 19:46:36.000   45.950476701  -66.641485804     7.4980   6   5   0.7401   0.2747   1.1373   0.1776   0.1585   0.7689   0.00    0.0
2019/03/19 19:46:37.000   45.950476135  -66.641485864     7.5154   6   5   0.7271   0.2703   1.1195   0.1748   0.1566   0.7556   0.00    0.0
2019/03/19 19:46:38.000   45.950475444  -66.641485962     7.5210   6   5   0.7149   0.2661   1.1026   0.1721   0.1548   0.7430   0.00    0.0
2019/03/19 19:46:39.000   45.950474644  -66.641486063     7.5079   6   5   0.7032   0.2621   1.0866   0.1696   0.1530   0.7311   0.00    0.0
2019/03/19 19:46:40.000   45.950473828  -66.641486263     7.4534   6   5   0.6921   0.2583   1.0713   0.1672   0.1514   0.7197   0.00    0.0
2019/03/19 19:46:41.000   45.950472961  -66.641486519     7.4138   6   5   0.6815   0.2547   1.0567   0.1649   0.1498   0.7088   0.00    0.0
2019/03/19 19:46:42.000   45.950472192  -66.641486714     7.3986   6   5   0.6713   0.2512   1.0427   0.1627   0.1484   0.6985   0.00    0.0
2019/03/19 19:46:43.000   45.950471407  -66.641486912     7.3747   6   5   0.6617   0.2478   1.0294   0.1606   0.1470   0.6886   0.00    0.0
2019/03/19 19:46:44.000   45.950470706  -66.641487178     7.3663   6   5   0.6524   0.2447   1.0167   0.1586   0.1456   0.6791   0.00    0.0
2019/03/19 19:46:45.000   45.950470033  -66.641487473     7.3590   6   5   0.6436   0.2416   1.0046   0.1568   0.1444   0.6701   0.00    0.0
2019/03/19 19:46:46.000   45.950469372  -66.641487745     7.3413   6   5   0.6345   0.2385   0.9923   0.1547   0.1430   0.6608   0.00    0.0
2019/03/19 19:46:47.000   45.950468682  -66.641488014     7.3213   6   5   0.6256   0.2356   0.9805   0.1527   0.1417   0.6517   0.00    0.0
2019/03/19 19:46:48.000   45.950467927  -66.641488236     7.2971   6   5   0.6168   0.2328   0.9689   0.1508   0.1405   0.6428   0.00    0.0
2019/03/19 19:46:49.000   45.950467222  -66.641488501     7.2589   6   5   0.6082   0.2300   0.9578   0.1489   0.1392   0.6341   0.00    0.0
2019/03/19 19:46:50.000   45.950466536  -66.641488768     7.2299   6   5   0.5997   0.2274   0.9469   0.1471   0.1380   0.6256   0.00    0.0
2019/03/19 19:46:51.000   45.950465770  -66.641488990     7.1906   6   5   0.5914   0.2248   0.9363   0.1452   0.1368   0.6172   0.00    0.0
2019/03/19 19:46:52.000   45.950464997  -66.641489155     7.1476   6   5   0.5833   0.2223   0.9261   0.1435   0.1356   0.6090   0.00    0.0
2019/03/19 19:46:53.000   45.950464228  -66.641489366     7.0927   6   5   0.5752   0.2199   0.9161   0.1417   0.1344   0.6010   0.00    0.0
2019/03/19 19:46:54.000   45.950463545  -66.641489607     7.0188   6   5   0.5674   0.2176   0.9064   0.1400   0.1333   0.5931   0.00    0.0
2019/03/19 19:46:55.000   45.950462989  -66.641489843     6.9648   6   5   0.5596   0.2154   0.8969   0.1384   0.1322   0.5854   0.00    0.0
2019/03/19 19:46:56.000   45.950462425  -66.641490093     6.8933   6   5   0.5520   0.2132   0.8878   0.1367   0.1311   0.5779   0.00    0.0
2019/03/19 19:46:57.000   45.950461849  -66.641490332     6.8328   6   5   0.5446   0.2111   0.8788   0.1352   0.1301   0.5705   0.00    0.0
2019/03/19 19:46:58.000   45.950461302  -66.641490580     6.7672   6   5   0.5373   0.2090   0.8702   0.1336   0.1291   0.5633   0.00    0.0
2019/03/19 19:46:59.000   45.950460727  -66.641490826     6.6979   6   5   0.5302   0.2071   0.8618   0.1322   0.1280   0.5563   0.00    0.0
2019/03/19 19:47:00.000   45.950460240  -66.641491054     6.6365   6   5   0.5233   0.2051   0.8536   0.1307   0.1271   0.5494   0.00    0.0
2019/03/19 19:47:01.000   45.950459678  -66.641491254     6.5681   6   5   0.5167   0.2033   0.8458   0.1294   0.1262   0.5430   0.00    0.0
2019/03/19 19:47:02.000   45.950459130  -66.641491478     6.4880   6   5   0.5103   0.2015   0.8383   0.1281   0.1254   0.5367   0.00    0.0
2019/03/19 19:47:03.000   45.950458570  -66.641491662     6.3960   6   5   0.5042   0.1998   0.8311   0.1269   0.1245   0.5307   0.00    0.0
2019/03/19 19:47:04.000   45.950457922  -66.641491877     6.2852   6   5   0.4984   0.1980   0.8241   0.1256   0.1238   0.5250   0.00    0.0
2019/03/19 19:47:05.000   45.950457267  -66.641492033     6.1727   6   5   0.4928   0.1964   0.8174   0.1246   0.1231   0.5195   0.00    0.0
2019/03/19 19:47:06.000   45.950456637  -66.641492173     6.0454   6   5   0.4874   0.1948   0.8110   0.1234   0.1223   0.5143   0.00    0.0
2019/03/19 19:47:07.000   45.950456085  -66.641492338     5.9309   6   5   0.4823   0.1933   0.8047   0.1224   0.1218   0.5092   0.00    0.0
2019/03/19 19:47:08.000   45.950455519  -66.641492493     5.8132   6   5   0.4774   0.1918   0.7987   0.1214   0.1212   0.5044   0.00    0.0
2019/03/19 19:47:09.000   45.950454863  -66.641492669     5.6662   6   5   0.4727   0.1903   0.7929   0.1205   0.1205   0.4998   0.00    0.0
2019/03/19 19:47:10.000   45.950454178  -66.641492834     5.5326   6   5   0.4682   0.1889   0.7873   0.1196   0.1200   0.4954   0.00    0.0
2019/03/19 19:47:11.000   45.950453632  -66.641492991     5.4126   6   5   0.4639   0.1875   0.7820   0.1188   0.1195   0.4912   0.00    0.0
2019/03/19 19:47:12.000   45.950453091  -66.641493123     5.2907   6   5   0.4598   0.1862   0.7768   0.1180   0.1190   0.4872   0.00    0.0
2019/03/19 19:47:13.000   45.950452606  -66.641493264     5.1676   6   5   0.4558   0.1849   0.7718   0.1172   0.1185   0.4833   0.00    0.0
2019/03/19 19:47:14.000   45.950452192  -66.641493452     5.0495   6   5   0.4521   0.1836   0.7669   0.1165   0.1181   0.4796   0.00    0.0
2019/03/19 19:47:15.000   45.950451745  -66.641493549     4.9498   6   5   0.4485   0.1823   0.7622   0.1158   0.1176   0.4761   0.00    0.0
2019/03/19 19:47:16.000   45.950451203  -66.641493665     4.8529   6   5   0.4443   0.1810   0.7571   0.1149   0.1172   0.4719   0.00    0.0
2019/03/19 19:47:17.000   45.950450728  -66.641493745     4.7744   6   5   0.4399   0.1797   0.7519   0.1139   0.1167   0.4677   0.00    0.0
2019/03/19 19:47:18.000   45.950450334  -66.641493827     4.7003   6   5   0.4356   0.1784   0.7468   0.1130   0.1162   0.4636   0.00    0.0
2019/03/19 19:47:19.000   45.950450032  -66.641493824     4.6313   6   5   0.4312   0.1771   0.7418   0.1120   0.1156   0.4594   0.00    0.0
2019/03/19 19:47:20.000   45.950449695  -66.641493795     4.5704   6   5   0.4269   0.1759   0.7368   0.1112   0.1151   0.4552   0.00    0.0
2019/03/19 19:47:21.000   45.950449382  -66.641493715     4.5220   6   5   0.4225   0.1746   0.7320   0.1102   0.1146   0.4510   0.00    0.0
2019/03/19 19:47:22.000   45.950449044  -66.641493718     4.4734   6   5   0.4181   0.1735   0.7272   0.1093   0.1140   0.4469   0.00    0.0
2019/03/19 19:47:23.000   45.950448814  -66.641493674     4.4349   6   5   0.4137   0.1723   0.7224   0.1084   0.1135   0.4428   0.00    0.0
2019/03/19 19:47:24.000   45.950448592  -66.641493612     4.3779   6   5   0.4093   0.1712   0.7177   0.1075   0.1130   0.4387   0.00    0.0
2019/03/19 19:47:25.000   45.950448332  -66.641493521     4.3264   6   5   0.4050   0.1701   0.7132   0.1066   0.1124   0.4346   0.00    0.0
2019/03/19 19:47:26.000   45.950448099  -66.641493371     4.2772   6   5   0.4006   0.1690   0.7087   0.1056   0.1119   0.4306   0.00    0.0
2019/03/19 19:47:27.000   45.950447748  -66.641493272     4.2141   6   5   0.3964   0.1679   0.7043   0.1048   0.1114   0.4267   0.00    0.0
2019/03/19 19:47:28.000   45.950447453  -66.641493124     4.1572   6   5   0.3922   0.1669   0.7000   0.1039   0.1108   0.4228   0.00    0.0
2019/03/19 19:47:29.000   45.950447191  -66.641492978     4.1208   6   5   0.3880   0.1659   0.6958   0.1031   0.1103   0.4190   0.00    0.0
2019/03/19 19:47:30.000   45.950447040  -66.641492847     4.0936   6   5   0.3839   0.1649   0.6917   0.1023   0.1099   0.4153   0.00    0.0
2019/03/19 19:47:31.000   45.950446718  -66.641492725     4.0482   6   5   0.3801   0.1639   0.6878   0.1017   0.1096   0.4118   0.00    0.0
2019/03/19 19:47:32.000   45.950446415  -66.641492668     4.0108   6   5   0.3765   0.1630   0.6841   0.1009   0.1091   0.4085   0.00    0.0
2019/03/19 19:47:33.000   45.950446194  -66.641492657     3.9904   6   5   0.3730   0.1621   0.6805   0.1003   0.1087   0.4053   0.00    0.0
2019/03/19 19:47:34.000   45.950445998  -66.641492645     3.9599   6   5   0.3697   0.1612   0.6770   0.0997   0.1084   0.4023   0.00    0.0
2019/03/19 19:47:35.000   45.950445889  -66.641492582     3.9445   6   5   0.3666   0.1604   0.6737   0.0990   0.1080   0.3995   0.00    0.0
2019/03/19 19:47:36.000   45.950445874  -66.641492521     3.9239   6   5   0.3636   0.1595   0.6705   0.0986   0.1078   0.3968   0.00    0.0
2019/03/19 19:47:37.000   45.950445840  -66.641492452     3.8982   6   5   0.3608   0.1587   0.6674   0.0980   0.1074   0.3942   0.00    0.0
2019/03/19 19:47:38.000   45.950445827  -66.641492384     3.8616   6   5   0.3581   0.1579   0.6644   0.0976   0.1073   0.3918   0.00    0.0
2019/03/19 19:47:39.000   45.950445794  -66.641492323     3.8417   6   5   0.3556   0.1571   0.6615   0.0971   0.1070   0.3895   0.00    0.0
2019/03/19 19:47:40.000   45.950445761  -66.641492230     3.8187   6   5   0.3532   0.1564   0.6587   0.0967   0.1067   0.3873   0.00    0.0
2019/03/19 19:47:41.000   45.950445850  -66.641492137     3.7949   6   5   0.3510   0.1557   0.6561   0.0963   0.1065   0.3852   0.00    0.0
2019/03/19 19:47:42.000   45.950445867  -66.641492070     3.7717   6   5   0.3489   0.1549   0.6535   0.0960   0.1064   0.3833   0.00    0.0
2019/03/19 19:47:43.000   45.950445937  -66.641491947     3.7543   6   5   0.3469   0.1542   0.6510   0.0956   0.1062   0.3815   0.00    0.0
2019/03/19 19:47:44.000   45.950446026  -66.641491835     3.7303   6   5   0.3451   0.1535   0.6486   0.0953   0.1060   0.3798   0.00    0.0
2019/03/19 19:47:45.000   45.950446093  -66.641491755     3.7058   6   5   0.3433   0.1529   0.6464   0.0950   0.1058   0.3782   0.00    0.0
2019/03/19 19:47:46.000   45.950446147  -66.641491633     3.6977   6   5   0.3408   0.1520   0.6434   0.0945   0.1056   0.3759   0.00    0.0
2019/03/19 19:47:47.000   45.950446129  -66.641491492     3.6828   6   5   0.3381   0.1512   0.6405   0.0940   0.1053   0.3734   0.00    0.0
2019/03/19 19:47:48.000   45.950446190  -66.641491385     3.6687   6   5   0.3353   0.1504   0.6375   0.0933   0.1050   0.3709   0.00    0.0
2019/03/19 19:47:49.000   45.950446291  -66.641491181     3.6571   6   5   0.3326   0.1497   0.6346   0.0927   0.1047   0.3685   0.00    0.0
2019/03/19 19:47:50.000   45.950446313  -66.641491015     3.6293   6   5   0.3298   0.1489   0.6317   0.0921   0.1044   0.3660   0.00    0.0
2019/03/19 19:47:51.000   45.950446350  -66.641490833     3.6011   6   5   0.3269   0.1481   0.6289   0.0915   0.1042   0.3635   0.00    0.0
2019/03/19 19:47:52.000   45.950446404  -66.641490690     3.5779   6   5   0.3241   0.1474   0.6261   0.0909   0.1039   0.3610   0.00    0.0
2019/03/19 19:47:53.000   45.950446518  -66.641490525     3.5510   6   5   0.3213   0.1466   0.6233   0.0904   0.1035   0.3586   0.00    0.0
2019/03/19 19:47:54.000   45.950446621  -66.641490399     3.5222   6   5   0.3185   0.1459   0.6206   0.0897   0.1033   0.3561   0.00    0.0
2019/03/19 19:47:55.000   45.950446716  -66.641490266     3.4911   6   5   0.3157   0.1452   0.6179   0.0893   0.1030   0.3537   0.00    0.0
2019/03/19 19:47:56.000   45.950446816  -66.641490176     3.4755   6   5   0.3128   0.1445   0.6153   0.0886   0.1028   0.3513   0.00    0.0
2019/03/19 19:47:57.000   45.950446800  -66.641490087     3.4494   6   5   0.3101   0.1438   0.6127   0.0880   0.1024   0.3490   0.00    0.0
2019/03/19 19:47:58.000   45.950446798  -66.641490048     3.4259   6   5   0.3073   0.1431   0.6102   0.0875   0.1023   0.3466   0.00    0.0
2019/03/19 19:47:59.000   45.950446830  -66.641489956     3.4104   6   5   0.3046   0.1425   0.6077   0.0870   0.1019   0.3444   0.00    0.0
2019/03/19 19:48:00.000   45.950446744  -66.641489844     3.3868   6   5   0.3020   0.1419   0.6053   0.0864   0.1017   0.3422   0.00    0.0
2019/03/19 19:48:01.000   45.950446698  -66.641489716     3.3731   6   5   0.2996   0.1413   0.6031   0.0862   0.1014   0.3402   0.00    0.0
2019/03/19 19:48:02.000   45.950446654  -66.641489595     3.3602   6   5   0.2974   0.1407   0.6009   0.0857   0.1013   0.3383   0.00    0.0
2019/03/19 19:48:03.000   45.950446599  -66.641489485     3.3297   6   5   0.2953   0.1402   0.5989   0.0854   0.1011   0.3366   0.00    0.0
2019/03/19 19:48:04.000   45.950446553  -66.641489369     3.3006   6   5   0.2933   0.1397   0.5969   0.0851   0.1009   0.3349   0.00    0.0
2019/03/19 19:48:05.000   45.950446530  -66.641489279     3.2737   6   5   0.2915   0.1391   0.5950   0.0847   0.1008   0.3334   0.00    0.0
2019/03/19 19:48:06.000   45.950446466  -66.641489194     3.2554   6   5   0.2898   0.1386   0.5932   0.0845   0.1006   0.3319   0.00    0.0
2019/03/19 19:48:07.000   45.950446231  -66.641489252     3.2276   6   5   0.2882   0.1381   0.5914   0.0842   0.1005   0.3306   0.00    0.0
2019/03/19 19:48:08.000   45.950444703  -66.641492227     3.2280   6   5   0.2867   0.1376   0.5898   0.0840   0.1005   0.3293   0.00    0.0
2019/03/19 19:48:09.000   45.950441393  -66.641498098     3.2360   6   5   0.2854   0.1371   0.5881   0.0838   0.1004   0.3282   0.00    0.0
2019/03/19 19:48:10.000   45.950438608  -66.641503567     3.2389   6   5   0.2841   0.1367   0.5866   0.0836   0.1002   0.3272   0.00    0.0
2019/03/19 19:48:11.000   45.950435941  -66.641508140     3.2245   6   5   0.2830   0.1362   0.5852   0.0835   0.1002   0.3262   0.00    0.0
2019/03/19 19:48:12.000   45.950433354  -66.641513147     3.2654   6   5   0.2820   0.1357   0.5838   0.0833   0.1001   0.3253   0.00    0.0
2019/03/19 19:48:13.000   45.950429911  -66.641519723     3.2645   6   5   0.2810   0.1353   0.5824   0.0832   0.1000   0.3245   0.00    0.0
2019/03/19 19:48:14.000   45.950425361  -66.641527858     3.2655   6   5   0.2802   0.1349   0.5811   0.0832   0.1000   0.3238   0.00    0.0
2019/03/19 19:48:15.000   45.950420535  -66.641538006     3.3169   6   5   0.2795   0.1345   0.5799   0.0830   0.1000   0.3231   0.00    0.0
2019/03/19 19:48:16.000   45.950415263  -66.641550838     3.2147   6   5   0.2777   0.1339   0.5779   0.0826   0.0999   0.3215   0.00    0.0
2019/03/19 19:48:17.000   45.950412444  -66.641565370     3.2006   6   5   0.2757   0.1333   0.5759   0.0823   0.0997   0.3198   0.00    0.0
2019/03/19 19:48:18.000   45.950412120  -66.641577359     3.1658   6   5   0.2737   0.1327   0.5739   0.0818   0.0995   0.3182   0.00    0.0
2019/03/19 19:48:19.000   45.950412953  -66.641580827     3.2066   6   5   0.2718   0.1322   0.5719   0.0813   0.0993   0.3166   0.00    0.0
2019/03/19 19:48:20.000   45.950412736  -66.641579717     3.1605   6   5   0.2698   0.1316   0.5700   0.0808   0.0991   0.3149   0.00    0.0
2019/03/19 19:48:21.000   45.950411314  -66.641569982     3.1374   6   5   0.2678   0.1311   0.5681   0.0804   0.0989   0.3133   0.00    0.0
2019/03/19 19:48:22.000   45.950407703  -66.641552665     3.0770   6   5   0.2658   0.1305   0.5662   0.0801   0.0988   0.3117   0.00    0.0
2019/03/19 19:48:23.000   45.950402041  -66.641529403     3.0938   6   5   0.2638   0.1300   0.5644   0.0796   0.0986   0.3101   0.00    0.0
2019/03/19 19:48:24.000   45.950394409  -66.641502124     3.0670   6   5   0.2619   0.1295   0.5626   0.0790   0.0984   0.3085   0.00    0.0
2019/03/19 19:48:25.000   45.950384785  -66.641469362     3.0040   6   5   0.2599   0.1290   0.5608   0.0788   0.0982   0.3069   0.00    0.0
2019/03/19 19:48:26.000   45.950374020  -66.641429389     2.9467   6   5   0.2580   0.1285   0.5591   0.0785   0.0981   0.3054   0.00    0.0
2019/03/19 19:48:27.000   45.950367467  -66.641386360     2.9423   6   5   0.2561   0.1280   0.5574   0.0779   0.0978   0.3039   0.00    0.0
2019/03/19 19:48:28.000   45.950367135  -66.641340774     2.8169   6   5   0.2542   0.1275   0.5558   0.0776   0.0979   0.3025   0.00    0.0
2019/03/19 19:48:29.000   45.950375218  -66.641296487     2.6606   6   5   0.2524   0.1271   0.5541   0.0773   0.0976   0.3011   0.00    0.0
2019/03/19 19:48:30.000   45.950390939  -66.641262888     2.5153   6   5   0.2507   0.1266   0.5526   0.0769   0.0974   0.2998   0.00    0.0
2019/03/19 19:48:31.000   45.950410894  -66.641242269     2.3563   6   5   0.2491   0.1262   0.5511   0.0768   0.0973   0.2986   0.00    0.0
2019/03/19 19:48:32.000   45.950434439  -66.641235588     2.2049   6   5   0.2478   0.1258   0.5498   0.0765   0.0972   0.2975   0.00    0.0
2019/03/19 19:48:33.000   45.950459045  -66.641243964     2.1550   6   5   0.2466   0.1254   0.5485   0.0763   0.0971   0.2965   0.00    0.0
2019/03/19 19:48:34.000   45.950481910  -66.641266246     2.1475   6   5   0.2454   0.1251   0.5473   0.0762   0.0971   0.2956   0.00    0.0
2019/03/19 19:48:35.000   45.950500766  -66.641302167     2.1664   6   5   0.2443   0.1247   0.5462   0.0761   0.0971   0.2948   0.00    0.0
2019/03/19 19:48:36.000   45.950518019  -66.641344992     2.2412   6   5   0.2434   0.1244   0.5450   0.0758   0.0969   0.2941   0.00    0.0
2019/03/19 19:48:37.000   45.950536523  -66.641390627     2.2115   6   5   0.2425   0.1240   0.5440   0.0757   0.0970   0.2934   0.00    0.0
2019/03/19 19:48:38.000   45.950556866  -66.641442217     2.2195   6   5   0.2418   0.1237   0.5430   0.0757   0.0969   0.2928   0.00    0.0
2019/03/19 19:48:39.000   45.950581167  -66.641502279     2.2274   6   5   0.2411   0.1234   0.5420   0.0757   0.0968   0.2923   0.00    0.0
2019/03/19 19:48:40.000   45.950608793  -66.641569451     2.2565   6   5   0.2405   0.1230   0.5411   0.0756   0.0969   0.2918   0.00    0.0
2019/03/19 19:48:41.000   45.950638849  -66.641642503     2.2799   6   5   0.2401   0.1228   0.5403   0.0756   0.0969   0.2914   0.00    0.0
2019/03/19 19:48:42.000   45.950669551  -66.641718435     2.2599   6   5   0.2397   0.1225   0.5395   0.0755   0.0969   0.2911   0.00    0.0
2019/03/19 19:48:43.000   45.950699552  -66.641794147     2.2752   6   5   0.2395   0.1222   0.5387   0.0756   0.0969   0.2909   0.00    0.0
2019/03/19 19:48:44.000   45.950725100  -66.641864091     2.2787   6   5   0.2392   0.1219   0.5380   0.0757   0.0969   0.2907   0.00    0.0
2019/03/19 19:48:45.000   45.950743401  -66.641922335     2.2660   6   5   0.2391   0.1217   0.5373   0.0756   0.0969   0.2905   0.00    0.0
2019/03/19 19:48:46.000   45.950756409  -66.641968582     2.2081   6   5   0.2377   0.1213   0.5359   0.0753   0.0967   0.2895   0.00    0.0
2019/03/19 19:48:47.000   45.950765801  -66.642005904     2.2464   6   5   0.2362   0.1208   0.5344   0.0750   0.0965   0.2882   0.00    0.0
2019/03/19 19:48:48.000   45.950775199  -66.642039884     2.2298   6   5   0.2346   0.1204   0.5329   0.0745   0.0964   0.2870   0.00    0.0
2019/03/19 19:48:49.000   45.950784841  -66.642071091     2.1838   6   6   0.2317   0.1197   0.5285   0.0728   0.0940   0.2833   0.00    0.0
2019/03/19 19:48:50.000   45.950793178  -66.642095639     2.1554   6   6   0.2253   0.1189   0.5222   0.0697   0.0905   0.2764   0.00    0.0
2019/03/19 19:48:51.000   45.950799554  -66.642112047     2.0702   6   6   0.2217   0.1182   0.5177   0.0677   0.0879   0.2722   0.00    0.0
2019/03/19 19:48:52.000   45.950803099  -66.642120038     2.0388   6   6   0.2188   0.1176   0.5137   0.0664   0.0858   0.2688   0.00    0.0
2019/03/19 19:48:53.000   45.950805648  -66.642124104     2.0037   6   6   0.2163   0.1169   0.5100   0.0649   0.0837   0.2656   0.00    0.0
2019/03/19 19:48:54.000   45.950808206  -66.642127828     1.9627   6   6   0.2139   0.1163   0.5064   0.0636   0.0817   0.2628   0.00    0.0
2019/03/19 19:48:55.000   45.950813697  -66.642135338     1.8236   6   7   0.2104   0.1157   0.5006   0.0619   0.0793   0.2578   0.00    0.0
2019/03/19 19:48:56.000   45.950825229  -66.642143071     1.6835   6   7   0.2066   0.1151   0.4949   0.0608   0.0772   0.2528   0.00    0.0
2019/03/19 19:48:57.000   45.950841569  -66.642147200     1.4900   6   7   0.2034   0.1146   0.4898   0.0594   0.0750   0.2484   0.00    0.0
2019/03/19 19:48:58.000   45.950860651  -66.642142324     1.2297   6   6   0.2033   0.1146   0.4857   0.0552   0.0748   0.2425   0.00    0.0
2019/03/19 19:48:59.000   45.950880716  -66.642129996     0.9051   6   6   0.2009   0.1140   0.4814   0.0537   0.0728   0.2387   0.00    0.0
2019/03/19 19:49:00.000   45.950898978  -66.642113225     0.5990   6   6   0.1987   0.1136   0.4772   0.0525   0.0711   0.2352   0.00    0.0
2019/03/19 19:49:01.000   45.950913954  -66.642098417     0.3460   6   6   0.1967   0.1132   0.4733   0.0509   0.0692   0.2317   0.00    0.0
2019/03/19 19:49:02.000   45.950924217  -66.642088426     0.1586   6   6   0.1949   0.1128   0.4695   0.0498   0.0678   0.2284   0.00    0.0
2019/03/19 19:49:03.000   45.950929733  -66.642083082     0.0798   6   6   0.1932   0.1124   0.4659   0.0484   0.0663   0.2253   0.00    0.0
2019/03/19 19:49:04.000   45.950930638  -66.642082175     0.0301   6   6   0.1915   0.1121   0.4626   0.0471   0.0647   0.2222   0.00    0.0
2019/03/19 19:49:05.000   45.950930534  -66.642082200    -0.0205   6   6   0.1900   0.1117   0.4593   0.0457   0.0633   0.2193   0.00    0.0
2019/03/19 19:49:06.000   45.950930381  -66.642082222    -0.0697   6   6   0.1886   0.1114   0.4562   0.0444   0.0620   0.2165   0.00    0.0
2019/03/19 19:49:07.000   45.950930184  -66.642082301    -0.1245   6   6   0.1873   0.1112   0.4532   0.0433   0.0608   0.2137   0.00    0.0
2019/03/19 19:49:08.000   45.950929980  -66.642082353    -0.1820   6   6   0.1860   0.1109   0.4503   0.0419   0.0595   0.2110   0.00    0.0
2019/03/19 19:49:09.000   45.950929813  -66.642082372    -0.2300   6   6   0.1847   0.1106   0.4475   0.0408   0.0582   0.2083   0.00    0.0
2019/03/19 19:49:10.000   45.950929610  -66.642082389    -0.2904   6   6   0.1836   0.1103   0.4449   0.0396   0.0572   0.2058   0.00    0.0
2019/03/19 19:49:11.000   45.950929477  -66.642082396    -0.3558   6   6   0.1825   0.1101   0.4424   0.0382   0.0560   0.2033   0.00    0.0
2019/03/19 19:49:12.000   45.950929339  -66.642082364    -0.4038   6   6   0.1815   0.1099   0.4399   0.0369   0.0550   0.2008   0.00    0.0
2019/03/19 19:49:13.000   45.950929135  -66.642082361    -0.4628   6   6   0.1805   0.1096   0.4375   0.0356   0.0540   0.1984   0.00    0.0
2019/03/19 19:49:14.000   45.950928902  -66.642082314    -0.5208   6   6   0.1796   0.1094   0.4353   0.0343   0.0529   0.1961   0.00    0.0
2019/03/19 19:49:15.000   45.950928712  -66.642082331    -0.5853   6   6   0.1787   0.1092   0.4332   0.0330   0.0521   0.1938   0.00    0.0
2019/03/19 19:49:16.000   45.950928534  -66.642082336    -0.6569   6   6   0.1775   0.1088   0.4305   0.0322   0.0511   0.1920   0.00    0.0
2019/03/19 19:49:17.000   45.950928265  -66.642082324    -0.7155   6   6   0.1763   0.1083   0.4280   0.0314   0.0500   0.1903   0.00    0.0
2019/03/19 19:49:18.000   45.950928010  -66.642082309    -0.7746   6   6   0.1751   0.1079   0.4256   0.0308   0.0489   0.1887   0.00    0.0
2019/03/19 19:49:19.000   45.950927841  -66.642082306    -0.8102   6   6   0.1739   0.1075   0.4231   0.0300   0.0481   0.1870   0.00    0.0
2019/03/19 19:49:20.000   45.950927722  -66.642082325    -0.8587   6   6   0.1728   0.1071   0.4208   0.0292   0.0470   0.1854   0.00    0.0
2019/03/19 19:49:21.000   45.950927661  -66.642082276    -0.8790   6   6   0.1717   0.1067   0.4186   0.0283   0.0463   0.1838   0.00    0.0
2019/03/19 19:49:22.000   45.950927641  -66.642082262    -0.9037   6   6   0.1706   0.1064   0.4164   0.0275   0.0452   0.1823   0.00    0.0
2019/03/19 19:49:23.000   45.950927661  -66.642082239    -0.9250   6   6   0.1697   0.1060   0.4142   0.0268   0.0443   0.1808   0.00    0.0
2019/03/19 19:49:24.000   45.950927667  -66.642082201    -0.9474   6   6   0.1687   0.1056   0.4121   0.0260   0.0436   0.1794   0.00    0.0
2019/03/19 19:49:25.000   45.950927672  -66.642082170    -0.9571   6   6   0.1677   0.1052   0.4101   0.0252   0.0429   0.1779   0.00    0.0
2019/03/19 19:49:26.000   45.950927657  -66.642082156    -0.9765   6   6   0.1668   0.1050   0.4081   0.0242   0.0419   0.1765   0.00    0.0
2019/03/19 19:49:27.000   45.950927575  -66.642082175    -0.9984   6   6   0.1659   0.1045   0.4063   0.0232   0.0412   0.1751   0.00    0.0
2019/03/19 19:49:28.000   45.950927528  -66.642082183    -1.0147   6   6   0.1651   0.1042   0.4044   0.0225   0.0405   0.1738   0.00    0.0
2019/03/19 19:49:29.000   45.950927534  -66.642082194    -1.0318   6   6   0.1643   0.1039   0.4026   0.0220   0.0402   0.1724   0.00    0.0
2019/03/19 19:49:30.000   45.950927543  -66.642082190    -1.0450   6   6   0.1635   0.1037   0.4008   0.0207   0.0391   0.1711   0.00    0.0
2019/03/19 19:49:31.000   45.950927549  -66.642082209    -1.0443   6   6   0.1628   0.1034   0.3992   0.0193   0.0384   0.1697   0.00    0.0
2019/03/19 19:49:32.000   45.950927600  -66.642082192    -1.0339   6   6   0.1622   0.1031   0.3976   0.0185   0.0381   0.1683   0.00    0.0
2019/03/19 19:49:33.000   45.950927762  -66.642082133    -1.0220   6   6   0.1615   0.1030   0.3961   0.0172   0.0373   0.1669   0.00    0.0
2019/03/19 19:49:34.000   45.950932398  -66.642077865    -1.0848   6   6   0.1609   0.1028   0.3947   0.0158   0.0367   0.1655   0.00    0.0
2019/03/19 19:49:35.000   45.950945166  -66.642065721    -1.2731   6   6   0.1604   0.1025   0.3932   0.0144   0.0363   0.1642   0.00    0.0
2019/03/19 19:49:36.000   45.950962431  -66.642049419    -1.5131   6   6   0.1598   0.1023   0.3919   0.0121   0.0356   0.1629   0.00    0.0
2019/03/19 19:49:37.000   45.950984241  -66.642029272    -1.8399   6   6   0.1594   0.1021   0.3905   0.0105   0.0351   0.1615   0.00    0.0
2019/03/19 19:49:38.000   45.951011647  -66.642003871    -2.2280   6   6   0.1589   0.1020   0.3893   0.0083   0.0344   0.1601   0.00    0.0
2019/03/19 19:49:39.000   45.951043491  -66.641974561    -2.6392   6   6   0.1585   0.1018   0.3881   0.0042   0.0345   0.1588   0.00    0.0
2019/03/19 19:49:40.000   45.951074918  -66.641943769    -3.0192   6   7   0.1580   0.1016   0.3868  -0.0023   0.0336   0.1576   0.00    0.0
2019/03/19 19:49:41.000   45.951110203  -66.641908964    -3.3876   6   7   0.1564   0.1010   0.3847   0.0093   0.0297   0.1579   0.00    0.0
2019/03/19 19:49:42.000   45.951149550  -66.641869613    -3.4796   6   6   0.1582   0.1011   0.3843  -0.0075   0.0246   0.1599   0.00    0.0
2019/03/19 19:49:43.000   45.951196060  -66.641823631    -3.6905   6   6   0.1578   0.1008   0.3835  -0.0064   0.0228   0.1598   0.00    0.0
2019/03/19 19:49:44.000   45.951249776  -66.641768696    -3.8994   6   6   0.1575   0.1006   0.3828  -0.0070   0.0208   0.1596   0.00    0.0
2019/03/19 19:49:45.000   45.951305762  -66.641704804    -4.1400   6   6   0.1573   0.1004   0.3821  -0.0079   0.0188   0.1593   0.00    0.0
2019/03/19 19:49:46.000   45.951360046  -66.641628561    -4.3976   6   6   0.1578   0.1006   0.3822  -0.0101   0.0137   0.1592   0.00    0.0
2019/03/19 19:49:47.000   45.951409210  -66.641538430    -4.6864   6   6   0.1572   0.1002   0.3811  -0.0097   0.0134   0.1588   0.00    0.0
2019/03/19 19:49:48.000   45.951449179  -66.641440731    -5.0328   6   6   0.1567   0.0998   0.3800  -0.0099   0.0131   0.1584   0.00    0.0
2019/03/19 19:49:49.000   45.951480641  -66.641344160    -5.4805   6   7   0.1558   0.0995   0.3784  -0.0101   0.0131   0.1574   0.00    0.0
2019/03/19 19:49:50.000   45.951507416  -66.641253050    -5.9205   6   7   0.1539   0.0990   0.3764  -0.0057   0.0152   0.1553   0.00    0.0
2019/03/19 19:49:51.000   45.951531472  -66.641173853    -6.2979   6   7   0.1529   0.0986   0.3748  -0.0043   0.0157   0.1541   0.00    0.0
2019/03/19 19:49:52.000   45.951551613  -66.641110641    -6.6111   6   7   0.1520   0.0982   0.3733  -0.0043   0.0146   0.1530   0.00    0.0
2019/03/19 19:49:53.000   45.951567683  -66.641062782    -6.8136   6   7   0.1512   0.0978   0.3719  -0.0043   0.0150   0.1522   0.00    0.0
2019/03/19 19:49:54.000   45.951583826  -66.641012858    -7.0890   6   7   0.1505   0.0974   0.3705  -0.0044   0.0140   0.1512   0.00    0.0
2019/03/19 19:49:55.000   45.951603059  -66.640955984    -7.3478   6   7   0.1498   0.0971   0.3692  -0.0045   0.0143   0.1504   0.00    0.0
2019/03/19 19:49:56.000   45.951626180  -66.640891759    -7.6210   6   7   0.1492   0.0968   0.3679  -0.0065   0.0132   0.1496   0.00    0.0
2019/03/19 19:49:57.000   45.951655398  -66.640822195    -7.8867   6   8   0.1484   0.0965   0.3664  -0.0072   0.0128   0.1486   0.00    0.0
2019/03/19 19:49:58.000   45.951693634  -66.640751864    -8.1490   6   8   0.1475   0.0960   0.3649  -0.0038   0.0142   0.1475   0.00    0.0
2019/03/19 19:49:59.000   45.951741258  -66.640684068    -8.3297   6   7   0.1470   0.0958   0.3637  -0.0062   0.0129   0.1470   0.00    0.0
2019/03/19 19:50:00.000   45.951796047  -66.640620161    -8.5004   6   7   0.1465   0.0955   0.3626  -0.0091   0.0110   0.1462   0.00    0.0
2019/03/19 19:50:01.000   45.951854135  -66.640562891    -8.5746   6   7   0.1460   0.0954   0.3615  -0.0079   0.0112   0.1455   0.00    0.0
2019/03/19 19:50:02.000   45.951911992  -66.640513088    -8.6640   6   7   0.1455   0.0952   0.3606  -0.0089   0.0075   0.1447   0.00    0.0
2019/03/19 19:50:03.000   45.951968051  -66.640469002    -8.7016   6   7   0.1451   0.0949   0.3596  -0.0095   0.0059   0.1440   0.00    0.0
2019/03/19 19:50:04.000   45.952023902  -66.640436210    -8.7352   6   7   0.1446   0.0948   0.3587  -0.0096  -0.0028   0.1433   0.00    0.0
2019/03/19 19:50:05.000   45.952079566  -66.640418854    -8.7420   6   7   0.1442   0.0947   0.3578  -0.0103  -0.0064   0.1425   0.00    0.0
2019/03/19 19:50:06.000   45.952134802  -66.640420832    -8.7771   6   7   0.1438   0.0946   0.3569  -0.0109  -0.0086   0.1418   0.00    0.0
2019/03/19 19:50:07.000   45.952187173  -66.640442724    -8.7984   6   7   0.1434   0.0944   0.3561  -0.0105  -0.0100   0.1411   0.00    0.0
2019/03/19 19:50:08.000   45.952234935  -66.640483777    -8.8280   6   7   0.1430   0.0943   0.3553  -0.0117  -0.0122   0.1404   0.00    0.0
2019/03/19 19:50:09.000   45.952279040  -66.640542470    -8.8748   6   7   0.1426   0.0941   0.3545  -0.0123  -0.0138   0.1397   0.00    0.0
2019/03/19 19:50:10.000   45.952318936  -66.640617784    -8.8993   6   7   0.1423   0.0940   0.3537  -0.0121  -0.0141   0.1389   0.00    0.0
2019/03/19 19:50:11.000   45.952356500  -66.640705595    -8.9373   6   7   0.1419   0.0939   0.3530  -0.0124  -0.0155   0.1382   0.00    0.0
2019/03/19 19:50:12.000   45.952396743  -66.640801787    -8.8671   6   7   0.1416   0.0939   0.3523  -0.0128  -0.0170   0.1375   0.00    0.0
2019/03/19 19:50:13.000   45.952439571  -66.640903873    -8.8824   6   6   0.1442   0.0939   0.3532  -0.0183  -0.0225   0.1403   0.00    0.0
2019/03/19 19:50:14.000   45.952485454  -66.641010983    -8.8670   6   6   0.1442   0.0938   0.3529  -0.0187  -0.0235   0.1402   0.00    0.0
2019/03/19 19:50:15.000   45.952530347  -66.641115117    -8.8172   6   6   0.1442   0.0938   0.3526  -0.0192  -0.0246   0.1400   0.00    0.0
2019/03/19 19:50:16.000   45.952569324  -66.641206155    -8.7987   6   6   0.1428   0.0928   0.3504  -0.0188  -0.0210   0.1394   0.00    0.0
2019/03/19 19:50:17.000   45.952601661  -66.641283497    -8.7361   6   6   0.1423   0.0925   0.3496  -0.0186  -0.0211   0.1391   0.00    0.0
2019/03/19 19:50:18.000   45.952627375  -66.641345185    -8.6955   6   6   0.1419   0.0922   0.3488  -0.0181  -0.0205   0.1389   0.00    0.0
2019/03/19 19:50:19.000   45.952652054  -66.641404648    -8.7132   6   7   0.1413   0.0919   0.3477  -0.0186  -0.0205   0.1382   0.00    0.0
2019/03/19 19:50:20.000   45.952677152  -66.641465127    -8.6961   6   7   0.1398   0.0915   0.3462  -0.0169  -0.0184   0.1366   0.00    0.0
2019/03/19 19:50:21.000   45.952705201  -66.641532819    -8.6544   6   7   0.1390   0.0913   0.3451  -0.0166  -0.0178   0.1358   0.00    0.0
2019/03/19 19:50:22.000   45.952738472  -66.641610177    -8.7008   6   7   0.1384   0.0910   0.3440  -0.0159  -0.0173   0.1351   0.00    0.0
2019/03/19 19:50:23.000   45.952776069  -66.641695538    -8.7517   6   7   0.1378   0.0906   0.3429  -0.0165  -0.0175   0.1345   0.00    0.0
2019/03/19 19:50:24.000   45.952817631  -66.641785412    -8.8234   6   7   0.1372   0.0905   0.3420  -0.0157  -0.0171   0.1340   0.00    0.0
2019/03/19 19:50:25.000   45.952863394  -66.641873344    -8.8796   6   7   0.1368   0.0901   0.3410  -0.0165  -0.0169   0.1335   0.00    0.0
2019/03/19 19:50:26.000   45.952910630  -66.641951134    -8.9324   6   7   0.1363   0.0899   0.3402  -0.0163  -0.0172   0.1330   0.00    0.0
2019/03/19 19:50:27.000   45.952952901  -66.642012384    -8.9711   6   8   0.1356   0.0898   0.3392  -0.0163  -0.0172   0.1325   0.00    0.0
2019/03/19 19:50:28.000   45.952985606  -66.642056893    -9.0018   6   8   0.1351   0.0894   0.3379  -0.0157  -0.0159   0.1315   0.00    0.0
2019/03/19 19:50:29.000   45.953016109  -66.642097510    -9.0412   6   8   0.1344   0.0889   0.3368  -0.0154  -0.0152   0.1309   0.00    0.0
2019/03/19 19:50:30.000   45.953047877  -66.642140477    -9.0711   6   8   0.1339   0.0888   0.3360  -0.0149  -0.0147   0.1303   0.00    0.0
2019/03/19 19:50:31.000   45.953084881  -66.642190768    -9.0713   6   8   0.1335   0.0887   0.3350  -0.0148  -0.0144   0.1297   0.00    0.0
2019/03/19 19:50:32.000   45.953126932  -66.642251907    -9.1231   6   8   0.1330   0.0884   0.3342  -0.0144  -0.0146   0.1291   0.00    0.0
2019/03/19 19:50:33.000   45.953171964  -66.642326573    -9.1798   6   8   0.1325   0.0883   0.3334  -0.0144  -0.0149   0.1285   0.00    0.0
2019/03/19 19:50:34.000   45.953219583  -66.642412562    -9.2564   6   8   0.1321   0.0883   0.3325  -0.0149  -0.0161   0.1278   0.00    0.0
2019/03/19 19:50:35.000   45.953266084  -66.642505875    -9.1947   6   8   0.1318   0.0881   0.3318  -0.0143  -0.0155   0.1273   0.00    0.0
2019/03/19 19:50:36.000   45.953311567  -66.642604130    -9.2139   6   7   0.1320   0.0879   0.3314  -0.0144  -0.0157   0.1275   0.00    0.0
2019/03/19 19:50:37.000   45.953355893  -66.642707256    -9.2082   6   7   0.1318   0.0879   0.3309  -0.0142  -0.0157   0.1272   0.00    0.0
2019/03/19 19:50:38.000   45.953400855  -66.642811724    -9.1956   6   7   0.1316   0.0875   0.3304  -0.0144  -0.0159   0.1269   0.00    0.0
2019/03/19 19:50:39.000   45.953444864  -66.642914445    -9.0497   6   7   0.1314   0.0875   0.3298  -0.0139  -0.0160   0.1265   0.00    0.0
2019/03/19 19:50:40.000   45.953488128  -66.643012145    -9.1226   6   6   0.1344   0.0880   0.3314  -0.0228   0.0111   0.1218   0.00    0.0
2019/03/19 19:50:41.000   45.953528881  -66.643104466    -9.0336   6   6   0.1343   0.0880   0.3312  -0.0231   0.0117   0.1212   0.00    0.0
2019/03/19 19:50:42.000   45.953568020  -66.643188117    -9.1433   6   5   0.1347   0.0883   0.3310  -0.0221   0.0150   0.1208   0.00    0.0
2019/03/19 19:50:43.000   45.953602449  -66.643263727    -9.0139   6   6   0.1479   0.1021   0.3403   0.0514  -0.0622   0.0978   0.00    0.0
2019/03/19 19:50:44.000   45.953632312  -66.643326787    -9.0002   6   8   0.1403   0.0967   0.3347   0.0378  -0.0505   0.1099   0.00    0.0
2019/03/19 19:50:45.000   45.953655742  -66.643377557    -8.9840   6   8   0.1369   0.0934   0.3317   0.0303  -0.0422   0.1134   0.00    0.0
2019/03/19 19:50:46.000   45.953670602  -66.643428493    -8.9614   6   8   0.1349   0.0917   0.3297   0.0259  -0.0374   0.1153   0.00    0.0
2019/03/19 19:50:47.000   45.953670212  -66.643475023    -8.9601   6   8   0.1334   0.0906   0.3282   0.0225  -0.0348   0.1162   0.00    0.0
2019/03/19 19:50:48.000   45.953664879  -66.643501165    -9.0315   6   8   0.1324   0.0897   0.3268   0.0204  -0.0320   0.1165   0.00    0.0
2019/03/19 19:50:49.000   45.953659012  -66.643520098    -9.0864   6   8   0.1314   0.0890   0.3258   0.0185  -0.0305   0.1168   0.00    0.0
2019/03/19 19:50:50.000   45.953649858  -66.643539478    -9.0610   6   8   0.1306   0.0885   0.3248   0.0165  -0.0290   0.1168   0.00    0.0
2019/03/19 19:50:51.000   45.953635260  -66.643560695    -8.9982   6   8   0.1299   0.0881   0.3239   0.0157  -0.0277   0.1167   0.00    0.0
2019/03/19 19:50:52.000   45.953613239  -66.643586597    -9.0322   6   7   0.1313   0.0881   0.3249  -0.0033  -0.0198   0.1131   0.00    0.0
2019/03/19 19:50:53.000   45.953584690  -66.643614198    -9.0338   6   7   0.1307   0.0877   0.3241  -0.0039  -0.0178   0.1130   0.00    0.0
2019/03/19 19:50:54.000   45.953551299  -66.643643765    -9.0278   6   7   0.1301   0.0875   0.3232  -0.0071  -0.0178   0.1129   0.00    0.0
2019/03/19 19:50:55.000   45.953516407  -66.643674873    -9.0543   6   7   0.1297   0.0871   0.3224  -0.0085  -0.0161   0.1127   0.00    0.0
2019/03/19 19:50:56.000   45.953484078  -66.643705036    -9.0575   6   7   0.1292   0.0868   0.3217  -0.0086  -0.0147   0.1124   0.00    0.0
2019/03/19 19:50:57.000   45.953456634  -66.643736596    -9.0323   6   7   0.1288   0.0865   0.3210  -0.0101  -0.0143   0.1121   0.00    0.0
2019/03/19 19:50:58.000   45.953435240  -66.643766404    -9.0628   6   7   0.1283   0.0863   0.3203  -0.0101  -0.0130   0.1118   0.00    0.0
2019/03/19 19:50:59.000   45.953417624  -66.643795926    -9.0739   6   7   0.1280   0.0860   0.3196  -0.0109  -0.0128   0.1115   0.00    0.0
2019/03/19 19:51:00.000   45.953404407  -66.643824947    -9.0945   6   7   0.1276   0.0858   0.3190  -0.0117  -0.0117   0.1110   0.00    0.0
2019/03/19 19:51:01.000   45.953395865  -66.643854948    -9.0864   6   7   0.1274   0.0858   0.3185  -0.0115  -0.0101   0.1105   0.00    0.0
2019/03/19 19:51:02.000   45.953392083  -66.643887117    -9.1049   6   7   0.1271   0.0855   0.3181  -0.0123  -0.0081   0.1100   0.00    0.0
2019/03/19 19:51:03.000   45.953395394  -66.643923141    -9.0901   6   8   0.1269   0.0853   0.3175  -0.0116  -0.0059   0.1094   0.00    0.0
2019/03/19 19:51:04.000   45.953406977  -66.643959767    -9.0907   6   8   0.1258   0.0850   0.3162  -0.0083  -0.0128   0.1105   0.00    0.0
2019/03/19 19:51:05.000   45.953427222  -66.643993614    -9.0851   6   8   0.1252   0.0848   0.3155  -0.0066  -0.0144   0.1105   0.00    0.0
2019/03/19 19:51:06.000   45.953452042  -66.644026403    -9.0821   6   8   0.1248   0.0846   0.3149  -0.0056  -0.0153   0.1103   0.00    0.0
2019/03/19 19:51:07.000   45.953479293  -66.644058884    -9.0116   6   8   0.1244   0.0846   0.3144  -0.0045  -0.0155   0.1101   0.00    0.0
2019/03/19 19:51:08.000   45.953508165  -66.644091736    -8.9992   6   7   0.1247   0.0865   0.3149   0.0148  -0.0270   0.1083   0.00    0.0
2019/03/19 19:51:09.000   45.953538855  -66.644124943    -8.9827   6   6   0.1249   0.0885   0.3147   0.0204  -0.0274   0.1080   0.00    0.0
2019/03/19 19:51:10.000   45.953571476  -66.644156399    -8.9868   6   6   0.1247   0.0888   0.3145   0.0212  -0.0277   0.1076   0.00    0.0
2019/03/19 19:51:11.000   45.953601865  -66.644191061    -8.9960   6   6   0.1246   0.0889   0.3143   0.0221  -0.0283   0.1073   0.00    0.0
2019/03/19 19:51:12.000   45.953629278  -66.644229504    -8.9979   6   6   0.1245   0.0892   0.3141   0.0228  -0.0288   0.1069   0.00    0.0
2019/03/19 19:51:13.000   45.953654356  -66.644266055    -8.9689   6   7   0.1243   0.0894   0.3138   0.0235  -0.0297   0.1063   0.00    0.0
2019/03/19 19:51:14.000   45.953669206  -66.644285464    -8.9720   6   7   0.1239   0.0885   0.3136   0.0215  -0.0301   0.1058   0.00    0.0
2019/03/19 19:51:15.000   45.953672866  -66.644290352    -8.9943   6   6   0.1241   0.0901   0.3135   0.0250  -0.0312   0.1053   0.00    0.0
2019/03/19 19:51:16.000   45.953672853  -66.644290230    -9.0188   6   6   0.1237   0.0898   0.3132   0.0248  -0.0308   0.1051   0.00    0.0
2019/03/19 19:51:17.000   45.953672831  -66.644290223    -9.0260   6   6   0.1234   0.0893   0.3126   0.0244  -0.0297   0.1050   0.00    0.0
2019/03/19 19:51:18.000   45.953672853  -66.644290149    -9.0347   6   6   0.1230   0.0888   0.3120   0.0239  -0.0290   0.1051   0.00    0.0
2019/03/19 19:51:19.000   45.953672809  -66.644290181    -9.0328   6   6   0.1225   0.0884   0.3116   0.0234  -0.0280   0.1050   0.00    0.0
2019/03/19 19:51:20.000   45.953672853  -66.644290157    -9.0248   6   6   0.1222   0.0880   0.3111   0.0231  -0.0272   0.1050   0.00    0.0
2019/03/19 19:51:21.000   45.953672914  -66.644290081    -9.0179   6   6   0.1219   0.0876   0.3106   0.0229  -0.0263   0.1050   0.00    0.0
2019/03/19 19:51:22.000   45.953672931  -66.644290054    -9.0138   6   6   0.1215   0.0873   0.3101   0.0225  -0.0254   0.1048   0.00    0.0
2019/03/19 19:51:23.000   45.953672950  -66.644290002    -9.0122   6   6   0.1211   0.0870   0.3096   0.0222  -0.0244   0.1048   0.00    0.0
2019/03/19 19:51:24.000   45.953672997  -66.644289923    -9.0203   6   6   0.1208   0.0867   0.3092   0.0220  -0.0240   0.1047   0.00    0.0
2019/03/19 19:51:25.000   45.953673071  -66.644289901    -9.0191   6   6   0.1205   0.0864   0.3088   0.0217  -0.0234   0.1046   0.00    0.0
2019/03/19 19:51:26.000   45.953673143  -66.644289929    -9.0162   6   6   0.1202   0.0862   0.3084   0.0216  -0.0225   0.1045   0.00    0.0
2019/03/19 19:51:27.000   45.953673191  -66.644289853    -9.0204   6   6   0.1199   0.0860   0.3080   0.0216  -0.0221   0.1044   0.00    0.0
2019/03/19 19:51:28.000   45.953673235  -66.644289773    -9.0296   6   6   0.1196   0.0857   0.3076   0.0215  -0.0211   0.1042   0.00    0.0
2019/03/19 19:51:29.000   45.953673336  -66.644289656    -9.0375   6   6   0.1193   0.0855   0.3072   0.0215  -0.0209   0.1041   0.00    0.0
2019/03/19 19:51:30.000   45.953673330  -66.644289614    -9.0477   6   6   0.1190   0.0854   0.3069   0.0215  -0.0202   0.1039   0.00    0.0
2019/03/19 19:51:31.000   45.953673327  -66.644289575    -9.0523   6   6   0.1189   0.0854   0.3066   0.0217  -0.0202   0.1036   0.00    0.0
2019/03/19 19:51:32.000   45.953673349  -66.644289580    -9.0343   6   6   0.1187   0.0854   0.3064   0.0220  -0.0205   0.1033   0.00    0.0
2019/03/19 19:51:33.000   45.953673327  -66.644289528    -9.0391   6   6   0.1186   0.0856   0.3062   0.0224  -0.0210   0.1031   0.00    0.0
2019/03/19 19:51:34.000   45.953673306  -66.644289500    -9.0425   6   6   0.1184   0.0855   0.3061   0.0228  -0.0213   0.1027   0.00    0.0
2019/03/19 19:51:35.000   45.953673278  -66.644289497    -9.0472   6   6   0.1182   0.0857   0.3059   0.0232  -0.0214   0.1024   0.00    0.0
2019/03/19 19:51:36.000   45.953673233  -66.644289438    -9.0498   6   6   0.1181   0.0858   0.3057   0.0237  -0.0215   0.1020   0.00    0.0
2019/03/19 19:51:37.000   45.953673218  -66.644289383    -9.0524   6   6   0.1180   0.0859   0.3056   0.0242  -0.0220   0.1016   0.00    0.0
2019/03/19 19:51:38.000   45.953673221  -66.644289317    -9.0652   6   6   0.1179   0.0861   0.3054   0.0249  -0.0225   0.1013   0.00    0.0
2019/03/19 19:51:39.000   45.953673206  -66.644289220    -9.0773   6   6   0.1178   0.0863   0.3053   0.0254  -0.0233   0.1009   0.00    0.0
2019/03/19 19:51:40.000   45.953673208  -66.644289099    -9.0901   6   6   0.1177   0.0865   0.3053   0.0259  -0.0238   0.1005   0.00    0.0
2019/03/19 19:51:41.000   45.953673180  -66.644289008    -9.1005   6   6   0.1177   0.0868   0.3052   0.0266  -0.0245   0.1001   0.00    0.0
2019/03/19 19:51:42.000   45.953673126  -66.644289138    -9.0837   6   7   0.1176   0.0870   0.3050   0.0271  -0.0247   0.0997   0.00    0.0
2019/03/19 19:51:43.000   45.953673101  -66.644289147    -9.0729   6   7   0.1170   0.0849   0.3043   0.0235  -0.0158   0.1004   0.00    0.0
2019/03/19 19:51:44.000   45.953672998  -66.644289304    -9.0555   6   7   0.1168   0.0843   0.3040   0.0221  -0.0114   0.1004   0.00    0.0
2019/03/19 19:51:45.000   45.953672938  -66.644289528    -9.0347   6   7   0.1166   0.0839   0.3038   0.0217  -0.0064   0.1002   0.00    0.0
2019/03/19 19:51:46.000   45.953672893  -66.644289626    -9.0179   6   7   0.1162   0.0835   0.3033   0.0211   0.0043   0.1003   0.00    0.0
2019/03/19 19:51:47.000   45.953673027  -66.644289336    -9.0320   6   7   0.1158   0.0830   0.3027   0.0205   0.0075   0.1002   0.00    0.0
2019/03/19 19:51:48.000   45.953673014  -66.644289359    -9.0223   6   7   0.1155   0.0827   0.3023   0.0203   0.0098   0.1002   0.00    0.0
2019/03/19 19:51:49.000   45.953672909  -66.644289544    -9.0053   6   7   0.1152   0.0824   0.3018   0.0201   0.0124   0.1002   0.00    0.0
2019/03/19 19:51:50.000   45.953672856  -66.644289597    -8.9942   6   7   0.1149   0.0820   0.3014   0.0198   0.0141   0.1001   0.00    0.0
2019/03/19 19:51:51.000   45.953672729  -66.644289886    -8.9686   6   7   0.1146   0.0818   0.3009   0.0195   0.0153   0.1000   0.00    0.0
2019/03/19 19:51:52.000   45.953672833  -66.644289607    -8.9842   6   7   0.1143   0.0816   0.3005   0.0193   0.0152   0.1000   0.00    0.0
2019/03/19 19:51:53.000   45.953672783  -66.644289658    -8.9784   6   7   0.1140   0.0812   0.3001   0.0196   0.0172   0.0998   0.00    0.0
2019/03/19 19:51:54.000   45.953672759  -66.644289794    -8.9603   6   7   0.1138   0.0810   0.2996   0.0191   0.0175   0.0997   0.00    0.0
2019/03/19 19:51:55.000   45.953672719  -66.644289913    -8.9376   6   7   0.1134   0.0809   0.2993   0.0195   0.0186   0.0996   0.00    0.0
2019/03/19 19:51:56.000   45.953672768  -66.644289958    -8.9171   6   7   0.1133   0.0807   0.2989   0.0192   0.0183   0.0994   0.00    0.0
2019/03/19 19:51:57.000   45.953672697  -66.644290138    -8.8949   6   7   0.1129   0.0803   0.2985   0.0196   0.0195   0.0993   0.00    0.0
2019/03/19 19:51:58.000   45.953672682  -66.644290280    -8.8727   6   7   0.1127   0.0802   0.2982   0.0193   0.0200   0.0992   0.00    0.0
2019/03/19 19:51:59.000   45.953672700  -66.644290299    -8.8619   6   7   0.1126   0.0800   0.2978   0.0195   0.0208   0.0990   0.00    0.0
2019/03/19 19:52:00.000   45.953672673  -66.644290521    -8.8334   6   7   0.1123   0.0799   0.2975   0.0192   0.0213   0.0988   0.00    0.0
2019/03/19 19:52:01.000   45.953672608  -66.644290686    -8.8182   6   7   0.1121   0.0799   0.2972   0.0192   0.0216   0.0986   0.00    0.0
2019/03/19 19:52:02.000   45.953672544  -66.644290751    -8.8028   6   7   0.1119   0.0798   0.2970   0.0193   0.0220   0.0984   0.00    0.0
2019/03/19 19:52:03.000   45.953672633  -66.644290518    -8.8107   6   7   0.1118   0.0797   0.2967   0.0194   0.0222   0.0981   0.00    0.0
2019/03/19 19:52:04.000   45.953672621  -66.644290448    -8.8095   6   7   0.1116   0.0794   0.2966   0.0196   0.0227   0.0979   0.00    0.0
2019/03/19 19:52:05.000   45.953672629  -66.644290381    -8.8008   6   7   0.1115   0.0795   0.2964   0.0200   0.0235   0.0978   0.00    0.0
2019/03/19 19:52:06.000   45.953672626  -66.644290430    -8.7831   6   7   0.1114   0.0794   0.2961   0.0198   0.0232   0.0974   0.00    0.0
2019/03/19 19:52:07.000   45.953672536  -66.644290573    -8.7728   6   7   0.1112   0.0795   0.2959   0.0200   0.0236   0.0972   0.00    0.0
2019/03/19 19:52:08.000   45.953672514  -66.644290554    -8.7702   6   7   0.1110   0.0795   0.2958   0.0203   0.0235   0.0970   0.00    0.0
2019/03/19 19:52:09.000   45.953672502  -66.644290561    -8.7655   6   7   0.1109   0.0795   0.2956   0.0203   0.0238   0.0966   0.00    0.0
2019/03/19 19:52:10.000   45.953672552  -66.644290477    -8.7732   6   7   0.1108   0.0795   0.2955   0.0203   0.0242   0.0964   0.00    0.0
2019/03/19 19:52:11.000   45.953672475  -66.644290609    -8.7593   6   7   0.1107   0.0794   0.2954   0.0207   0.0244   0.0961   0.00    0.0
2019/03/19 19:52:12.000   45.953672498  -66.644290556    -8.7574   6   7   0.1106   0.0794   0.2952   0.0205   0.0243   0.0959   0.00    0.0
2019/03/19 19:52:13.000   45.953672491  -66.644290457    -8.7606   6   7   0.1106   0.0794   0.2951   0.0208   0.0249   0.0956   0.00    0.0
2019/03/19 19:52:14.000   45.953672496  -66.644290302    -8.7729   6   7   0.1104   0.0794   0.2950   0.0210   0.0245   0.0952   0.00    0.0
2019/03/19 19:52:15.000   45.953672533  -66.644290226    -8.7821   6   7   0.1103   0.0794   0.2949   0.0209   0.0248   0.0949   0.00    0.0
2019/03/19 19:52:16.000   45.953672590  -66.644290062    -8.7829   6   7   0.1101   0.0793   0.2945   0.0212   0.0250   0.0948   0.00    0.0
2019/03/19 19:52:17.000   45.953672496  -66.644290008    -8.7826   6   7   0.1098   0.0790   0.2941   0.0213   0.0256   0.0949   0.00    0.0
2019/03/19 19:52:18.000   45.953672568  -66.644289801    -8.7942   6   7   0.1095   0.0787   0.2937   0.0211   0.0259   0.0948   0.00    0.0
2019/03/19 19:52:19.000   45.953672480  -66.644289837    -8.7872   6   7   0.1092   0.0786   0.2932   0.0208   0.0263   0.0947   0.00    0.0
2019/03/19 19:52:20.000   45.953672419  -66.644289850    -8.7817   6   7   0.1089   0.0784   0.2928   0.0211   0.0265   0.0946   0.00    0.0
2019/03/19 19:52:21.000   45.953672356  -66.644289906    -8.7790   6   7   0.1087   0.0781   0.2923   0.0211   0.0272   0.0945   0.00    0.0
2019/03/19 19:52:22.000   45.953672319  -66.644289828    -8.7820   6   7   0.1085   0.0780   0.2919   0.0206   0.0273   0.0945   0.00    0.0
2019/03/19 19:52:23.000   45.953672319  -66.644289733    -8.7866   6   7   0.1082   0.0776   0.2915   0.0209   0.0278   0.0943   0.00    0.0
2019/03/19 19:52:24.000   45.953672344  -66.644289518    -8.7944   6   7   0.1078   0.0775   0.2911   0.0208   0.0279   0.0943   0.00    0.0
2019/03/19 19:52:25.000   45.953672243  -66.644289522    -8.7918   6   7   0.1077   0.0774   0.2907   0.0205   0.0281   0.0941   0.00    0.0
2019/03/19 19:52:26.000   45.953672264  -66.644289494    -8.7862   6   7   0.1074   0.0772   0.2904   0.0204   0.0285   0.0939   0.00    0.0
2019/03/19 19:52:27.000   45.953672259  -66.644289390    -8.7917   6   7   0.1071   0.0770   0.2900   0.0208   0.0289   0.0939   0.00    0.0
2019/03/19 19:52:28.000   45.953672247  -66.644289241    -8.8027   6   7   0.1068   0.0768   0.2897   0.0206   0.0289   0.0938   0.00    0.0
2019/03/19 19:52:29.000   45.953672252  -66.644289072    -8.8116   6   7   0.1067   0.0767   0.2893   0.0205   0.0291   0.0936   0.00    0.0
2019/03/19 19:52:30.000   45.953672225  -66.644288934    -8.8136   6   7   0.1065   0.0766   0.2889   0.0203   0.0294   0.0934   0.00    0.0
2019/03/19 19:52:31.000   45.953672183  -66.644288817    -8.8243   6   7   0.1063   0.0763   0.2885   0.0204   0.0290   0.0931   0.00    0.0
2019/03/19 19:52:32.000   45.953672164  -66.644288725    -8.8222   6   7   0.1062   0.0765   0.2883   0.0205   0.0295   0.0929   0.00    0.0
2019/03/19 19:52:33.000   45.953672129  -66.644288826    -8.8135   6   7   0.1059   0.0764   0.2881   0.0206   0.0296   0.0927   0.00    0.0
2019/03/19 19:52:34.000   45.953672085  -66.644288713    -8.8266   6   7   0.1058   0.0765   0.2878   0.0206   0.0298   0.0926   0.00    0.0
2019/03/19 19:52:35.000   45.953671975  -66.644288675    -8.8315   6   7   0.1057   0.0764   0.2876   0.0209   0.0300   0.0922   0.00    0.0
2019/03/19 19:52:36.000   45.953671962  -66.644288574    -8.8319   6   7   0.1056   0.0762   0.2875   0.0213   0.0302   0.0920   0.00    0.0
2019/03/19 19:52:37.000   45.953671944  -66.644288525    -8.8308   6   7   0.1053   0.0762   0.2874   0.0213   0.0302   0.0918   0.00    0.0
2019/03/19 19:52:38.000   45.953671887  -66.644288587    -8.8303   6   7   0.1054   0.0763   0.2870   0.0207   0.0299   0.0915   0.00    0.0
2019/03/19 19:52:39.000   45.953671899  -66.644288533    -8.8301   6   7   0.1052   0.0763   0.2868   0.0213   0.0301   0.0912   0.00    0.0
2019/03/19 19:52:40.000   45.953671830  -66.644288526    -8.8289   6   7   0.1051   0.0762   0.2867   0.0215   0.0303   0.0910   0.00    0.0
2019/03/19 19:52:41.000   45.953671791  -66.644288388    -8.8378   6   7   0.1050   0.0764   0.2866   0.0213   0.0301   0.0907   0.00    0.0
2019/03/19 19:52:42.000   45.953671781  -66.644288394    -8.8281   6   8   0.1049   0.0764   0.2863   0.0212   0.0298   0.0902   0.00    0.0
2019/03/19 19:52:43.000   45.953671834  -66.644288232    -8.8287   6   8   0.1048   0.0760   0.2861   0.0208   0.0291   0.0898   0.00    0.0
2019/03/19 19:52:44.000   45.953671856  -66.644288055    -8.8257   6   8   0.1046   0.0759   0.2860   0.0208   0.0287   0.0894   0.00    0.0
2019/03/19 19:52:45.000   45.953671867  -66.644288014    -8.7944   6   8   0.1045   0.0758   0.2858   0.0206   0.0285   0.0890   0.00    0.0
2019/03/19 19:52:46.000   45.953671797  -66.644287973    -8.7728   6   8   0.1041   0.0756   0.2852   0.0201   0.0284   0.0889   0.00    0.0
2019/03/19 19:52:47.000   45.953671782  -66.644287944    -8.7550   6   8   0.1038   0.0751   0.2847   0.0201   0.0287   0.0888   0.00    0.0
2019/03/19 19:52:48.000   45.953671747  -66.644287934    -8.7483   6   8   0.1036   0.0750   0.2841   0.0198   0.0291   0.0886   0.00    0.0
2019/03/19 19:52:49.000   45.953671800  -66.644287846    -8.7348   6   8   0.1033   0.0748   0.2835   0.0200   0.0289   0.0885   0.00    0.0
2019/03/19 19:52:50.000   45.953671756  -66.644287836    -8.7216   6   8   0.1030   0.0746   0.2830   0.0198   0.0288   0.0884   0.00    0.0
2019/03/19 19:52:51.000   45.953671751  -66.644287785    -8.7183   6   8   0.1027   0.0745   0.2825   0.0194   0.0289   0.0882   0.00    0.0
2019/03/19 19:52:52.000   45.953671726  -66.644287706    -8.7147   6   8   0.1024   0.0742   0.2819   0.0194   0.0289   0.0881   0.00    0.0
2019/03/19 19:52:53.000   45.953671674  -66.644287626    -8.7123   6   8   0.1022   0.0740   0.2814   0.0190   0.0288   0.0878   0.00    0.0
2019/03/19 19:52:54.000   45.953671613  -66.644287721    -8.7030   6   8   0.1018   0.0738   0.2809   0.0193   0.0291   0.0876   0.00    0.0
2019/03/19 19:52:55.000   45.953671581  -66.644287740    -8.7010   6   8   0.1015   0.0735   0.2805   0.0192   0.0290   0.0876   0.00    0.0
2019/03/19 19:52:56.000   45.953671588  -66.644287716    -8.6975   6   8   0.1013   0.0736   0.2799   0.0189   0.0291   0.0875   0.00    0.0
2019/03/19 19:52:57.000   45.953671619  -66.644287597    -8.6942   6   8   0.1010   0.0732   0.2795   0.0190   0.0287   0.0872   0.00    0.0
2019/03/19 19:52:58.000   45.953671568  -66.644287496    -8.6907   6   8   0.1009   0.0734   0.2791   0.0181   0.0284   0.0870   0.00    0.0
2019/03/19 19:52:59.000   45.953671553  -66.644287410    -8.6892   6   8   0.1005   0.0731   0.2784   0.0177   0.0283   0.0868   0.00    0.0
2019/03/19 19:53:00.000   45.953671531  -66.644287436    -8.6840   6   8   0.1004   0.0730   0.2780   0.0183   0.0286   0.0864   0.00    0.0
2019/03/19 19:53:01.000   45.953671550  -66.644287388    -8.6806   6   8   0.1000   0.0731   0.2776   0.0189   0.0288   0.0862   0.00    0.0
2019/03/19 19:53:02.000   45.953671527  -66.644287306    -8.6710   6   8   0.1000   0.0728   0.2774   0.0188   0.0284   0.0860   0.00    0.0
