     2.10           OBSERVATION DATA    M                   RINEX VERSION / TYPE
sbf2rin-12.1.2                          17-OCT-18 13:27     PGM / RUN BY / DATE 
CAR_BACK                                                    MARKER NAME         
CAR_BACK                                                    MARKER NUMBER       
Unknown             Unknown                                 OBSERVER / AGENCY   
3013542             SEPT ALTUS APS3G    4.1.5               REC # / TYPE / VERS 
                    APSAPS-3L       NONE                    ANT # / TYPE        
  1761302.4120 -4078205.6254  4561408.5190                  APPROX POSITION XYZ 
        0.0936        0.0000        0.0000                  ANTENNA: DELTA H/E/N
     1     1                                                WAVELENGTH FACT L1/2
     4    C1    L1    L2    P2                              # / TYPES OF OBSERV 
     1.000                                                  INTERVAL            
  2018    10    16    19     5   36.0000000     GPS         TIME OF FIRST OBS   
  2018    10    16    20     1   25.0000000     GPS         TIME OF LAST OBS    
    20                                                      # OF SATELLITES     
                                                            END OF HEADER       
 18 10 16 19  5 36.0000000  0 13G30G15G20G21R07R24R06G27G13R09R16R23
                                R08
  24897450.244 5 130837086.91705 101950908.68201  24897453.146 1
  20171243.187 9 106000596.20809  82597865.72807  20171241.361 7
  22698619.330 7 119282045.91407  92947053.31403  22698618.646 3
  21862128.621 7 114886262.14107  89521763.67504  21862127.109 4
  20161861.030 7 107928021.99207
  22984604.298 6 122909018.08906
  23513849.450 5 125474391.20605
  24989218.521 5 131319229.98905 102326685.94702  24989225.514 2
  21217556.761 8 111499015.15008  86882333.95605  21217555.670 5
  22144598.740 7 118250924.87907
  22540220.919 5 120405821.23605
  20391602.087 7 109081316.75007
  20336963.334 7 108903523.27907
 18 10 16 19  5 36.0000000  4  1
ANTENNA;APSAPS-3L       NONE;0.094;0.082                    COMMENT             
 18 10 16 19  5 37.0000000  0 13G30G15G20G21R07R24R06G27G13R09R16R23
                                R08
  24897880.857 5 130839351.58105 101952673.37301  24897883.835 1
  20171123.926 9 105999969.53809  82597377.41507  20171122.103 7
  22698003.936 7 119278811.83107  92944533.25003  22698003.230 3
  21861829.443 7 114884690.24907  89520538.82104  21861828.042 4
  20162085.857 7 107929225.62307
  22983896.984 6 122905239.27306
  23514401.615 5 125477332.87505
  24988873.314 6 131317415.76406 102325272.28102  24988880.256 2
  21217885.567 8 111500742.71508  86883680.11105  21217884.401 5
  22144028.519 7 118247880.27107
  22540396.394 5 120406759.14305
  20391492.422 7 109080729.84707
  20336617.801 7 108901672.45907
 18 10 16 19  5 38.0000000  0 13G30G15G20G21R07R24R06G27G13R09R16R23
                                R08
  24898311.296 5 130841616.83905 101954438.52501  24898314.667 1
  20171004.821 9 105999343.55809  82596889.63807  20171002.979 7
  22697388.390 6 119275578.04306  92942013.41203  22697387.868 3
  21861530.578 7 114883118.98107  89519314.45404  21861529.083 4
  20162310.828 7 107930429.71807
  22983190.604 6 122901461.15306
  23514953.468 5 125480274.73805
  24988528.140 5 131315602.25905 102323859.15702  24988535.131 2
  21218214.373 8 111502470.86008  86885026.71605  21218213.258 5
  22143458.644 7 118244836.41107
  22540572.050 5 120407698.06005
  20391382.817 7 109080144.04807
  20336272.173 7 108899822.13107
 18 10 16 19  5 39.0000000  0 13G30G15G20G21R07R24R06G27G13R09R16R23
                                R08
  24898742.457 5 130843882.44905 101956203.93501  24898745.682 1
  20170885.812 9 105998718.18909  82596402.33807  20170883.971 7
  22696772.944 6 119272344.46206  92939493.73903  22696772.501 3
  21861231.809 7 114881548.20907  89518090.47704  21861230.186 4
  20162535.696 7 107931634.21307
  22982484.505 6 122897683.62406
  23515505.326 5 125483216.63905
  24988183.292 5 131313789.37605 102322446.53002  24988190.123 2
  21218543.351 8 111504199.48908  86886373.70005  21218542.203 5
  22142888.701 7 118241793.21607
  22540748.126 6 120408637.84806
  20391273.528 7 109079559.24907
  20335926.739 7 108897972.19407
 18 10 16 19  5 40.0000000  0 13G30G15G20G21R07R24R06G27G13R09R16R23
                                R08
  24899173.818 6 130846148.47106 101957969.64701  24899176.845 1
  20170766.857 9 105998093.23909  82595915.36307  20170765.048 7
  22696157.749 7 119269110.87807  92936974.06303  22696157.197 3
  21860933.170 7 114879977.79507  89516866.77904  21860931.374 4
  20162760.616 7 107932838.88707
  22981778.003 6 122893906.48406
  23516056.789 5 125486158.41805
  24987838.293 5 131311976.96405 102321034.25402  24987845.182 2
  21218872.380 8 111505928.41508  86887720.91405  21218871.212 5
  22142319.100 7 118238750.48307
  22540924.055 6 120409578.34706
  20391164.453 7 109078975.25907
  20335581.277 7 108896122.46307
 18 10 16 19  5 41.0000000  0 13G30G15G20G21R07R24R06G27G13R09R16R23
                                R08
  24899605.812 5 130848414.48305 101959735.34101  24899608.160 1
  20170647.993 9 105997468.55609  82595428.59807  20170646.179 7
  22695542.366 6 119265877.18006  92934454.29503  22695541.861 3
  21860634.460 7 114878407.55407  89515643.21704  21860632.581 4
  20162985.571 7 107934043.58407
  22981072.092 6 122890129.61906
  23516607.530 5 125489099.94605
  24987493.371 6 131310164.83606 102319622.20602  24987500.304 2
  21219201.363 8 111507657.47508  86889068.23105  21219200.225 5
  22141749.378 7 118235708.02407
  22541100.271 6 120410519.38306
  20391055.296 7 109078391.93107
  20335235.963 7 108894272.79707
 18 10 16 19  5 42.0000000  0 13G30G15G20G21R07R24R06G27G13R09R16R23
                                R08
  24900037.194 5 130850680.88205 101961501.44301  24900039.551 1
  20170529.231 9 105996844.40009  82594942.24307  20170527.404 7
  22694927.239 7 119262643.58507  92931934.61303  22694926.580 3
  21860335.809 7 114876837.74807  89514419.99003  21860333.845 3
  20163210.585 7 107935248.53307
  22980365.748 6 122886353.24106
  23517158.633 5 125492041.42805
  24987148.621 5 131308353.24105 102318210.58202  24987155.537 2
  21219530.488 8 111509386.94008  86890415.86705  21219529.319 5
  22141179.484 7 118232666.14007
  22541276.479 6 120411461.30606
  20390946.399 7 109077809.53807
  20334890.609 7 108892423.46607
 18 10 16 19  5 43.0000000  0 13G30G15G20G21R07R24R06G27G13R09R16R23
                                R08
  24900468.000 5 130852947.87105 101963267.94201  24900470.995 1
  20170410.601 9 105996220.87509  82594456.38007  20170408.758 7
  22694312.105 6 119259410.18806  92929415.07603  22694311.262 3
  21860037.220 7 114875268.48707  89513197.18803  21860035.221 3
  20163435.742 7 107936453.88707
  22979659.330 6 122882577.50406
  23517709.764 5 125494983.04105
  24986803.853 5 131306542.29305 102316799.47602  24986810.909 2
  21219859.580 8 111511116.90408  86891763.88905  21219858.506 5
  22140609.781 7 118229624.96707
  22541452.950 5 120412404.11105
  20390837.881 7 109077228.15207
  20334545.261 7 108890574.56807
 18 10 16 19  5 44.0000000  0 13G30G15G20G21R07R24R06G27G13R09R16R23
                                R08
  24900898.622 5 130855215.03105 101965034.52101  24900902.328 1
  20170291.975 9 105995597.73309  82593970.81407  20170290.184 7
  22693696.855 7 119256176.78407  92926895.54503  22693695.855 3
  21859738.501 7 114873699.52707  89511974.62003  21859736.628 3
  20163660.962 7 107937659.40307
  22978953.723 6 122878802.14306
  23518260.169 5 125497924.54305
  24986459.388 6 131304731.77006 102315388.67502  24986466.357 2
  21220188.848 8 111512847.13508  86893112.12005  21220187.752 5
  22140040.183 7 118226584.20007
  22541629.579 6 120413347.59506
  20390729.201 7 109076647.55907
  20334199.934 7 108888725.84507
 18 10 16 19  5 45.0000000  0 13G30G15G20G21R07R24R06G27G13R09R16R23
                                R08
  24901329.539 5 130857482.75605 101966801.60901  24901333.799 1
  20170173.500 9 105994975.34609  82593485.83607  20170171.749 7
  22693081.633 6 119252943.71606  92924376.28403  22693080.640 3
  21859439.857 7 114872131.24007  89510752.57903  21859438.183 3
  20163886.194 7 107938865.47207
  22978248.395 6 122875027.52906
  23518811.862 5 125500866.21605
  24986114.761 6 131302922.01206 102313978.45902  24986121.931 2
  21220518.228 8 111514577.99308  86894460.84205  21220517.122 5
  22139470.769 7 118223544.26007
  22541806.668 6 120414292.12306
  20390620.913 7 109076068.10407
  20333854.753 7 108886877.67707
 18 10 16 19  5 46.0000000  0 13G30G15G20G21R07R24R06G27G13R09R16R23
                                R08
  24901760.814 5 130859750.46805 101968568.64001  24901765.320 1
  20170055.052 9 105994353.09009  82593000.96307  20170053.359 7
  22692466.138 7 119249710.37207  92921856.79403  22692465.398 3
  21859141.359 7 114870562.99507  89509530.56903  21859139.783 3
  20164111.324 7 107940071.45707
  22977542.532 6 122871253.06906
  23519361.970 5 125503807.52705
  24985770.375 5 131301112.42105 102312568.38602  24985777.535 2
  21220847.612 8 111516308.86508  86895809.57005  21220846.493 5
  22138901.498 7 118220504.49107
  22541983.649 6 120415237.05106
  20390512.611 7 109075489.17307
  20333509.601 7 108885029.44807
 18 10 16 19  5 47.0000000  0 13G30G15G20G21R07R24R06G27G13R09R16R23
                                R08
  24902192.682 5 130862018.77905 101970336.09701  24902196.831 1
  20169936.763 9 105993731.47209  82592516.58607  20169935.080 7
  22691850.707 7 119246477.27307  92919337.50403  22691850.152 3
  21858842.987 7 114868995.30107  89508308.99103  21858841.477 3
  20164336.730 7 107941277.81507
  22976836.834 6 122867479.24806
  23519913.397 5 125506748.91305
  24985426.296 5 131299303.47405 102311158.80402  24985433.274 2
  21221177.094 8 111518040.24708  86897158.69905  21221175.949 5
  22138332.251 7 118217465.39807
  22542160.722 6 120416182.97006
  20390404.532 7 109074911.27107
  20333164.567 7 108883181.66807
 18 10 16 19  5 48.0000000  0 13G30G15G20G21R07R24R06G27G13R09R16R23
                                R08
  24902625.588 5 130864287.61305 101972103.99301  24902628.075 1
  20169818.604 9 105993110.63609  82592032.81607  20169816.944 7
  22691235.491 7 119243244.53207  92916818.48203  22691235.027 3
  21858544.703 7 114867428.29307  89507087.94603  21858543.309 3
  20164562.151 7 107942484.68907
  22976131.266 6 122863706.20006
  23520464.965 5 125509690.58305
  24985082.207 5 131297495.34305 102309749.88602  24985089.156 2
  21221506.669 8 111519772.26908  86898508.32805  21221505.516 5
  22137763.095 7 118214427.16207
  22542337.656 5 120417129.95805
  20390296.870 7 109074334.57607
  20332819.637 7 108881334.47307
 18 10 16 19  5 49.0000000  0 13G30G15G20G21R07R24R06G27G13R09R16R23
                                R08
  24903058.652 5 130866557.04705 101973872.38601  24903060.226 1
  20169700.614 9 105992490.56409  82591549.64507  20169698.942 7
  22690620.448 7 119240012.14907  92914299.74103  22690619.973 3
  21858246.739 7 114865861.94907  89505867.41403  21858245.298 3
  20164787.570 7 107943692.07607
  22975426.052 6 122859933.86106
  23521016.009 5 125512632.45405
  24984738.209 5 131295688.01405 102308341.57702  24984745.181 2
  21221836.394 8 111521504.93708  86899858.45705  21221835.187 5
  22137194.265 7 118211389.74907
  22542514.323 5 120418077.99805
  20390189.184 7 109073759.03307
  20332474.754 7 108879487.84207
 18 10 16 19  5 50.0000000  0 13G30G15G20G21R07R24R06G27G13R09R16R23
                                R08
  24903491.366 5 130868826.43505 101975640.73401  24903492.278 1
  20169582.667 9 105991870.51409  82591066.48807  20169580.949 7
  22690005.207 7 119236779.36207  92911780.68103  22690004.785 3
  21857948.676 7 114864295.56207  89504646.85603  21857947.233 3
  20165013.032 7 107944899.26807
  22974721.007 6 122856161.53906
  23521567.887 5 125515573.79905
  24984393.939 5 131293880.75505 102306933.30302  24984401.219 2
  21222166.289 8 111523237.50708  86901208.51105  21222164.866 5
  22136625.814 7 118208352.37007
  22542691.903 5 120419026.34605
  20390081.537 7 109073183.88107
  20332129.983 7 108877641.02907
 18 10 16 19  5 51.0000000  0 13G30G15G20G21R07R24R06G27G13R09R16R23
                                R08
  24903923.620 5 130871096.03305 101977409.27401  24903924.197 1
  20169464.796 9 105991250.91109  82590583.68007  20169463.051 7
  22689389.943 7 119233546.61707  92909261.66103  22689389.571 3
  21857650.737 7 114862729.51907  89503426.56303  21857649.199 3
  20165238.527 7 107946106.69907
  22974015.629 6 122852389.63206
  23522118.896 5 125518515.01105
  24984050.176 5 131292073.88405 102305525.35002  24984057.360 2
  21222496.039 8 111524970.39808  86902558.81805  21222494.630 5
  22136057.182 7 118205315.49807
  22542869.355 6 120419975.44706
  20389974.194 7 109072609.56407
  20331785.139 7 108875794.45207
 18 10 16 19  5 52.0000000  0 13G30G15G20G21R07R24R06G27G13R09R16R23
                                R08
  24904355.549 5 130873366.62105 101979178.59101  24904356.156 1
  20169347.127 9 105990632.44709  82590101.76307  20169345.367 7
  22688774.939 7 119230314.60007  92906743.19903  22688774.508 3
  21857352.902 7 114861164.51907  89502207.08603  21857351.371 3
  20165464.203 7 107947315.06907
  22973310.868 6 122848618.86806
  23522670.293 5 125521456.88705
  24983706.410 6 131290268.20806 102304118.32802  24983713.752 2
  21222825.915 8 111526704.29208  86903909.90705  21222824.574 5
  22135488.890 7 118202279.80607
  22543047.486 5 120420925.92005
  20389867.283 7 109072036.79807
  20331440.659 7 108873948.81107
 18 10 16 19  5 53.0000000  0 13G30G15G20G21R07R24R06G27G13R09R16R23
                                R08
  24904788.031 5 130875637.10205 101980947.80501  24904788.289 1
  20169229.459 9 105990013.97409  82589619.83507  20169227.673 7
  22688160.022 7 119227082.15207  92904224.40803  22688159.320 3
  21857055.028 7 114859599.42507  89500987.52704  21857053.521 4
  20165689.808 7 107948523.16607
  22972606.389 6 122844848.07606
  23523220.805 5 125524398.13705
  24983362.900 6 131288462.53206 102302711.30902  24983370.121 2
  21223155.794 8 111528438.04808  86905260.88405  21223154.463 5
  22134920.462 7 118199244.15807
  22543226.083 6 120421876.74806
  20389760.603 7 109071464.39407
  20331096.193 7 108872102.94307
 18 10 16 19  5 54.0000000  0 13G30G15G20G21R07R24R06G27G13R09R16R23
                                R08
  24905220.772 5 130877908.05305 101982717.36001  24905220.337 1
  20169111.870 9 105989396.11809  82589138.39007  20169110.101 7
  22687544.991 7 119223849.92807  92901705.79303  22687544.217 3
  21856757.421 7 114858034.85807  89499768.38604  21856755.823 4
  20165915.540 7 107949731.59807
  22971901.319 6 122841077.91606
  23523771.688 5 125527339.52205
  24983019.412 6 131286657.48606 102301304.77802  24983026.624 2
  21223485.742 8 111530172.29508  86906612.24405  21223484.442 5
  22134352.224 7 118196209.15507
  22543404.543 5 120422828.45205
  20389653.755 7 109070893.01807
  20330751.468 7 108870257.48507
 18 10 16 19  5 55.0000000  0 13G30G15G20G21R07R24R06G27G13R09R16R23
                                R08
  24905653.709 5 130880179.29405 101984487.17801  24905652.953 1
  20168994.374 9 105988778.74709  82588657.32207  20168992.618 7
  22686929.785 7 119220617.73107  92899187.19803  22686929.105 3
  21856459.657 7 114856470.68307  89498549.55404  21856458.209 4
  20166141.438 7 107950940.23307
  22971196.405 6 122837308.21706
  23524322.562 5 125530280.92105
  24982676.033 6 131284852.97006 102299898.65502  24982683.244 2
  21223815.770 8 111531906.89408  86907963.88105  21223814.483 5
  22133784.087 7 118193174.70807
  22543582.807 5 120423780.95005
  20389547.010 7 109070322.53207
  20330406.896 7 108868412.32107
 18 10 16 19  5 56.0000000  0 13G30G15G20G21R07R24R06G27G13R09R16R23
                                R08
  24906087.747 5 130882450.97605 101986257.32501  24906085.439 1
  20168876.969 9 105988161.78509  82588176.57307  20168875.216 7
  22686314.644 7 119217385.58407  92896668.65203  22686314.002 3
  21856162.198 7 114854906.84407  89497330.97604  21856160.618 4
  20166367.184 7 107952149.06907
  22970491.223 5 122833538.95105
  23524874.587 5 125533222.18305
  24982332.470 6 131283048.86406 102298492.86202  24982339.944 2
  21224145.904 8 111533641.78308  86909315.73905  21224144.583 5
  22133215.758 7 118190140.71807
  22543760.642 6 120424734.10806
  20389440.430 7 109069752.86307
  20330062.544 7 108866567.40007
 18 10 16 19  5 57.0000000  0 12G15G20G21R07R24R06G27G13R09R16R23R08
  20168759.603 9 105987544.68909  82587695.71807  20168757.791 7
  22685699.554 7 119214152.85907  92894149.64703  22685698.832 3
  21855864.727 7 114853342.77107  89496112.21504  21855862.992 4
  20166592.951 7 107953357.52807
  22969786.402 6 122829769.52406
  23525425.614 5 125536162.73905
  24981989.448 6 131281244.68306 102297087.00902  24981996.626 2
  21224475.912 8 111535376.40308  86910667.39305  21224474.629 5
  22132647.301 7 118187106.62107
  22543939.441 5 120425687.37805
  20389334.092 7 109069183.42207
  20329718.028 7 108864722.10207
 18 10 16 19  5 57.0000000  4  1
ANTENNA;APSAPS-3L       NONE;0.094;0.082                    COMMENT             
 18 10 16 19  5 58.0000000  0 13G30G15G20G21R07R24R06G27G13R09R16R23
                                R08
  24906956.654 5 130886993.61805 101989796.98501  24906949.960 1
  20168642.270 9 105986928.16309  82587215.30807  20168640.469 7
  22685084.475 7 119210920.31107  92891630.77103  22685083.680 3
  21855567.117 7 114851779.16607  89494893.82204  21855565.432 4
  20166818.783 7 107954566.36807
  22969081.301 6 122826000.66706
  23525976.830 5 125539103.32705
  24981646.427 6 131279441.05006 102295681.58002  24981653.411 2
  21224805.967 8 111537111.46508  86912019.39205  21224804.765 5
  22132079.252 7 118184073.12907
  22544118.233 6 120426641.51606
  20389227.813 7
  20329373.572 7 108862877.17007
 18 10 16 19  5 59.0000000  0 13G30G15G20G21R07R24R06G27G13R09R16R23
                                R08
  24907388.978 5 130889265.56005 101991567.34601  24907382.286 1
  20168525.006 9 105986312.08809  82586735.25007  20168523.241 7
  22684469.349 7 119207687.80107  92889111.93803  22684468.572 3
  21855269.535 7 114850215.94407  89493675.72204  21855267.921 4
  20167044.628 7 107955775.43907
  22968376.186 6 122822232.22106
  23526527.863 5 125542043.80705
  24981303.312 6 131277637.92206 102294276.55002  24981310.268 2
  21225136.135 8 111538846.85608  86913371.64005  21225134.985 5
  22131511.380 7 118181040.12907
  22544297.244 5 120427596.41105
  20389121.785 7
  20329029.137 7 108861032.47507
 18 10 16 19  6  0.0000000  0 13G30G15G20G21R07R24R06G27G13R09R16R23
                                R08
  24907821.516 5 130891538.42005 101993338.43701  24907815.179 1
  20168407.958 9 105985697.08409  82586256.02507  20168406.214 7
  22683854.270 7 119204455.94607  92886593.61003  22683853.630 3
  21854972.237 7 114848653.72107  89492458.40904  21854970.617 4
  20167270.350 7 107956985.31407
  22967671.419 6 122818464.83806
  23527080.024 5 125544984.82705
  24980960.521 5 131275835.85405 102292872.34302  24980967.317 2
  21225466.622 8 111540583.19508  86914724.63305  21225465.384 5
  22130943.718 7 118178008.30607
  22544476.759 5 120428552.68305
  20389015.851 7
  20328684.787 7 108859188.66607
 18 10 16 19  6  1.0000000  0 13G30G15G20G21R07R24R06G27G13R09R16R23
                                R08
  24908253.804 5 130893811.91005 101995109.94501  24908247.755 1
  20168291.106 9 105985082.83809  82585777.39207  20168289.330 7
  22683239.504 7 119201224.43507  92884075.54703  22683238.755 3
  21854674.967 7 114847092.13107  89491241.58504  21854673.491 4
  20167496.343 7 107958195.68307
  22966966.940 6 122814698.21906
  23527630.479 5 125547926.07005
  24980617.761 6 131274034.61106 102291468.76702  24980624.531 2
  21225797.171 8 111542320.14908  86916078.10105  21225795.864 5
  22130375.981 7 118174977.25207
  22544655.869 6 120429510.01006
  20388910.074 7 109066916.16407
  20328340.389 7 108857345.40507
 18 10 16 19  6  2.0000000  0 13G30G15G20G21R07R24R06G27G13R09R16R23
                                R08
  24908685.449 5 130896085.91705 101996881.92101  24908680.411 1
  20168174.378 9 105984469.31209  82585299.31807  20168172.590 7
  22682624.389 7 119197993.25607  92881557.74603  22682623.876 3
  21854377.860 7 114845531.21207  89490025.28004  21854376.477 4
  20167722.419 7 107959406.55707
  22966262.479 6 122810932.29306
  23528182.338 5 125550867.54005
  24980275.427 6 131272234.09306 102290065.76902  24980281.902 2
  21226127.875 8 111544057.71308  86917432.04605  21226126.478 5
  22129808.568 7 118171946.97107
  22544835.328 5 120430468.33205
  20388804.641 7 109066352.27907
  20327996.101 7 108855502.69707
 18 10 16 19  6  3.0000000  0 13G30G15G20G21R07R24R06G27G13R09R16R23
                                R08
  24909117.381 5 130898359.97005 101998653.83601  24909113.470 1
  20168057.671 9 105983856.00009  82584821.41307  20168055.898 7
  22682009.423 7 119194761.85907  92879039.77403  22682008.947 3
  21854080.799 7 114843970.39007  89488809.05504  21854079.404 4
  20167948.515 7 107960617.41807
  22965558.258 6 122807166.59906
  23528734.511 5 125553808.63605
  24979932.595 6 131270433.79606 102288662.94902  24979939.331 2
  21226458.585 8 111545795.35108  86918786.05205  21226457.114 5
  22129241.216 7 118168916.97107
  22545014.218 5 120431427.20805
  20388699.513 7 109065788.97407
  20327651.939 7 108853659.99807
 18 10 16 19  6  4.0000000  0 13G30G15G20G21R07R24R06G27G13R09R16R23
                                R08
  24909547.860 5 130900634.28605 102000426.01901  24909546.032 1
  20167941.063 9 105983243.07309  82584343.80707  20167939.278 7
  22681394.650 7 119191530.45207  92876521.79703  22681394.041 3
  21853783.629 7 114842409.88107  89487593.07404  21853782.377 4
  20168174.674 7 107961828.41807
  22964853.855 6 122803401.28306
  23529286.197 5 125556749.56505
  24979590.342 5 131268633.92205 102287260.43202  24979596.854 2
  21226789.330 8 111547533.26008  86920140.26705  21226787.786 5
  22128674.093 7 118165887.40307
  22545193.410 6 120432386.75106
  20388594.127 7 109065226.44507
  20327307.725 7 108851817.50107
 18 10 16 19  6  5.0000000  0 13G30G15G20G21R07R24R06G27G13R09R16R23
                                R08
  24909979.479 5 130902909.07205 102002198.62201  24909979.042 1
  20167824.563 9 105982630.70109  82583866.63407  20167822.761 7
  22680779.825 7 119188299.16607  92874003.91103  22680779.180 3
  21853486.875 7 114840849.82907  89486377.44904  21853485.488 4
  20168400.878 7 107963039.73307
  22964149.411 6 122799636.54406
  23529837.355 5 125559690.56705
  24979247.569 5 131266834.60405 102285858.37202  24979254.431 2
  21227120.247 8 111549271.58308  86921494.80105  21227118.552 5
  22128106.841 7 118162858.42407
  22545372.980 6 120433347.08106
  20388489.235 7 109064664.87007
  20326963.707 7 108849975.37207
 18 10 16 19  6  6.0000000  0 13G30G15G20G21R07R24R06G27G13R09R16R23
                                R08
  24910411.202 5 130905183.86705 102003971.18801  24910411.953 1
  20167708.108 9 105982018.56209  82583389.64307  20167706.284 7
  22680164.901 7 119185067.71707  92871485.90103  22680164.291 3
  21853190.249 7 114839289.93407  89485161.94703  21853188.675 3
  20168627.337 7 107964251.04407
  22963445.363 6 122795872.01106
  23530387.905 5 125562631.22305
  24978905.160 5 131265035.59305 102284456.55302  24978912.052 2
  21227451.096 8 111551010.00608  86922849.41605  21227449.331 5
  22127539.582 7 118159829.73407
  22545553.169 6 120434307.94506
  20388384.473 7 109064103.92107
  20326619.602 7 108848133.25307
 18 10 16 19  6  7.0000000  0 13G30G15G20G21R07R24R06G27G13R09R16R23
                                R08
  24910843.476 5 130907459.14105 102005744.11601  24910844.851 1
  20167591.733 9 105981407.06909  82582913.15507  20167589.933 7
  22679550.124 7 119181836.49207  92868968.06603  22679549.479 3
  21852893.569 7 114837730.58807  89483946.87103  21852892.005 3
  20168853.772 7 107965462.80307
  22962741.409 5 122792108.08605
  23530938.459 5 125565572.02505
  24978562.975 5 131263237.19005 102283055.18902  24978569.785 2
  21227781.947 8 111552748.95108  86924204.44005  21227780.213 5
  22126972.474 7 118156801.73407
  22545732.952 6 120435269.75006
  20388279.643 7 109063544.00607
  20326275.661 7 108846291.55507
 18 10 16 19  6  8.0000000  0 13G30G15G20G21R07R24R06G27G13R09R16R23
                                R08
  24911275.195 5 130909735.19705 102007517.67501  24911277.905 1
  20167475.515 9 105980796.49909  82582437.38707  20167473.747 7
  22678935.159 7 119178605.79007  92866450.63703  22678934.725 3
  21852596.968 7 114836172.07907  89482732.45003  21852595.474 3
  20169080.289 7 107966675.23607
  22962037.466 6 122788345.09106
  23531488.870 5 125568513.20505
  24978220.613 6 131261439.74906 102281654.59202  24978227.666 2
  21228112.965 8 111554488.70208  86925560.09005  21228111.243 5
  22126405.729 7 118153774.71507
  22545913.337 5 120436232.82005
  20388175.197 7 109062985.42607
  20325931.930 7 108844450.58107
 18 10 16 19  6  9.0000000  0 13G30G15G20G21R07R24R06G27G13R09R16R23
                                R08
  24911707.941 5 130912011.61905 102009291.49601  24911711.009 1
  20167359.378 9 105980186.42609  82581962.00307  20167357.654 7
  22678320.376 7 119175375.18607  92863933.27603  22678319.944 3
  21852300.609 7 114834613.98007  89481518.35003  21852298.938 3
  20169306.751 7 107967887.94507
  22961334.224 6 122784582.61706
  23532039.947 5 125571454.32605
  24977878.464 5 131259642.86305 102280254.43202  24977885.627 2
  21228444.128 8 111556228.82408  86926916.02905  21228442.331 5
  22125838.919 7 118150748.23207
  22546093.683 6 120437196.69506
  20388071.083 7 109062427.76807
  20325588.282 7 108842609.89307
 18 10 16 19  6 10.0000000  0 13G30G15G20G21R07R24R06G27G13R09R16R23
                                R08
  24912141.291 5 130914288.12505 102011065.33201  24912144.255 1
  20167243.316 9 105979576.62709  82581486.83607  20167241.616 7
  22677705.515 7 119172144.45007  92861415.82303  22677705.055 3
  21852004.096 7 114833056.07107  89480304.39603  21852002.483 3
  20169533.037 7 107969100.66607
  22960630.399 6 122780820.41506
  23532590.537 5 125574395.15505
  24977536.807 6 131257846.22406 102278854.44102  24977543.695 2
  21228775.341 8 111557969.08908  86928272.07605  21228773.419 5
  22125272.182 7 118147722.07807
  22546274.095 6 120438161.13706
  20387966.961 7 109061870.76107
  20325244.754 7 108840769.26807
 18 10 16 19  6 11.0000000  0 13G30G15G20G21R07R24R06G27G13R09R16R23
                                R08
  24912575.002 5 130916565.78605 102012840.19901  24912577.694 1
  20167127.502 9 105978968.07509  82581012.64307  20167125.819 7
  22677090.936 7 119168914.55207  92858899.01303  22677090.408 3
  21851707.729 7 114831499.33207  89479091.35303  21851706.287 3
  20169759.814 7 107970314.39807
  22959927.432 6 122777059.43206
  23533142.306 5 125577336.75005
  24977195.528 6 131256050.89606 102277455.48202  24977202.014 2
  21229106.740 8 111559710.47208  86929628.99605  21229104.739 5
  22124705.792 7 118144697.22407
  22546455.560 6 120439127.10106
  20387863.100 7 109061315.41507
  20324901.117 7 108838929.71607
 18 10 16 19  6 12.0000000  0 13G30G15G20G21R07R24R06G27G13R09R16R23
                                R08
  24913008.964 5 130918844.28005 102014615.65301  24913011.214 1
  20167011.874 9 105978360.58609  82580539.27307  20167010.214 7
  22676476.361 7 119165685.30107  92856382.71603  22676475.963 3
  21851411.911 7 114829943.56707  89477879.07803  21851410.221 3
  20169986.593 7 107971528.95907
  22959224.911 6 122773299.57906
  23533693.556 5 125580278.88105
  24976854.232 5 131254256.67605 102276057.39302  24976860.494 2
  21229438.283 8 111561452.78508  86930986.64405  21229436.230 5
  22124139.422 7 118141673.50107
  22546637.141 6 120440094.39706
  20387759.346 7 109060761.52507
  20324558.046 7 108837091.07407
 18 10 16 19  6 13.0000000  0 13G30G15G20G21R07R24R06G27G13R09R16R23
                                R08
  24913443.051 5 130921122.97605 102016391.27701  24913444.787 1
  20166896.317 9 105977753.45809  82580066.18607  20166894.689 7
  22675861.854 7 119162455.99607  92853866.37803  22675861.463 3
  21851115.973 7 114828388.08307  89476667.01103  21851114.218 3
  20170213.637 7 107972743.65007
  22958522.365 6 122769540.01506
  23534244.371 5 125583220.84205
  24976513.075 6 131252462.79406 102274659.55702  24976519.090 2
  21229769.871 8 111563195.34008  86932344.48005  21229767.756 5
  22123573.327 7 118138650.18407
  22546818.425 6 120441062.31006
  20387656.004 7 109060208.38607
  20324214.722 7 108835252.62407
 18 10 16 19  6 14.0000000  0 13G30G15G20G21R07R24R06G27G13R09R16R23
                                R08
  24913877.107 5 130923401.83005 102018166.96401  24913878.440 1
  20166780.810 9 105977146.56209  82579593.28107  20166779.201 7
  22675247.573 7 119159226.52107  92851349.91503  22675246.879 3
  21850820.191 7 114826832.73607  89475455.04603  21850818.192 3
  20170440.478 7 107973958.33007
  22957819.116 6 122765780.71506
  23534795.525 5 125586162.49805
  24976171.754 6 131250669.15506 102273261.93402  24976177.749 2
  21230101.518 8 111564937.99108  86933702.39305  21230099.300 5
  22123007.585 7 118135627.16707
  22547000.140 6 120442030.75006
  20387552.720 7 109059655.86907
  20323871.431 7 108833414.17507
 18 10 16 19  6 15.0000000  0 13G30G15G20G21R07R24R06G27G13R09R16R23
                                R08
  24914310.569 5 130925681.16105 102019943.12701  24914312.201 1
  20166665.467 9 105976540.33009  82579120.89107  20166663.837 7
  22674633.208 7 119155997.27807  92848833.62603  22674632.299 3
  21850524.446 7 114825277.97907  89474243.54703  21850522.323 3
  20170667.558 7 107975173.44307
  22957116.724 6 122762021.99006
  23535346.565 5 125589104.24705
  24975830.486 6 131248876.23106 102271864.85102  24975836.470 2
  21230433.191 8 111566681.17708  86935060.71905  21230430.965 5
  22122441.361 7 118132604.84307
  22547181.796 6 120443000.12906
  20387449.587 7 109059104.37207
  20323528.202 7 108831576.16707
 18 10 16 19  6 16.0000000  0 13G30G15G20G21R07R24R06G27G13R09R16R23
                                R08
  24914744.213 5 130927960.96505 102021719.68801  24914746.172 1
  20166550.255 9 105975934.70209  82578648.97307  20166548.595 7
  22674018.879 7 119152768.26507  92846317.51303  22674017.849 3
  21850228.686 7 114823723.73807  89473032.45103  21850226.574 3
  20170894.675 7 107976388.95707
  22956413.980 6 122758263.95106
  23535898.169 5 125592046.12305
  24975489.527 6 131247083.93506 102270468.25402  24975495.308 2
  21230765.022 8 111568424.85208  86936419.42305  21230762.719 5
  22121875.608 7 118129583.19307
  22547363.296 6 120443970.46906
  20387346.702 7 109058553.90007
  20323185.209 7 108829738.55507
 18 10 16 19  6 17.0000000  0 13G30G15G20G21R07R24R06G27G13R09R16R23
                                R08
  24915178.048 5 130930240.36605 102023495.87201  24915180.018 1
  20166435.005 9 105975328.88309  82578176.90607  20166433.321 7
  22673404.390 7 119149538.63807  92843800.91603  22673403.337 3
  21849932.677 7 114822169.20807  89471821.12603  21849930.749 3
  20171121.739 7 107977603.99207
  22955710.894 6 122754505.66706
  23536450.204 5 125594987.18905
  24975148.733 6 131245291.47806 102269071.52902  24975154.118 2
  21231096.766 8 111570168.19508  86937777.87005  21231094.446 5
  22121309.644 7 118126561.39107
  22547544.628 6 120444940.86506
  20387243.803 7 109058003.61007
  20322841.865 7 108827900.54907
 18 10 16 19  6 18.0000000  0 13G30G15G20G21R07R24R06G27G13R09R16R23
                                R08
  24915611.848 5 130932520.55305 102025272.51501  24915613.948 1
  20166319.891 9 105974723.89209  82577705.48507  20166318.199 7
  22672789.805 7 119146309.42707  92841284.64903  22672788.846 3
  21849636.955 7 114820615.43707  89470610.39303  21849635.063 3
  20171348.878 7 107978819.62207
  22955007.697 5 122750748.22905
  23537001.555 5 125597928.59705
  24974807.832 6 131243499.86506 102267675.46002  24974813.077 2
  21231428.652 8 111571912.24208  86939136.87005  21231426.307 5
  22120743.666 7 118123540.48207
  22547725.985 6 120445912.47906
  20387141.116 7 109057454.57607
  20322498.696 7 108826063.21007
 18 10 16 19  6 19.0000000  0 13G30G15G20G21R07R24R06G27G13R09R16R23
                                R08
  24916045.066 5 130934800.93805 102027049.43401  24916047.861 1
  20166204.820 9 105974119.33109  82577234.39807  20166203.157 7
  22672175.244 6 119143080.23306  92838768.39603  22672174.351 3
  21849341.511 7 114819061.99207  89469399.91203  21849339.408 3
  20171575.927 7 107980035.45607
  22954305.032 5 122746991.21405
  23537553.343 5 125600869.87105
  24974467.143 6 131241708.69506 102266279.73402  24974472.129 2
  21231760.520 8 111573656.59108  86940496.10405  21231758.245 5
  22120177.855 7 118120520.05707
  22547908.133 6 120446884.72706
  20387038.766 7 109056906.37007
  20322155.552 7 108824226.10107
 18 10 16 19  6 20.0000000  0 13G30G15G20G21R07R24R06G27G13R09R16R23
                                R08
  24916479.627 5 130937081.67605 102028826.61401  24916481.877 1
  20166089.851 9 105973515.22709  82576763.66807  20166088.205 7
  22671560.852 6 119139851.10106  92836252.18403  22671559.772 3
  21849045.967 7 114817508.92407  89468189.73503  21849043.906 3
  20171802.987 7 107981251.51707
  22953602.263 6 122743234.67206
  23538104.548 5 125603811.08105
  24974126.384 6 131239918.02106 102264884.39902  24974131.306 2
  21232092.486 8 111575401.26908  86941855.59105  21232090.227 5
  22119612.236 7 118117500.15107
  22548089.900 6 120447857.70706
  20386936.426 7 109056359.00807
  20321812.498 7 108822389.24807
 18 10 16 19  6 21.0000000  0 13G30G15G20G21R07R24R06G27G13R09R16R23
                                R08
  24916915.226 5 130939362.98205 102030604.27001  24916915.964 1
  20165975.035 9 105972911.93909  82576293.57507  20165973.410 7
  22670946.464 6 119136622.36306  92833736.29803  22670945.380 3
  21848750.629 7 114815956.58807  89466980.11603  21848748.515 3
  20172030.202 7 107982468.14107
  22952899.721 6 122739478.93306
  23538655.692 5 125606752.59005
  24973785.428 6 131238128.15006 102263489.71602  24973790.649 2
  21232424.653 8 111577146.62008  86943215.60605  21232422.339 5
  22119046.850 7 118114481.09407
  22548272.041 6 120448831.77306
  20386834.210 7 109055812.85107
  20321469.542 7 108820552.99307
 18 10 16 19  6 22.0000000  0 13G30G15G20G21R07R24R06G27G13R09R16R23
                                R08
  24917350.499 5 130941644.43405 102032382.03501  24917350.163 1
  20165860.250 9 105972308.86709  82575823.64707  20165858.659 7
  22670332.033 6 119133393.43506  92831220.24703  22670330.979 3
  21848455.317 7 114814404.38807  89465770.60603  21848453.128 3
  20172257.491 7 107983684.75207
  22952197.285 5 122735723.37305
  23539206.247 5 125609693.75105
  24973444.656 6 131236338.56306 102262095.22802  24973450.063 2
  21232756.722 8 111578892.06608  86944575.69305  21232754.469 5
  22118481.575 7 118111462.30707
  22548454.520 6 120449806.38406
  20386732.194 7 109055267.28707
  20321126.563 7 108818716.73907
 18 10 16 19  6 23.0000000  0 13G30G15G20G21R07R24R06G27G13R09R16R23
                                R08
  24917785.871 5 130943926.03905 102034159.90401  24917784.384 1
  20165745.529 9 105971706.13309  82575353.98407  20165743.975 7
  22669717.445 6 119130164.42506  92828704.13003  22669716.421 3
  21848159.830 7 114812852.40507  89464561.27003  21848157.836 3
  20172484.717 7 107984901.47907
  22951494.627 5 122731968.15705
  23539757.154 5 125612634.71605
  24973104.025 6 131234549.32106 102260701.02402  24973109.536 2
  21233088.992 8 111580637.71708  86945935.94105  21233086.643 5
  22117916.295 7 118108443.89207
  22548637.442 6 120450781.56906
  20386630.331 7
  20320783.568 7 108816880.60407
 18 10 16 19  6 24.0000000  0 13G30G15G20G21R07R24R06G27G13R09R16R23
                                R08
  24918221.162 5 130946208.56905 102035938.45701  24918218.843 1
  20165631.009 9 105971104.51709  82574885.19307  20165629.497 7
  22669103.232 6 119126936.13906  92826188.58703  22669101.993 3
  21847864.664 7 114811301.49607  89463352.77703  21847862.713 3
  20172712.203 7 107986119.09707
  22950792.279 5 122728214.06805
  23540308.084 5 125615576.31705
  24972763.852 6 131232761.22906 102259307.72002  24972769.192 2
  21233421.351 8 111582384.35508  86947296.96005  21233419.001 5
  22117351.000 7 118105426.67807
  22548820.483 6 120451758.21606
  20386528.694 7
  20320440.827 7 108815045.41007
 18 10 16 19  6 25.0000000  0 13G30G15G20G21R07R24R06G27G13R09R16R23
                                R08
  24918655.584 5 130948491.22305 102037717.15901  24918653.189 1
  20165516.595 9 105970503.14309  82574416.59107  20165515.064 7
  22668488.826 7 119123707.68807  92823672.91303  22668487.575 3
  21847569.591 7 114809750.72707  89462144.38803  21847567.524 3
  20172939.643 7
  22950090.057 6 122724460.17806
  23540859.159 5 125618517.60105
  24972423.631 6 131230973.38406 102257914.58902  24972428.906 2
  21233753.767 8 111584131.10008  86948658.05905  21233751.363 5
  22116785.961 7 118102409.74807
  22549003.720 6 120452735.37806
  20386427.402 7
  20320098.138 7 108813210.27107
 18 10 16 19  6 26.0000000  0 13G30G15G20G21R07R24R06G27G13R09R16R23
                                R08
  24919089.840 5 130950774.08705 102039496.00401  24919087.701 1
  20165402.227 9 105969902.14009  82573948.27807  20165400.711 7
  22667874.321 6 119120479.19206  92821157.19903  22667873.191 3
  21847274.449 7 114808200.25607  89460936.23403  21847272.347 3
  20173166.939 7
  22949388.799 6 122720706.71606
  23541409.999 5 125621458.70405
  24972083.701 6 131229185.94306 102256521.78402  24972088.682 2
  21234086.291 8 111585878.09808  86950019.35605  21234083.770 5
  22116221.095 7 118099393.21907
  22549186.914 6 120453713.23206
  20386326.299 7
  20319755.390 7 108811375.29107
 18 10 16 19  6 27.0000000  0 13G30G15G20G21R07R24R06G27G13R09R16R23
                                R08
  24919523.748 5 130953057.69605 102041275.44401  24919522.289 1
  20165288.011 9 105969302.02509  82573480.65507  20165286.533 7
  22667260.161 6 119117251.18506  92818641.88003  22667258.960 3
  21846979.529 7 114806650.56407  89459728.68303  21846977.399 3
  20173394.552 7
  22948687.104 6 122716954.12606
  23541960.641 5 125624400.11705
  24971743.631 6 131227399.42006 102255129.69202  24971748.602 2
  21234418.895 8 111587625.84908  86951381.23305  21234416.338 5
  22115656.321 7 118096377.63707
  22549369.857 6 120454692.21806
  20386225.326 7 109052553.96307
  20319412.746 7 108809540.98407
 18 10 16 19  6 28.0000000  0 13G30G15G20G21R07R24R06G27G13R09R16R23
                                R08
  24919957.288 5 130955341.34605 102043054.94101  24919956.940 1
  20165173.911 9 105968702.10409  82573013.18507  20165172.399 7
  22666645.886 7 119114022.96907  92816126.39303  22666644.671 3
  21846684.777 7 114805101.00607  89458521.22903  21846682.487 3
  20173621.965 7
  22947985.874 6 122713201.70506
  23542511.085 5 125627341.24005
  24971403.592 6 131225613.12406 102253737.74702  24971408.634 2
  21234751.496 8 111589373.66708  86952743.16605  21234748.920 5
  22115091.601 7 118093362.32207
  22549552.776 6 120455671.70106
  20386124.498 7 109052013.90807
  20319070.155 7 108807706.66107
 18 10 16 19  6 29.0000000  0 13G30G15G20G21R07R24R06G27G13R09R16R23
                                R08
  24920391.548 5 130957625.40305 102044834.71101  24920391.613 1
  20165059.891 9 105968102.76309  82572546.16507  20165058.364 7
  22666031.646 7 119110794.89907  92813611.01303  22666030.387 3
  21846390.091 7 114803551.92207  89457314.15103  21846387.668 3
  20173849.804 7
  22947284.829 6 122709449.92706
  23543062.462 5 125630282.36505
  24971064.106 6 131223827.40406 102252346.28402  24971068.790 2
  21235084.266 8 111591121.93108  86954105.45005  21235081.586 5
  22114527.131 7 118090347.63007
  22549736.178 6 120456652.04806
  20386023.798 7 109051474.85707
  20318727.760 7 108805872.72107
 18 10 16 19  6 30.0000000  0 13G30G15G20G21R07R24R06G27G13R09R16R23
                                R08
  24920825.375 5 130959909.58205 102046614.56501  24920826.309 1
  20164945.885 9 105967503.69409  82572079.35907  20164944.382 7
  22665417.404 6 119107566.71806  92811095.54103  22665416.035 3
  21846095.449 7 114802003.04107  89456107.22503  21846092.921 3
  20174077.707 7
  22946583.872 6 122705698.35706
  23543613.712 5 125633223.22605
  24970724.533 6 131222042.02506 102250955.07502  24970728.996 2
  21235416.984 8 111592870.34708  86955467.85205  21235414.275 5
  22113962.655 7 118087333.27907
  22549919.343 6 120457632.97106
  20385923.302 7 109050936.44507
  20318385.407 7 108804038.87907
 18 10 16 19  6 31.0000000  0 13G30G15G20G21R07R24R06G27G13R09R16R23
                                R08
  24921259.277 5 130962194.06205 102048394.66701  24921261.031 1
  20164831.957 9 105966905.08309  82571612.90807  20164830.490 7
  22664802.957 6 119104338.57406  92808580.10403  22664801.670 3
  21845800.638 7 114800454.52207  89454900.58603  21845798.290 3
  20174305.599 7 107994647.50107
  22945882.743 6 122701947.26106
  23544165.878 5 125636164.00905
  24970384.911 6 131220257.09006 102249564.22102  24970389.314 2
  21235749.737 8 111594619.07308  86956830.49305  21235747.040 5
  22113398.466 7 118084319.46007
  22550102.745 6 120458614.60706
  20385822.801 7 109050398.88607
  20318043.111 7 108802205.28807
 18 10 16 19  6 32.0000000  0 13G30G15G20G21R07R24R06G27G13R09R16R23
                                R08
  24921693.933 4 130964478.65404 102050174.81801  24921695.731 1
  20164718.129 9 105966306.73309  82571146.66007  20164716.651 7
  22664188.580 6 119101110.28706  92806064.54903  22664187.305 3
  21845506.030 7 114798906.18507  89453694.09203  21845503.651 3
  20174533.412 8 107995866.46008
  22945181.467 5 122698196.37805
  23544717.027 5 125639104.51005
  24970045.285 6 131218472.44206 102248173.58702  24970049.658 2
  21236082.554 8 111596367.94308  86958193.24805  21236079.813 5
  22112834.111 7 118081305.92407
  22550286.837 6 120459596.80106
  20385722.274 7 109049861.97007
  20317700.871 7 108800371.77307
 18 10 16 19  6 33.0000000  0 13G30G15G20G21R07R24R06G27G13R09R16R23
                                R08
  24922128.935 3 130966763.48803 102051955.30301  24922130.542 1
  20164604.354 9 105965708.84509  82570680.77107  20164602.889 7
  22663574.224 7 119097882.03507  92803549.02803  22663573.006 3
  21845211.524 7 114797358.22807  89452487.89603  21845209.060 3
  20174761.290 7 107997085.59907
  22944480.123 6 122694445.96206
  23545268.434 5 125642044.97405
  24969705.683 6 131216688.28606 102246783.34102  24969710.083 2
  21236415.452 7 111598117.14207  86959556.26205  21236412.650 5
  22112269.985 7 118078292.91207
  22550470.308 6 120460579.72406
  20385622.360 7 109049325.89907
  20317358.416 7 108798538.51407
 18 10 16 19  6 34.0000000  0 13G30G15G20G21R07R24R06G27G13R09R16R23
                                R08
  24922564.253 3 130969048.46803 102053735.86101  24922565.340 1
  20164490.680 9 105965111.38309  82570215.21807  20164489.202 7
  22662959.956 6 119094653.81106  92801033.52703  22662958.682 3
  21844916.867 7 114795810.60307  89451281.95503  21844914.546 3
  20174989.151 8 107998304.91408
  22943778.468 5 122690695.98305
  23545819.797 5 125644985.26905
  24969366.068 6 131214904.58106 102245393.44402  24969370.620 2
  21236748.382 7 111599866.65107  86960919.51405  21236745.571 5
  22111705.836 7 118075280.35907
  22550654.478 6 120461563.38506
  20385522.301 7 109048790.67707
  20317016.025 7 108796705.47407
 18 10 16 19  6 35.0000000  0 13G30G15G20G21R07R24R06G27G13R09R16R23
                                R08
  24922995.367 3
  20164377.046 9 105964514.42809  82569750.06007  20164375.610 7
  22662345.620 7 119091425.68107  92798518.10903  22662344.330 3
  21844622.376 7 114794263.40107  89450076.34103  21844620.156 3
  20175216.975 8 107999524.54208
  22943077.045 6 122686946.49006
  23546371.285 5 125647925.56405
  24969026.736 6 131213121.41406 102244003.95702  24969031.224 2
  21237081.347 7 111601616.52707  86962283.05405  21237078.532 5
  22111141.827 7 118072268.37307
  22550839.213 6 120462547.88206
  20385422.416 7 109048256.35407
  20316673.669 7 108794872.74707
 18 10 16 19  6 36.0000000  0 12G15G20G21R07R24R06G27G13R09R16R23R08
  20164263.617 9 105963918.20309  82569285.46707  20164262.156 7
  22661731.509 7 119088197.87407  92796002.93903  22661730.076 3
  21844328.084 7 114792716.83207  89448871.22103  21844325.865 3
  20175444.971 8 108000744.68808
  22942375.708 6 122683197.73206
  23546920.972 5 125650866.08605
  24968687.401 6 131211339.01006 102242615.06602  24968691.957 2
  21237414.382 7 111603366.99507  86963647.05305  21237411.606 5
  22110578.004 7 118069257.18307
  22551023.892 6 120463533.37806
  20385323.009 7 109047723.17107
  20316331.484 7 108793040.55307
 18 10 16 19  6 37.0000000  0 12G15G20G21R07R24R06G27G13R09R16R23R08
  20164150.261 9 105963322.55509  82568821.32707  20164148.822 7
  22661117.477 6 119084970.24906  92793487.90403  22661115.886 3
  21844033.750 7 114791170.77707  89447666.50203  21844031.615 3
  20175673.074 8 108001965.18708
  22941674.858 6 122679449.57606
  23547472.056 5 125653806.58805
  24968348.556 6 131209557.21806 102241226.66702  24968352.821 2
  21237747.523 7 111605117.91207  86965011.40505  21237744.737 5
  22110014.285 7 118066246.60607
  22551208.876 6 120464519.71606
  20385223.575 7 109047190.95807
  20315989.454 7 108791208.73707
 18 10 16 19  6 38.0000000  0 12G15G20G21R07R24R06G27G13R09R16R23R08
  20164037.006 9 105962727.44509  82568357.60507  20164035.588 7
  22660503.296 6 119081742.74706  92790972.96503  22660501.686 3
  21843739.453 7 114789625.19707  89446462.16003  21843737.489 3
  20175901.118 8 108003185.97308
  22940973.936 6 122675701.95206
  23548022.944 5 125656747.13905
  24968009.653 6 131207775.97306 102239838.68402  24968013.782 2
  21238080.811 7 111606869.24307  86966376.07605  21238077.971 5
  22109450.521 7 118063236.64207
  22551393.730 6 120465506.89006
  20385124.189 7 109046659.69807
  20315647.511 7 108789377.25607
 18 10 16 19  6 39.0000000  0 12G15G20G21R07R24R06G27G13R09R16R23R08
  20163923.909 9 105962133.31709  82567894.64707  20163922.540 7
  22659888.956 7 119078515.81107  92788458.47103  22659887.634 3
  21843445.620 6 114788080.49606  89445258.48903  21843443.494 3
  20176129.317 8 108004407.49608
  22940273.405 6 122671955.30706
  23548574.630 5 125659688.12405
  24967670.969 6 131205995.74406 102238451.49602  24967674.927 2
  21238414.221 7 111608621.42707  86967741.41205  21238411.380 5
  22108886.737 7 118060227.74907
  22551579.144 6 120466495.33906
  20385024.951 7 109046129.83707
  20315305.658 7 108787546.56507
 18 10 16 19  6 40.0000000  0 13G30G15G20G21R07R24R06G27G13R09R16R23
                                R08
  24925181.253 3
  20163810.852 9 105961539.35109  82567431.81607  20163809.516 7
  22659274.823 7 119075288.64707  92785943.79703  22659273.541 3
  21843151.748 7 114786535.86707  89444054.88503  21843149.534 3
  20176357.515 8 108005628.91708
  22939573.135 6 122668208.82006
  23549126.056 5 125662628.77205
  24967332.255 6 131204215.70006 102237064.44802  24967336.135 2
  21238747.636 8 111610373.63308  86969106.76705  21238744.784 5
  22108323.091 7 118057219.03307
  22551765.155 6 120467484.23806
  20384925.914 7 109045600.51007
  20314963.792 7 108785715.83807
 18 10 16 19  6 41.0000000  0 12G15G20G21R07R24R06G27G13R09R16R23R08
  20163697.905 9 105960945.97909  82566969.45007  20163696.612 7
  22658660.560 7 119072061.65107  92783429.25703  22658659.471 3
  21842858.038 7 114784991.74107  89442851.66103  21842855.609 3
  20176585.772 8 108006850.68708
  22938872.571 6 122664462.94806
  23549676.622 5 125665569.45005
  24966993.724 6 131202436.24806 102235677.83902  24966997.449 2
  21239081.149 8 111612126.30308  86970472.48305  21239078.278 5
  22107759.680 7 118054210.95307
  22551950.648 6 120468474.03806
  20384827.120 7 109045072.16207
  20314621.871 7 108783885.50807
 18 10 16 19  6 42.0000000  0 12G15G20G21R07R24R06G27G13R09R16R23R08
  20163585.050 9 105960353.04509  82566507.42307  20163583.779 7
  22658046.568 7 119068834.69707  92780914.74603  22658045.361 3
  21842564.472 6 114783447.97006  89441648.72703  21842561.833 3
  20176813.987 8 108008072.66808
  22938171.671 6 122660717.46606
  23550226.862 5 125668509.97505
  24966655.140 6 131200657.27706 102234291.63002  24966658.849 2
  21239414.816 7 111613879.27907  86971838.43605  21239411.838 5
  22107196.282 7 118051203.37507
  22552136.107 6 120469464.53606
  20384728.457 7 109044544.65007
  20314280.127 7 108782055.38907
 18 10 16 19  6 43.0000000  0 12G15G20G21R07R24R06G27G13R09R16R23R08
  20163472.348 9 105959761.11209  82566046.17707  20163471.152 7
  22657432.671 7 119065608.33107  92778400.69003  22657431.398 3
  21842270.895 6 114781905.11306  89440446.50103  21842268.302 3
  20177042.428 8 108009295.44208
  22937471.282 6 122656973.04606
  23550777.416 5 125671450.97905
  24966316.725 6 131198879.33406 102232906.23702  24966320.477 2
  21239748.526 7 111615633.11607  86973205.06504  21239745.538 4
  22106633.074 7 118048196.86007
  22552321.681 6 120470456.32906
  20384630.080 7 109044018.54707
  20313938.472 7 108780226.06407
 18 10 16 19  6 44.0000000  0 12G15G20G21R07R24R06G27G13R09R16R23R08
  20163359.778 9 105959169.57309  82565585.23807  20163358.588 7
  22656818.768 7 119062381.95207  92775886.63503  22656817.413 3
  21841977.286 7 114780362.59307  89439244.53803  21841974.767 3
  20177270.863 8 108010518.38908
  22936770.414 6 122653229.00706
  23551329.138 5 125674391.83405
  24965978.144 6 131197101.78706 102231521.14402  24965982.244 2
  21240082.299 8 111617387.23708  86974571.91105  21240079.268 5
  22106069.940 7 118045190.82207
  22552507.646 6 120471448.82806
  20384531.838 7 109043493.22107
  20313596.872 7 108778396.94107
 18 10 16 19  6 45.0000000  0 12G15G20G21R07R24R06G27G13R09R16R23R08
  20163247.313 9 105958578.63609  82565124.76707  20163246.131 7
  22656204.883 7 119059155.76407  92773372.72003  22656203.424 3
  21841683.857 7 114778820.57507  89438042.96903  21841681.312 3
  20177499.350 8 108011741.67908
  22936070.340 6 122649485.56606
  23551880.194 5 125677332.79705
  24965639.807 6 131195324.89606 102230136.55302  24965644.104 2
  21240416.148 7 111619141.81907  86975939.11605  21240413.115 5
  22105506.955 7 118042185.42607
  22552693.175 6 120472442.17006
  20384433.728 7 109042968.91207
  20313255.440 7 108776568.23207
 18 10 16 19  6 46.0000000  0 12G15G20G21R07R24R06G27G13R09R16R23R08
  20163134.904 9 105957988.00909  82564664.53807  20163133.737 7
  22655590.989 7 119055929.49207  92770858.74103  22655589.430 3
  21841390.374 7 114777278.77007  89436841.56103  21841387.911 3
  20177727.826 8 108012965.02708
  22935370.115 6 122645742.44206
  23552431.323 5 125680273.53805
  24965301.316 6 131193548.36606 102228752.25102  24965305.996 2
  21240750.021 7 111620896.60407  86977306.48405  21240747.007 5
  22104944.242 7 118039180.41107
  22552878.635 6 120473436.14206
  20384335.802 7 109042445.28307
  20312913.754 7 108774739.68307
 18 10 16 19  6 47.0000000  0 12G15G20G21R07R24R06G27G13R09R16R23R08
  20163022.503 9 105957397.50409  82564204.40307  20163021.361 7
  22654976.885 7 119052702.91807  92768344.52703  22654975.413 3
  21841097.272 7 114775737.00807  89435640.18803  21841094.488 3
  20177956.457 8 108014188.29208
  22934670.387 6 122641999.41406
  23552981.749 5 125683213.84205
  24964963.263 6 131191771.94406 102227368.03102  24964967.910 2
  21241083.911 7 111622651.36807  86978673.83105  21241080.876 5
  22104381.580 7 118036175.55807
  22553064.541 6 120474430.52106
  20384237.955 7 109041922.17607
  20312572.386 7 108772911.03607
 18 10 16 19  6 48.0000000  0 12G15G20G21R07R24R06G27G13R09R16R23R08
  20162910.343 9 105956807.76709  82563744.86907  20162909.137 7
  22654362.786 7 119049476.71507  92765830.60103  22654361.491 3
  21840803.867 7 114774195.94007  89434439.36303  21840801.216 3
  20178185.220 8 108015412.11008
  22933971.023 6 122638257.16806
  23553533.031 5 125686154.37805
  24964625.154 6 131189996.30806 102225984.41702  24964629.949 2
  21241417.883 7 111624406.77107  86980041.68005  21241414.870 5
  22103819.201 7 118033171.53107
  22553250.603 6 120475425.98606
  20384140.483 7 109041400.24807
  20312230.976 7 108771082.94407
 18 10 16 19  6 49.0000000  0 12G15G20G21R07R24R06G27G13R09R16R23R08
  20162798.201 9 105956218.47909  82563285.68307  20162796.997 7
  22653748.873 7 119046250.54307  92763316.70503  22653747.501 3
  21840510.654 7 114772655.24707  89433238.81803  21840507.972 3
  20178413.939 8 108016636.13708
  22933271.529 6 122634515.37106
  23554084.356 5 125689094.88205
  24964287.997 6 131188221.18306 102224601.19202  24964292.064 2
  21241751.939 7 111626162.50307  86981409.77805  21241748.927 5
  22103256.875 7 118030168.01907
  22553437.045 6 120476422.16106
  20384043.069 7 109040879.15507
  20311889.556 7 108769255.08507
 18 10 16 19  6 50.0000000  0 13G30G15G20G21R07R24R06G27G13R09R16R23
                                R08
  24929556.391 3
  20162686.197 9 105955629.77109  82562826.95107  20162684.970 7
  22653134.993 7 119043024.57107  92760802.96703  22653133.619 3
  21840217.519 7 114771115.04507  89432038.66103  21840214.857 3
  20178642.646 8 108017860.46608
  22932572.028 6 122630774.12306
  23554634.899 5 125692035.42705
  24963950.600 6 131186446.65606 102223218.43902  24963954.296 2
  21242086.084 7 111627918.67607  86982778.22205  21242083.074 5
  22102694.518 7 118027165.11407
  22553623.752 6 120477419.22506
  20383945.704 7 109040359.03507
  20311548.224 7 108767427.58607
 18 10 16 19  6 51.0000000  0 13G30G15G20G21R07R24R06G27G13R09R16R23
                                R08
  24929994.016 4
  20162574.314 9 105955041.65309  82562368.67607  20162573.054 7
  22652521.179 7 119039798.75607  92758289.34203  22652519.804 3
  21839924.545 7 114769575.32207  89430838.87303  21839921.827 3
  20178871.645 8 108019085.12808
  22931872.896 6 122627033.49806
  23555186.092 5 125694975.96605
  24963613.120 6 131184672.72806 102221836.15802  24963616.680 2
  21242420.291 7 111629675.30707  86984147.02305  21242417.305 5
  22102132.207 7 118024162.85507
  22553810.735 6 120478417.11706
  20383848.897 7 109039839.90007
  20311207.135 7 108765600.48907
 18 10 16 19  6 52.0000000  0 13G30G15G20G21R07R24R06G27G13R09R16R23
                                R08
  24930429.404 4
  20162462.520 9 105954454.07909  82561910.82707  20162461.237 7
  22651907.390 7 119036573.09207  92755775.83603  22651905.971 3
  21839631.754 7 114768036.08707  89429639.48403  21839628.860 3
  20179100.653 8 108020310.09108
  22931174.066 6 122623293.42606
  23555738.276 5 125697916.48705
  24963275.782 6 131182899.40306 102220454.34502  24963279.206 2
  21242754.481 7 111631432.36207  86985516.15605  21242751.631 5
  22101570.048 7 118021161.20507
  22553997.777 6 120479415.85906
  20383752.042 7 109039321.71307
  20310865.881 7 108763773.77707
 18 10 16 19  6 53.0000000  0 13G30G15G20G21R07R24R06G27G13R09R16R23
                                R08
  24930865.933 3
  20162350.764 9 105953866.78709  82561453.19807  20162349.468 7
  22651293.592 7 119033347.29007  92753262.23103  22651292.129 3
  21839338.658 7 114766497.03607  89428440.22403  21839335.915 3
  20179329.622 8 108021535.11708
  22930474.975 6 122619553.60206
  23556289.512 5 125700856.80805
  24962938.701 6 131181126.35506 102219072.75302  24962941.778 2
  21243088.797 7 111633189.55807  86986885.40105  21243086.010 5
  22101007.965 7 118018159.93407
  22554185.011 6 120480415.15906
  20383655.165 7 109038804.18707
  20310524.817 7 108761947.15307
 18 10 16 19  6 54.0000000  0 13G30G15G20G21R07R24R06G27G13R09R16R23
                                R08
  24931303.356 4
  20162239.151 9 105953279.93409  82560995.90907  20162237.794 7
  22650679.735 7 119030121.54507  92750748.65903  22650678.269 3
  21839045.947 7 114764958.35507  89427241.24703  21839043.028 3
  20179558.650 8 108022760.36108
  22929775.654 6 122615814.29006
  23556840.294 5 125703796.99105
  24962601.413 6 131179353.77206 102217691.52502  24962604.407 2
  21243423.232 7 111634947.06307  86988254.88705  21243420.424 5
  22100446.181 7 118015159.13907
  22554372.184 6 120481415.22406
  20383558.692 7 109038287.48307
  20310183.817 7 108760120.75907
 18 10 16 19  6 55.0000000  0 13G30G15G20G21R07R24R06G27G13R09R16R23
                                R08
  24931738.342 3
  20162127.569 9 105952693.49709  82560538.94507  20162126.191 7
  22650065.885 7 119026895.78507  92748235.08003  22650064.418 3
  21838753.113 7 114763419.99507  89426042.52903  21838750.226 3
  20179787.592 8 108023985.77708
  22929076.535 6 122612075.37606
  23557391.486 5 125706737.10605
  24962264.090 6 131177581.64106 102216310.64702  24962267.131 2
  21243757.635 7 111636704.84407  86989624.58505  21243754.853 5
  22099884.274 7 118012158.83607
  22554559.993 6 120482415.99606
  20383462.258 7 109037771.57007
  20309842.946 7 108758294.56207
 18 10 16 19  6 56.0000000  0 13G30G15G20G21R07R24R06G27G13R09R16R23
                                R08
  24932172.290 3
  20162016.097 9 105952107.76009  82560082.52507  20162014.723 7
  22649451.967 7 119023670.33507  92745721.74103  22649450.607 3
  21838460.415 7 114761882.24107  89424844.27703  21838457.599 3
  20180016.691 8 108025211.67808
  22928377.444 6 122608337.15306
  23557942.303 5 125709677.37405
  24961927.011 6 131175810.23906 102214930.34902  24961930.037 2
  21244092.324 7 111638463.20607  86990994.73805  21244089.415 5
  22099322.407 7 118009159.29507
  22554748.097 6 120483417.76806
  20383365.841 7 109037256.76507
  20309502.060 7 108756468.85207
 18 10 16 19  6 57.0000000  0 13G30G15G20G21R07R24R06G27G13R09R16R23
                                R08
  24932606.825 4
  20161904.765 9 105951522.90709  82559626.79707  20161903.428 7
  22648838.288 7 119020445.36407  92743208.77303  22648836.886 3
  21838167.811 7 114760345.31707  89423646.66103  21838165.074 3
  20180245.923 8 108026438.21008
  22927678.406 6 122604599.83706
  23558493.620 5 125712618.00105
  24961589.811 6 131174039.74306 102213550.73802  24961593.047 2
