% program   : RTKPOST ver.2.4.2
% inp file  : Z:\home\emerson\Desktop\Connected_folders\gnssins\data\CAR_2890.18O
% inp file  : Z:\home\emerson\Desktop\Connected_folders\gnssins\data\CAR_2890.18N
% inp file  : Z:\home\emerson\Desktop\Connected_folders\gnssins\data\igs20232.*
% obs start : 2018/10/16 19:05:36.0 GPST (week2023 241536.0s)
% obs end   : 2018/10/16 20:01:25.0 GPST (week2023 244885.0s)
% pos mode  : ppp-kinematic
% solution  : forward
% elev mask : 15.0 deg
% dynamics  : on
% tidecorr  : off
% tropo opt : est ztd
% ephemeris : precise
% navi sys  : gps glonass
% antenna1  :                       ( 0.0000  0.0000  0.0000)
%
% (lat/lon/height=WGS84/ellipsoidal,Q=1:fix,2:float,3:sbas,4:dgps,5:single,6:ppp,ns=# of satellites)
%  GPST                  latitude(deg) longitude(deg)  height(m)   Q  ns   sdn(m)   sde(m)   sdu(m)  sdne(m)  sdeu(m)  sdun(m) age(s)  ratio
2018/10/16 19:05:36.000   45.950320122  -66.641371297    -2.0423   6   4  11.6488   2.9705  13.8064  -5.2300  -5.8280  12.1709   0.00    0.0
2018/10/16 19:05:37.000   45.950325295  -66.641374783    -1.1285   6   4   8.2488   2.1022   9.7771  -3.7032  -4.1260   8.6191   0.00    0.0
2018/10/16 19:05:38.000   45.950319875  -66.641372919    -2.1198   6   4   6.7447   1.7178   7.9945  -3.0277  -3.3728   7.0479   0.00    0.0
2018/10/16 19:05:39.000   45.950311437  -66.641370143    -3.4310   6   4   5.8493   1.4888   6.9334  -2.6256  -2.9244   6.1127   0.00    0.0
2018/10/16 19:05:40.000   45.950301794  -66.641366463    -4.6857   6   4   5.2393   1.3327   6.2105  -2.3516  -2.6188   5.4755   0.00    0.0
2018/10/16 19:05:41.000   45.950293528  -66.641363004    -5.8206   6   4   4.7897   1.2176   5.6776  -2.1497  -2.3935   5.0059   0.00    0.0
2018/10/16 19:05:42.000   45.950287475  -66.641360213    -6.5661   6   4   4.4409   1.1282   5.2642  -1.9930  -2.2186   4.6416   0.00    0.0
2018/10/16 19:05:43.000   45.950284229  -66.641357818    -6.9493   6   4   4.1602   1.0562   4.9315  -1.8669  -2.0779   4.3484   0.00    0.0
2018/10/16 19:05:44.000   45.950283661  -66.641356866    -6.8829   6   4   3.9281   0.9967   4.6565  -1.7626  -1.9615   4.1061   0.00    0.0
2018/10/16 19:05:45.000   45.950285309  -66.641357166    -6.5170   6   4   3.7322   0.9464   4.4242  -1.6746  -1.8632   3.9014   0.00    0.0
2018/10/16 19:05:46.000   45.950285939  -66.641357603    -6.3324   6   4   3.5634   0.9030   4.2242  -1.5987  -1.7785   3.7252   0.00    0.0
2018/10/16 19:05:47.000   45.950286174  -66.641358130    -6.2630   6   4   3.4164   0.8652   4.0500  -1.5326  -1.7047   3.5717   0.00    0.0
2018/10/16 19:05:48.000   45.950287119  -66.641358953    -6.1160   6   4   3.2868   0.8319   3.8965  -1.4744  -1.6397   3.4365   0.00    0.0
2018/10/16 19:05:49.000   45.950287329  -66.641359500    -6.0477   6   4   3.1716   0.8022   3.7599  -1.4226  -1.5818   3.3161   0.00    0.0
2018/10/16 19:05:50.000   45.950287025  -66.641360302    -6.0318   6   4   3.0681   0.7756   3.6374  -1.3761  -1.5299   3.2082   0.00    0.0
2018/10/16 19:05:51.000   45.950286086  -66.641360699    -6.1439   6   4   2.9747   0.7515   3.5268  -1.3341  -1.4830   3.1107   0.00    0.0
2018/10/16 19:05:52.000   45.950285966  -66.641361098    -6.1582   6   4   2.8897   0.7296   3.4261  -1.2959  -1.4403   3.0221   0.00    0.0
2018/10/16 19:05:53.000   45.950286820  -66.641361619    -6.0187   6   4   2.8121   0.7095   3.3341  -1.2610  -1.4013   2.9410   0.00    0.0
2018/10/16 19:05:54.000   45.950287208  -66.641361796    -5.9311   6   4   2.7408   0.6911   3.2496  -1.2289  -1.3654   2.8666   0.00    0.0
2018/10/16 19:05:55.000   45.950288088  -66.641362245    -5.8174   6   4   2.6749   0.6741   3.1717  -1.1993  -1.3323   2.7979   0.00    0.0
2018/10/16 19:05:56.000   45.950287635  -66.641362206    -5.8739   6   4   2.6140   0.6583   3.0995  -1.1719  -1.3016   2.7343   0.00    0.0
2018/10/16 19:05:57.000   45.950286959  -66.641361802    -5.9932   6   4   2.5573   0.6437   3.0324  -1.1464  -1.2731   2.6752   0.00    0.0
2018/10/16 19:05:58.000   45.950287281  -66.641361608    -5.9710   6   4   2.5045   0.6300   2.9698  -1.1227  -1.2465   2.6201   0.00    0.0
2018/10/16 19:05:59.000   45.950287497  -66.641361433    -5.9628   6   4   2.4551   0.6172   2.9113  -1.1005  -1.2217   2.5686   0.00    0.0
2018/10/16 19:06:00.000   45.950287318  -66.641361294    -6.0040   6   4   2.4088   0.6051   2.8564  -1.0796  -1.1984   2.5203   0.00    0.0
2018/10/16 19:06:01.000   45.950288492  -66.641361682    -5.8458   6   4   2.3654   0.5939   2.8049  -1.0601  -1.1765   2.4750   0.00    0.0
2018/10/16 19:06:02.000   45.950289065  -66.641362067    -5.7852   6   4   2.3245   0.5833   2.7565  -1.0417  -1.1559   2.4324   0.00    0.0
2018/10/16 19:06:03.000   45.950289764  -66.641362589    -5.7074   6   4   2.2860   0.5732   2.7108  -1.0244  -1.1365   2.3922   0.00    0.0
2018/10/16 19:06:04.000   45.950291373  -66.641363516    -5.4785   6   4   2.2496   0.5638   2.6676  -1.0080  -1.1181   2.3542   0.00    0.0
2018/10/16 19:06:05.000   45.950292353  -66.641364300    -5.3203   6   4   2.2151   0.5548   2.6266  -0.9924  -1.1007   2.3182   0.00    0.0
2018/10/16 19:06:06.000   45.950292353  -66.641364660    -5.2981   6   4   2.1824   0.5463   2.5878  -0.9777  -1.0842   2.2841   0.00    0.0
2018/10/16 19:06:07.000   45.950292403  -66.641364963    -5.2692   6   4   2.1514   0.5382   2.5509  -0.9637  -1.0685   2.2517   0.00    0.0
2018/10/16 19:06:08.000   45.950292285  -66.641365294    -5.2724   6   4   2.1219   0.5305   2.5159  -0.9505  -1.0536   2.2209   0.00    0.0
2018/10/16 19:06:09.000   45.950291509  -66.641365384    -5.3440   6   4   2.0938   0.5231   2.4825  -0.9378  -1.0394   2.1916   0.00    0.0
2018/10/16 19:06:10.000   45.950290604  -66.641365564    -5.4177   6   4   2.0670   0.5161   2.4507  -0.9258  -1.0259   2.1636   0.00    0.0
2018/10/16 19:06:11.000   45.950290287  -66.641365987    -5.3917   6   4   2.0415   0.5094   2.4203  -0.9143  -1.0130   2.1370   0.00    0.0
2018/10/16 19:06:12.000   45.950289025  -66.641366037    -5.5138   6   4   2.0172   0.5031   2.3913  -0.9033  -1.0007   2.1115   0.00    0.0
2018/10/16 19:06:13.000   45.950287110  -66.641365873    -5.7129   6   4   1.9939   0.4969   2.3635  -0.8928  -0.9889   2.0872   0.00    0.0
2018/10/16 19:06:14.000   45.950284782  -66.641365450    -5.9363   6   4   1.9716   0.4911   2.3370  -0.8828  -0.9776   2.0639   0.00    0.0
2018/10/16 19:06:15.000   45.950282468  -66.641364932    -6.1549   6   4   1.9503   0.4855   2.3116  -0.8732  -0.9668   2.0416   0.00    0.0
2018/10/16 19:06:16.000   45.950280654  -66.641364609    -6.2818   6   4   1.9289   0.4799   2.2862  -0.8635  -0.9560   2.0194   0.00    0.0
2018/10/16 19:06:17.000   45.950279758  -66.641364591    -6.2968   6   4   1.9081   0.4744   2.2616  -0.8541  -0.9455   1.9977   0.00    0.0
2018/10/16 19:06:18.000   45.950278674  -66.641364528    -6.3533   6   4   1.8880   0.4691   2.2379  -0.8451  -0.9353   1.9768   0.00    0.0
2018/10/16 19:06:19.000   45.950277041  -66.641364198    -6.4966   6   4   1.8687   0.4640   2.2150  -0.8364  -0.9255   1.9567   0.00    0.0
2018/10/16 19:06:20.000   45.950275989  -66.641364030    -6.5422   6   4   1.8500   0.4591   2.1930  -0.8280  -0.9161   1.9373   0.00    0.0
2018/10/16 19:06:21.000   45.950274269  -66.641363614    -6.6916   6   4   1.8320   0.4544   2.1717  -0.8199  -0.9070   1.9186   0.00    0.0
2018/10/16 19:06:22.000   45.950272559  -66.641363132    -6.8364   6   4   1.8147   0.4498   2.1512  -0.8120  -0.8982   1.9006   0.00    0.0
2018/10/16 19:06:23.000   45.950271640  -66.641363086    -6.8714   6   4   1.7979   0.4453   2.1314  -0.8045  -0.8897   1.8831   0.00    0.0
2018/10/16 19:06:24.000   45.950270666  -66.641362953    -6.9013   6   4   1.7817   0.4411   2.1122  -0.7972  -0.8815   1.8663   0.00    0.0
2018/10/16 19:06:25.000   45.950269591  -66.641362788    -6.9475   6   4   1.7660   0.4369   2.0937  -0.7901  -0.8736   1.8500   0.00    0.0
2018/10/16 19:06:26.000   45.950268274  -66.641362652    -7.0247   6   4   1.7509   0.4329   2.0758  -0.7833  -0.8659   1.8343   0.00    0.0
2018/10/16 19:06:27.000   45.950267100  -66.641362605    -7.0779   6   4   1.7362   0.4290   2.0585  -0.7767  -0.8585   1.8190   0.00    0.0
2018/10/16 19:06:28.000   45.950265333  -66.641362244    -7.2148   6   4   1.7221   0.4253   2.0417  -0.7703  -0.8513   1.8043   0.00    0.0
2018/10/16 19:06:29.000   45.950263715  -66.641361955    -7.3369   6   4   1.7084   0.4216   2.0254  -0.7641  -0.8443   1.7900   0.00    0.0
2018/10/16 19:06:30.000   45.950261743  -66.641361491    -7.4852   6   4   1.6951   0.4181   2.0097  -0.7582  -0.8376   1.7762   0.00    0.0
2018/10/16 19:06:31.000   45.950260260  -66.641361255    -7.5841   6   4   1.6825   0.4147   1.9946  -0.7525  -0.8312   1.7631   0.00    0.0
2018/10/16 19:06:32.000   45.950258802  -66.641361043    -7.6777   6   4   1.6702   0.4115   1.9801  -0.7469  -0.8249   1.7503   0.00    0.0
2018/10/16 19:06:33.000   45.950257007  -66.641360733    -7.8303   6   4   1.6584   0.4083   1.9659  -0.7416  -0.8189   1.7380   0.00    0.0
2018/10/16 19:06:34.000   45.950255664  -66.641360644    -7.9085   6   4   1.6470   0.4052   1.9523  -0.7364  -0.8131   1.7260   0.00    0.0
2018/10/16 19:06:35.000   45.950254346  -66.641360552    -7.9932   6   4   1.6359   0.4023   1.9390  -0.7314  -0.8074   1.7144   0.00    0.0
2018/10/16 19:06:36.000   45.950253540  -66.641360552    -8.0156   6   4   1.6252   0.3994   1.9262  -0.7266  -0.8019   1.7032   0.00    0.0
2018/10/16 19:06:37.000   45.950252985  -66.641360576    -7.9873   6   4   1.6148   0.3966   1.9137  -0.7219  -0.7966   1.6924   0.00    0.0
2018/10/16 19:06:38.000   45.950252660  -66.641360760    -7.9253   6   4   1.6048   0.3939   1.9017  -0.7173  -0.7915   1.6819   0.00    0.0
2018/10/16 19:06:39.000   45.950251506  -66.641360679    -7.9936   6   4   1.5951   0.3913   1.8900  -0.7130  -0.7865   1.6718   0.00    0.0
2018/10/16 19:06:40.000   45.950250550  -66.641360625    -8.0337   6   4   1.5857   0.3888   1.8787  -0.7087  -0.7817   1.6620   0.00    0.0
2018/10/16 19:06:41.000   45.950248638  -66.641360256    -8.2132   6   4   1.5767   0.3863   1.8678  -0.7046  -0.7771   1.6525   0.00    0.0
2018/10/16 19:06:42.000   45.950246736  -66.641359892    -8.3763   6   4   1.5679   0.3840   1.8572  -0.7007  -0.7726   1.6433   0.00    0.0
2018/10/16 19:06:43.000   45.950244860  -66.641359477    -8.5331   6   4   1.5595   0.3817   1.8469  -0.6968  -0.7682   1.6344   0.00    0.0
2018/10/16 19:06:44.000   45.950242775  -66.641359063    -8.7117   6   4   1.5513   0.3794   1.8370  -0.6931  -0.7640   1.6258   0.00    0.0
2018/10/16 19:06:45.000   45.950241103  -66.641358740    -8.8347   6   4   1.5434   0.3773   1.8273  -0.6896  -0.7599   1.6175   0.00    0.0
2018/10/16 19:06:46.000   45.950239753  -66.641358542    -8.9063   6   4   1.5339   0.3747   1.8163  -0.6852  -0.7551   1.6077   0.00    0.0
2018/10/16 19:06:47.000   45.950237602  -66.641358032    -9.0966   6   4   1.5247   0.3723   1.8056  -0.6811  -0.7504   1.5983   0.00    0.0
2018/10/16 19:06:48.000   45.950235855  -66.641357653    -9.2496   6   4   1.5158   0.3699   1.7951  -0.6771  -0.7459   1.5891   0.00    0.0
2018/10/16 19:06:49.000   45.950233660  -66.641357150    -9.4626   6   4   1.5071   0.3675   1.7849  -0.6732  -0.7415   1.5801   0.00    0.0
2018/10/16 19:06:50.000   45.950231904  -66.641356747    -9.6186   6   4   1.4987   0.3652   1.7750  -0.6693  -0.7372   1.5714   0.00    0.0
2018/10/16 19:06:51.000   45.950230414  -66.641356410    -9.7517   6   4   1.4904   0.3630   1.7653  -0.6656  -0.7330   1.5628   0.00    0.0
2018/10/16 19:06:52.000   45.950228910  -66.641355985    -9.8895   6   4   1.4824   0.3608   1.7558  -0.6620  -0.7289   1.5545   0.00    0.0
2018/10/16 19:06:53.000   45.950227607  -66.641355593   -10.0165   6   4   1.4746   0.3587   1.7466  -0.6585  -0.7249   1.5464   0.00    0.0
2018/10/16 19:06:54.000   45.950226135  -66.641355056   -10.1632   6   4   1.4670   0.3566   1.7376  -0.6550  -0.7210   1.5386   0.00    0.0
2018/10/16 19:06:55.000   45.950225009  -66.641354664   -10.2784   6   4   1.4596   0.3546   1.7289  -0.6517  -0.7172   1.5309   0.00    0.0
2018/10/16 19:06:56.000   45.950223969  -66.641354379   -10.3754   6   4   1.4524   0.3527   1.7203  -0.6484  -0.7136   1.5234   0.00    0.0
2018/10/16 19:06:57.000   45.950222428  -66.641353981   -10.5195   6   4   1.4453   0.3507   1.7120  -0.6453  -0.7100   1.5162   0.00    0.0
2018/10/16 19:06:58.000   45.950221040  -66.641353666   -10.6595   6   4   1.4385   0.3489   1.7039  -0.6422  -0.7065   1.5091   0.00    0.0
2018/10/16 19:06:59.000   45.950219748  -66.641353380   -10.7780   6   4   1.4319   0.3471   1.6960  -0.6392  -0.7031   1.5022   0.00    0.0
2018/10/16 19:07:00.000   45.950217732  -66.641352837   -11.0082   6   4   1.4254   0.3453   1.6884  -0.6363  -0.6998   1.4955   0.00    0.0
2018/10/16 19:07:01.000   45.950216259  -66.641352441   -11.1514   6   4   1.4194   0.3436   1.6811  -0.6335  -0.6967   1.4892   0.00    0.0
2018/10/16 19:07:02.000   45.950214686  -66.641352070   -11.3034   6   4   1.4135   0.3420   1.6740  -0.6309  -0.6936   1.4831   0.00    0.0
2018/10/16 19:07:03.000   45.950212959  -66.641351704   -11.4843   6   4   1.4079   0.3404   1.6672  -0.6283  -0.6907   1.4772   0.00    0.0
2018/10/16 19:07:04.000   45.950210934  -66.641351195   -11.7101   6   4   1.4024   0.3389   1.6605  -0.6258  -0.6878   1.4715   0.00    0.0
2018/10/16 19:07:05.000   45.950209678  -66.641350981   -11.8305   6   4   1.3971   0.3374   1.6541  -0.6234  -0.6851   1.4659   0.00    0.0
2018/10/16 19:07:06.000   45.950208661  -66.641350741   -11.9309   6   4   1.3920   0.3360   1.6478  -0.6210  -0.6824   1.4605   0.00    0.0
2018/10/16 19:07:07.000   45.950207844  -66.641350535   -12.0097   6   4   1.3870   0.3346   1.6418  -0.6188  -0.6798   1.4553   0.00    0.0
2018/10/16 19:07:08.000   45.950206615  -66.641350183   -12.1533   6   4   1.3823   0.3333   1.6359  -0.6166  -0.6773   1.4503   0.00    0.0
2018/10/16 19:07:09.000   45.950205777  -66.641349937   -12.2572   6   4   1.3776   0.3320   1.6302  -0.6145  -0.6749   1.4455   0.00    0.0
2018/10/16 19:07:10.000   45.950204926  -66.641349621   -12.3505   6   4   1.3732   0.3307   1.6247  -0.6125  -0.6726   1.4408   0.00    0.0
2018/10/16 19:07:11.000   45.950203922  -66.641349271   -12.4742   6   4   1.3689   0.3295   1.6194  -0.6106  -0.6703   1.4363   0.00    0.0
2018/10/16 19:07:12.000   45.950203071  -66.641349053   -12.5619   6   4   1.3648   0.3283   1.6143  -0.6087  -0.6682   1.4319   0.00    0.0
2018/10/16 19:07:13.000   45.950202475  -66.641348879   -12.6212   6   4   1.3609   0.3272   1.6093  -0.6069  -0.6661   1.4278   0.00    0.0
2018/10/16 19:07:14.000   45.950201470  -66.641348609   -12.7161   6   4   1.3571   0.3261   1.6046  -0.6052  -0.6641   1.4238   0.00    0.0
2018/10/16 19:07:15.000   45.950200416  -66.641348253   -12.8396   6   4   1.3535   0.3250   1.6000  -0.6035  -0.6622   1.4199   0.00    0.0
2018/10/16 19:07:16.000   45.950198972  -66.641347794   -12.9991   6   4   1.3481   0.3236   1.5937  -0.6011  -0.6595   1.4144   0.00    0.0
2018/10/16 19:07:17.000   45.950198209  -66.641347551   -13.0731   6   4   1.3426   0.3221   1.5873  -0.5986  -0.6567   1.4088   0.00    0.0
2018/10/16 19:07:18.000   45.950197804  -66.641347476   -13.1062   6   4   1.3372   0.3206   1.5811  -0.5962  -0.6539   1.4033   0.00    0.0
2018/10/16 19:07:19.000   45.950197448  -66.641347334   -13.1269   6   4   1.3320   0.3192   1.5750  -0.5938  -0.6513   1.3979   0.00    0.0
2018/10/16 19:07:20.000   45.950197209  -66.641347269   -13.1533   6   4   1.3270   0.3177   1.5691  -0.5915  -0.6486   1.3927   0.00    0.0
2018/10/16 19:07:21.000   45.950196526  -66.641347083   -13.2291   6   4   1.3220   0.3164   1.5633  -0.5893  -0.6461   1.3876   0.00    0.0
2018/10/16 19:07:22.000   45.950196083  -66.641346938   -13.2938   6   4   1.3172   0.3150   1.5576  -0.5871  -0.6436   1.3827   0.00    0.0
2018/10/16 19:07:23.000   45.950195389  -66.641346658   -13.3767   6   4   1.3125   0.3137   1.5521  -0.5850  -0.6412   1.3779   0.00    0.0
2018/10/16 19:07:24.000   45.950194516  -66.641346330   -13.4897   6   4   1.3080   0.3124   1.5468  -0.5829  -0.6389   1.3732   0.00    0.0
2018/10/16 19:07:25.000   45.950194097  -66.641346079   -13.5369   6   4   1.3035   0.3112   1.5415  -0.5809  -0.6366   1.3686   0.00    0.0
2018/10/16 19:07:26.000   45.950193389  -66.641345740   -13.6250   6   4   1.2992   0.3100   1.5365  -0.5790  -0.6344   1.3642   0.00    0.0
2018/10/16 19:07:27.000   45.950192644  -66.641345356   -13.7106   6   4   1.2951   0.3088   1.5315  -0.5771  -0.6322   1.3599   0.00    0.0
2018/10/16 19:07:28.000   45.950191844  -66.641344903   -13.7981   6   4   1.2910   0.3076   1.5267  -0.5752  -0.6301   1.3557   0.00    0.0
2018/10/16 19:07:29.000   45.950191432  -66.641344738   -13.8315   6   4   1.2871   0.3065   1.5221  -0.5735  -0.6281   1.3517   0.00    0.0
2018/10/16 19:07:30.000   45.950191427  -66.641344606   -13.8215   6   4   1.2833   0.3054   1.5175  -0.5718  -0.6261   1.3478   0.00    0.0
2018/10/16 19:07:31.000   45.950191312  -66.641344395   -13.8252   6   4   1.2799   0.3044   1.5134  -0.5702  -0.6243   1.3443   0.00    0.0
2018/10/16 19:07:32.000   45.950191004  -66.641344193   -13.8482   6   4   1.2767   0.3035   1.5094  -0.5687  -0.6226   1.3409   0.00    0.0
2018/10/16 19:07:33.000   45.950191020  -66.641344178   -13.8403   6   4   1.2736   0.3026   1.5056  -0.5673  -0.6210   1.3376   0.00    0.0
2018/10/16 19:07:34.000   45.950190820  -66.641344140   -13.8548   6   4   1.2707   0.3017   1.5019  -0.5659  -0.6194   1.3345   0.00    0.0
2018/10/16 19:07:35.000   45.950190848  -66.641344124   -13.8168   6   4   1.2678   0.3009   1.4983  -0.5646  -0.6179   1.3315   0.00    0.0
2018/10/16 19:07:36.000   45.950190267  -66.641343868   -13.8828   6   4   1.2651   0.3001   1.4949  -0.5634  -0.6164   1.3287   0.00    0.0
2018/10/16 19:07:37.000   45.950189807  -66.641343640   -13.9324   6   4   1.2626   0.2993   1.4916  -0.5622  -0.6151   1.3259   0.00    0.0
2018/10/16 19:07:38.000   45.950189347  -66.641343469   -13.9672   6   4   1.2601   0.2986   1.4885  -0.5611  -0.6137   1.3234   0.00    0.0
2018/10/16 19:07:39.000   45.950188372  -66.641343143   -14.0690   6   4   1.2578   0.2979   1.4855  -0.5600  -0.6125   1.3209   0.00    0.0
2018/10/16 19:07:40.000   45.950187180  -66.641342777   -14.2007   6   4   1.2556   0.2972   1.4826  -0.5591  -0.6113   1.3186   0.00    0.0
2018/10/16 19:07:41.000   45.950186355  -66.641342526   -14.2830   6   4   1.2536   0.2965   1.4799  -0.5581  -0.6102   1.3164   0.00    0.0
2018/10/16 19:07:42.000   45.950186454  -66.641342660   -14.2494   6   4   1.2517   0.2959   1.4773  -0.5572  -0.6091   1.3143   0.00    0.0
2018/10/16 19:07:43.000   45.950186729  -66.641342751   -14.2003   6   4   1.2499   0.2954   1.4749  -0.5564  -0.6081   1.3124   0.00    0.0
2018/10/16 19:07:44.000   45.950187018  -66.641342833   -14.1399   6   4   1.2483   0.2948   1.4726  -0.5557  -0.6072   1.3106   0.00    0.0
2018/10/16 19:07:45.000   45.950187382  -66.641342939   -14.0754   6   4   1.2468   0.2943   1.4704  -0.5550  -0.6063   1.3089   0.00    0.0
2018/10/16 19:07:46.000   45.950187576  -66.641343063   -14.0484   6   4   1.2428   0.2932   1.4659  -0.5531  -0.6042   1.3049   0.00    0.0
2018/10/16 19:07:47.000   45.950187923  -66.641343118   -14.0060   6   4   1.2389   0.2921   1.4615  -0.5514  -0.6022   1.3010   0.00    0.0
2018/10/16 19:07:48.000   45.950188401  -66.641343239   -13.9451   6   4   1.2352   0.2910   1.4572  -0.5497  -0.6003   1.2972   0.00    0.0
2018/10/16 19:07:49.000   45.950188769  -66.641343273   -13.9126   6   4   1.2316   0.2900   1.4530  -0.5480  -0.5985   1.2935   0.00    0.0
2018/10/16 19:07:50.000   45.950189430  -66.641343449   -13.8345   6   4   1.2281   0.2890   1.4489  -0.5464  -0.5967   1.2900   0.00    0.0
2018/10/16 19:07:51.000   45.950189759  -66.641343416   -13.8039   6   4   1.2247   0.2880   1.4450  -0.5449  -0.5949   1.2865   0.00    0.0
2018/10/16 19:07:52.000   45.950189869  -66.641343243   -13.8063   6   4   1.2214   0.2871   1.4411  -0.5434  -0.5932   1.2831   0.00    0.0
2018/10/16 19:07:53.000   45.950189957  -66.641343135   -13.7972   6   4   1.2182   0.2861   1.4374  -0.5419  -0.5916   1.2799   0.00    0.0
2018/10/16 19:07:54.000   45.950189697  -66.641342833   -13.8521   6   4   1.2152   0.2853   1.4338  -0.5405  -0.5900   1.2768   0.00    0.0
2018/10/16 19:07:55.000   45.950189794  -66.641342663   -13.8435   6   4   1.2122   0.2844   1.4303  -0.5392  -0.5884   1.2737   0.00    0.0
2018/10/16 19:07:56.000   45.950189848  -66.641342585   -13.8402   6   4   1.2093   0.2836   1.4270  -0.5379  -0.5869   1.2708   0.00    0.0
2018/10/16 19:07:57.000   45.950189801  -66.641342457   -13.8520   6   4   1.2066   0.2827   1.4237  -0.5367  -0.5855   1.2680   0.00    0.0
2018/10/16 19:07:58.000   45.950190008  -66.641342415   -13.8260   6   4   1.2040   0.2820   1.4206  -0.5355  -0.5841   1.2653   0.00    0.0
2018/10/16 19:07:59.000   45.950190567  -66.641342502   -13.7641   6   4   1.2015   0.2812   1.4176  -0.5343  -0.5828   1.2627   0.00    0.0
2018/10/16 19:08:00.000   45.950190531  -66.641342350   -13.7719   6   4   1.1991   0.2805   1.4147  -0.5332  -0.5815   1.2603   0.00    0.0
2018/10/16 19:08:01.000   45.950190895  -66.641342317   -13.7331   6   4   1.1971   0.2799   1.4122  -0.5323  -0.5805   1.2582   0.00    0.0
2018/10/16 19:08:02.000   45.950190910  -66.641342233   -13.7250   6   4   1.1952   0.2793   1.4098  -0.5315  -0.5794   1.2563   0.00    0.0
2018/10/16 19:08:03.000   45.950191004  -66.641342137   -13.7258   6   4   1.1935   0.2787   1.4076  -0.5306  -0.5785   1.2544   0.00    0.0
2018/10/16 19:08:04.000   45.950191611  -66.641342241   -13.6440   6   4   1.1919   0.2782   1.4054  -0.5299  -0.5776   1.2527   0.00    0.0
2018/10/16 19:08:05.000   45.950192228  -66.641342377   -13.5705   6   4   1.1904   0.2777   1.4034  -0.5292  -0.5767   1.2511   0.00    0.0
2018/10/16 19:08:06.000   45.950192785  -66.641342470   -13.4978   6   4   1.1891   0.2772   1.4016  -0.5285  -0.5759   1.2497   0.00    0.0
2018/10/16 19:08:07.000   45.950193510  -66.641342623   -13.4032   6   4   1.1878   0.2768   1.3998  -0.5280  -0.5752   1.2483   0.00    0.0
2018/10/16 19:08:08.000   45.950193887  -66.641342669   -13.3523   6   4   1.1867   0.2764   1.3982  -0.5274  -0.5746   1.2471   0.00    0.0
2018/10/16 19:08:09.000   45.950194203  -66.641342640   -13.3240   6   4   1.1857   0.2760   1.3967  -0.5270  -0.5739   1.2460   0.00    0.0
2018/10/16 19:08:10.000   45.950194638  -66.641342644   -13.2657   6   4   1.1848   0.2757   1.3954  -0.5265  -0.5734   1.2450   0.00    0.0
2018/10/16 19:08:11.000   45.950195524  -66.641342779   -13.1586   6   4   1.1841   0.2753   1.3941  -0.5262  -0.5729   1.2442   0.00    0.0
2018/10/16 19:08:12.000   45.950196151  -66.641342779   -13.0836   6   4   1.1835   0.2751   1.3930  -0.5259  -0.5725   1.2434   0.00    0.0
2018/10/16 19:08:13.000   45.950197061  -66.641342869   -12.9708   6   4   1.1830   0.2748   1.3920  -0.5256  -0.5721   1.2428   0.00    0.0
2018/10/16 19:08:14.000   45.950197715  -66.641342901   -12.8838   6   4   1.1826   0.2746   1.3912  -0.5254  -0.5718   1.2423   0.00    0.0
2018/10/16 19:08:15.000   45.950198029  -66.641342843   -12.8407   6   4   1.1824   0.2744   1.3905  -0.5253  -0.5716   1.2420   0.00    0.0
2018/10/16 19:08:16.000   45.950198854  -66.641343040   -12.7279   6   4   1.1795   0.2736   1.3875  -0.5241  -0.5702   1.2392   0.00    0.0
2018/10/16 19:08:17.000   45.950199528  -66.641343153   -12.6328   6   4   1.1765   0.2727   1.3841  -0.5227  -0.5686   1.2362   0.00    0.0
2018/10/16 19:08:18.000   45.950200407  -66.641343361   -12.5080   6   4   1.1736   0.2719   1.3808  -0.5214  -0.5672   1.2333   0.00    0.0
2018/10/16 19:08:19.000   45.950201393  -66.641343593   -12.3717   6   4   1.1709   0.2711   1.3776  -0.5201  -0.5657   1.2305   0.00    0.0
2018/10/16 19:08:20.000   45.950202192  -66.641343722   -12.2648   6   4   1.1682   0.2703   1.3746  -0.5189  -0.5644   1.2279   0.00    0.0
2018/10/16 19:08:21.000   45.950202729  -66.641343780   -12.1949   6   4   1.1657   0.2695   1.3716  -0.5177  -0.5630   1.2253   0.00    0.0
2018/10/16 19:08:22.000   45.950203695  -66.641343985   -12.0801   6   4   1.1632   0.2688   1.3688  -0.5166  -0.5617   1.2228   0.00    0.0
2018/10/16 19:08:23.000   45.950204338  -66.641344073   -11.9990   6   4   1.1609   0.2681   1.3661  -0.5155  -0.5605   1.2204   0.00    0.0
2018/10/16 19:08:24.000   45.950204700  -66.641344055   -11.9555   6   4   1.1586   0.2674   1.3634  -0.5145  -0.5593   1.2181   0.00    0.0
2018/10/16 19:08:25.000   45.950205216  -66.641344027   -11.8829   6   4   1.1565   0.2668   1.3609  -0.5135  -0.5582   1.2160   0.00    0.0
2018/10/16 19:08:26.000   45.950206020  -66.641344123   -11.7763   6   4   1.1545   0.2662   1.3585  -0.5126  -0.5571   1.2139   0.00    0.0
2018/10/16 19:08:27.000   45.950206356  -66.641344051   -11.7437   6   4   1.1526   0.2656   1.3563  -0.5117  -0.5561   1.2120   0.00    0.0
2018/10/16 19:08:28.000   45.950206487  -66.641343918   -11.7407   6   4   1.1508   0.2650   1.3541  -0.5109  -0.5552   1.2102   0.00    0.0
2018/10/16 19:08:29.000   45.950206420  -66.641343721   -11.7699   6   4   1.1491   0.2645   1.3520  -0.5101  -0.5543   1.2084   0.00    0.0
2018/10/16 19:08:30.000   45.950206456  -66.641343561   -11.7757   6   4   1.1476   0.2639   1.3501  -0.5094  -0.5534   1.2068   0.00    0.0
2018/10/16 19:08:31.000   45.950206973  -66.641343576   -11.7303   6   4   1.1465   0.2636   1.3486  -0.5089  -0.5528   1.2057   0.00    0.0
2018/10/16 19:08:32.000   45.950207406  -66.641343638   -11.6731   6   4   1.1455   0.2632   1.3473  -0.5084  -0.5522   1.2046   0.00    0.0
2018/10/16 19:08:33.000   45.950207990  -66.641343737   -11.5993   6   4   1.1446   0.2629   1.3461  -0.5080  -0.5517   1.2037   0.00    0.0
2018/10/16 19:08:34.000   45.950208664  -66.641343855   -11.5069   6   4   1.1439   0.2626   1.3450  -0.5077  -0.5512   1.2030   0.00    0.0
2018/10/16 19:08:35.000   45.950209209  -66.641343893   -11.4348   6   4   1.1433   0.2623   1.3440  -0.5074  -0.5508   1.2023   0.00    0.0
2018/10/16 19:08:36.000   45.950209987  -66.641344067   -11.3313   6   4   1.1428   0.2620   1.3432  -0.5071  -0.5505   1.2017   0.00    0.0
2018/10/16 19:08:37.000   45.950210549  -66.641344181   -11.2496   6   4   1.1425   0.2618   1.3424  -0.5069  -0.5502   1.2013   0.00    0.0
2018/10/16 19:08:38.000   45.950211226  -66.641344358   -11.1541   6   4   1.1422   0.2616   1.3419  -0.5068  -0.5500   1.2010   0.00    0.0
2018/10/16 19:08:39.000   45.950212029  -66.641344543   -11.0488   6   4   1.1421   0.2615   1.3414  -0.5067  -0.5498   1.2009   0.00    0.0
2018/10/16 19:08:40.000   45.950212385  -66.641344611   -10.9980   6   4   1.1422   0.2614   1.3411  -0.5067  -0.5497   1.2008   0.00    0.0
2018/10/16 19:08:41.000   45.950212799  -66.641344654   -10.9369   6   4   1.1423   0.2613   1.3409  -0.5068  -0.5497   1.2009   0.00    0.0
2018/10/16 19:08:42.000   45.950212850  -66.641344522   -10.9330   6   4   1.1426   0.2612   1.3408  -0.5069  -0.5497   1.2011   0.00    0.0
2018/10/16 19:08:43.000   45.950212874  -66.641344427   -10.9292   6   4   1.1430   0.2612   1.3408  -0.5070  -0.5498   1.2014   0.00    0.0
2018/10/16 19:08:44.000   45.950213115  -66.641344373   -10.9042   6   4   1.1435   0.2612   1.3410  -0.5073  -0.5499   1.2019   0.00    0.0
2018/10/16 19:08:45.000   45.950213657  -66.641344426   -10.8339   6   4   1.1442   0.2612   1.3414  -0.5076  -0.5501   1.2025   0.00    0.0
2018/10/16 19:08:46.000   45.950213473  -66.641344259   -10.8635   6   4   1.1418   0.2605   1.3384  -0.5064  -0.5488   1.1999   0.00    0.0
2018/10/16 19:08:47.000   45.950214091  -66.641344410   -10.7900   6   4   1.1393   0.2597   1.3356  -0.5053  -0.5475   1.1975   0.00    0.0
2018/10/16 19:08:48.000   45.950214300  -66.641344411   -10.7749   6   4   1.1370   0.2590   1.3330  -0.5042  -0.5463   1.1951   0.00    0.0
2018/10/16 19:08:49.000   45.950214749  -66.641344520   -10.7278   6   4   1.1347   0.2584   1.3305  -0.5031  -0.5451   1.1929   0.00    0.0
2018/10/16 19:08:50.000   45.950215196  -66.641344664   -10.6817   6   4   1.1326   0.2577   1.3281  -0.5022  -0.5440   1.1907   0.00    0.0
2018/10/16 19:08:51.000   45.950215088  -66.641344568   -10.7112   6   4   1.1305   0.2571   1.3257  -0.5012  -0.5430   1.1887   0.00    0.0
2018/10/16 19:08:52.000   45.950215335  -66.641344637   -10.6885   6   4   1.1286   0.2565   1.3235  -0.5003  -0.5420   1.1868   0.00    0.0
2018/10/16 19:08:53.000   45.950215552  -66.641344672   -10.6635   6   4   1.1268   0.2560   1.3215  -0.4995  -0.5410   1.1850   0.00    0.0
2018/10/16 19:08:54.000   45.950215735  -66.641344705   -10.6396   6   4   1.1251   0.2554   1.3195  -0.4987  -0.5401   1.1833   0.00    0.0
2018/10/16 19:08:55.000   45.950216234  -66.641344807   -10.5787   6   4   1.1235   0.2549   1.3176  -0.4980  -0.5393   1.1817   0.00    0.0
2018/10/16 19:08:56.000   45.950216069  -66.641344714   -10.6029   6   4   1.1220   0.2544   1.3159  -0.4973  -0.5385   1.1802   0.00    0.0
2018/10/16 19:08:57.000   45.950216330  -66.641344715   -10.5750   6   4   1.1207   0.2540   1.3143  -0.4967  -0.5378   1.1788   0.00    0.0
2018/10/16 19:08:58.000   45.950216142  -66.641344627   -10.6071   6   4   1.1195   0.2536   1.3128  -0.4961  -0.5371   1.1776   0.00    0.0
2018/10/16 19:08:59.000   45.950216128  -66.641344608   -10.6106   6   4   1.1183   0.2532   1.3114  -0.4956  -0.5365   1.1765   0.00    0.0
2018/10/16 19:09:00.000   45.950216794  -66.641344796   -10.5261   6   4   1.1173   0.2528   1.3101  -0.4952  -0.5359   1.1755   0.00    0.0
2018/10/16 19:09:01.000   45.950217332  -66.641344967   -10.4738   6   4   1.1168   0.2526   1.3093  -0.4949  -0.5356   1.1749   0.00    0.0
2018/10/16 19:09:02.000   45.950217441  -66.641344980   -10.4594   6   4   1.1165   0.2524   1.3087  -0.4947  -0.5353   1.1745   0.00    0.0
2018/10/16 19:09:03.000   45.950217366  -66.641344924   -10.4766   6   4   1.1163   0.2522   1.3082  -0.4946  -0.5351   1.1743   0.00    0.0
2018/10/16 19:09:04.000   45.950217175  -66.641344856   -10.5132   6   4   1.1162   0.2520   1.3078  -0.4945  -0.5349   1.1741   0.00    0.0
2018/10/16 19:09:05.000   45.950217729  -66.641345064   -10.4539   6   4   1.1162   0.2519   1.3075  -0.4945  -0.5348   1.1741   0.00    0.0
2018/10/16 19:09:06.000   45.950217843  -66.641345069   -10.4433   6   4   1.1164   0.2518   1.3074  -0.4945  -0.5348   1.1742   0.00    0.0
2018/10/16 19:09:07.000   45.950217689  -66.641344975   -10.4640   6   4   1.1167   0.2518   1.3074  -0.4946  -0.5348   1.1745   0.00    0.0
2018/10/16 19:09:08.000   45.950217979  -66.641345070   -10.4273   6   4   1.1172   0.2517   1.3076  -0.4948  -0.5349   1.1749   0.00    0.0
2018/10/16 19:09:09.000   45.950218233  -66.641345097   -10.3853   6   4   1.1177   0.2517   1.3079  -0.4950  -0.5351   1.1754   0.00    0.0
2018/10/16 19:09:10.000   45.950218334  -66.641345074   -10.3618   6   4   1.1184   0.2518   1.3083  -0.4953  -0.5353   1.1760   0.00    0.0
2018/10/16 19:09:11.000   45.950218663  -66.641345104   -10.3143   6   4   1.1193   0.2518   1.3088  -0.4957  -0.5356   1.1768   0.00    0.0
2018/10/16 19:09:12.000   45.950218563  -66.641344953   -10.3197   6   4   1.1203   0.2519   1.3095  -0.4961  -0.5360   1.1777   0.00    0.0
2018/10/16 19:09:13.000   45.950219034  -66.641345019   -10.2517   6   4   1.1214   0.2521   1.3103  -0.4966  -0.5364   1.1788   0.00    0.0
2018/10/16 19:09:14.000   45.950219559  -66.641345163   -10.1790   6   4   1.1226   0.2522   1.3113  -0.4971  -0.5369   1.1800   0.00    0.0
2018/10/16 19:09:15.000   45.950219559  -66.641345086   -10.1788   6   4   1.1240   0.2524   1.3124  -0.4977  -0.5374   1.1813   0.00    0.0
2018/10/16 19:09:16.000   45.950219256  -66.641344955   -10.2200   6   4   1.1220   0.2519   1.3104  -0.4969  -0.5365   1.1794   0.00    0.0
2018/10/16 19:09:17.000   45.950219448  -66.641345031   -10.1891   6   4   1.1198   0.2513   1.3080  -0.4959  -0.5354   1.1773   0.00    0.0
2018/10/16 19:09:18.000   45.950219414  -66.641345003   -10.1827   6   4   1.1178   0.2507   1.3057  -0.4949  -0.5343   1.1753   0.00    0.0
2018/10/16 19:09:19.000   45.950219592  -66.641345019   -10.1618   6   4   1.1159   0.2501   1.3036  -0.4940  -0.5333   1.1734   0.00    0.0
2018/10/16 19:09:20.000   45.950219586  -66.641345000   -10.1466   6   4   1.1141   0.2495   1.3016  -0.4932  -0.5324   1.1716   0.00    0.0
2018/10/16 19:09:21.000   45.950218896  -66.641344705   -10.2271   6   4   1.1124   0.2490   1.2997  -0.4924  -0.5315   1.1699   0.00    0.0
2018/10/16 19:09:22.000   45.950217877  -66.641344338   -10.3440   6   4   1.1108   0.2485   1.2979  -0.4917  -0.5307   1.1683   0.00    0.0
2018/10/16 19:09:23.000   45.950217839  -66.641344300   -10.3420   6   4   1.1093   0.2480   1.2962  -0.4910  -0.5299   1.1669   0.00    0.0
2018/10/16 19:09:24.000   45.950217601  -66.641344191   -10.3624   6   4   1.1080   0.2476   1.2947  -0.4904  -0.5292   1.1655   0.00    0.0
2018/10/16 19:09:25.000   45.950217415  -66.641344104   -10.3787   6   4   1.1068   0.2472   1.2932  -0.4898  -0.5285   1.1643   0.00    0.0
2018/10/16 19:09:26.000   45.950217218  -66.641344004   -10.3934   6   4   1.1057   0.2468   1.2919  -0.4893  -0.5279   1.1633   0.00    0.0
2018/10/16 19:09:27.000   45.950217245  -66.641343981   -10.3770   6   4   1.1047   0.2464   1.2908  -0.4888  -0.5274   1.1623   0.00    0.0
2018/10/16 19:09:28.000   45.950217118  -66.641343934   -10.4003   6   4   1.1039   0.2461   1.2897  -0.4884  -0.5269   1.1615   0.00    0.0
2018/10/16 19:09:29.000   45.950217400  -66.641344012   -10.3584   6   4   1.1032   0.2458   1.2888  -0.4881  -0.5265   1.1608   0.00    0.0
2018/10/16 19:09:30.000   45.950217578  -66.641344055   -10.3402   6   4   1.1026   0.2455   1.2880  -0.4878  -0.5261   1.1602   0.00    0.0
2018/10/16 19:09:31.000   45.950217850  -66.641344102   -10.3139   6   4   1.1026   0.2454   1.2878  -0.4878  -0.5260   1.1602   0.00    0.0
2018/10/16 19:09:32.000   45.950217748  -66.641344025   -10.3262   6   4   1.1027   0.2453   1.2877  -0.4878  -0.5260   1.1603   0.00    0.0
2018/10/16 19:09:33.000   45.950217671  -66.641343955   -10.3387   6   4   1.1030   0.2453   1.2878  -0.4879  -0.5260   1.1605   0.00    0.0
2018/10/16 19:09:34.000   45.950217684  -66.641343944   -10.3304   6   4   1.1034   0.2452   1.2880  -0.4881  -0.5261   1.1609   0.00    0.0
2018/10/16 19:09:35.000   45.950217381  -66.641343844   -10.3651   6   4   1.1040   0.2453   1.2883  -0.4883  -0.5263   1.1615   0.00    0.0
2018/10/16 19:09:36.000   45.950216977  -66.641343711   -10.4042   6   4   1.1047   0.2453   1.2888  -0.4886  -0.5265   1.1622   0.00    0.0
2018/10/16 19:09:37.000   45.950217156  -66.641343770   -10.3774   6   4   1.1056   0.2454   1.2894  -0.4889  -0.5269   1.1630   0.00    0.0
2018/10/16 19:09:38.000   45.950217007  -66.641343718   -10.3867   6   4   1.1066   0.2455   1.2902  -0.4894  -0.5272   1.1639   0.00    0.0
2018/10/16 19:09:39.000   45.950216876  -66.641343702   -10.3925   6   4   1.1077   0.2456   1.2911  -0.4899  -0.5277   1.1651   0.00    0.0
2018/10/16 19:09:40.000   45.950216468  -66.641343580   -10.4382   6   4   1.1090   0.2458   1.2922  -0.4904  -0.5282   1.1663   0.00    0.0
2018/10/16 19:09:41.000   45.950216255  -66.641343454   -10.4557   6   4   1.1104   0.2460   1.2934  -0.4910  -0.5288   1.1677   0.00    0.0
2018/10/16 19:09:42.000   45.950215967  -66.641343332   -10.4753   6   4   1.1120   0.2463   1.2948  -0.4917  -0.5294   1.1693   0.00    0.0
2018/10/16 19:09:43.000   45.950215354  -66.641343091   -10.5489   6   4   1.1137   0.2465   1.2963  -0.4925  -0.5301   1.1709   0.00    0.0
2018/10/16 19:09:44.000   45.950215143  -66.641342940   -10.5716   6   4   1.1156   0.2469   1.2979  -0.4933  -0.5309   1.1728   0.00    0.0
2018/10/16 19:09:45.000   45.950214160  -66.641342565   -10.7004   6   4   1.1177   0.2472   1.2997  -0.4942  -0.5318   1.1748   0.00    0.0
2018/10/16 19:09:46.000   45.950213864  -66.641342449   -10.7284   6   4   1.1289   0.2495   1.3108  -0.4995  -0.5370   1.1859   0.00    0.0
2018/10/16 19:09:47.000   45.950212804  -66.641342051   -10.8641   6   4   1.1263   0.2488   1.3081  -0.4983  -0.5357   1.1834   0.00    0.0
2018/10/16 19:09:48.000   45.950212385  -66.641341924   -10.9113   6   4   1.1238   0.2481   1.3054  -0.4972  -0.5345   1.1809   0.00    0.0
2018/10/16 19:09:49.000   45.950211389  -66.641341565   -11.0273   6   4   1.1214   0.2474   1.3029  -0.4961  -0.5333   1.1786   0.00    0.0
2018/10/16 19:09:50.000   45.950210503  -66.641341277   -11.1318   6   4   1.1192   0.2468   1.3005  -0.4950  -0.5321   1.1764   0.00    0.0
2018/10/16 19:09:51.000   45.950210316  -66.641341249   -11.1385   6   4   1.1171   0.2462   1.2982  -0.4940  -0.5310   1.1743   0.00    0.0
2018/10/16 19:09:52.000   45.950209456  -66.641340971   -11.2483   6   4   1.1150   0.2456   1.2961  -0.4931  -0.5300   1.1723   0.00    0.0
2018/10/16 19:09:53.000   45.950209333  -66.641340995   -11.2555   6   4   1.1132   0.2450   1.2940  -0.4922  -0.5291   1.1705   0.00    0.0
2018/10/16 19:09:54.000   45.950208232  -66.641340646   -11.3790   6   4   1.1114   0.2445   1.2921  -0.4913  -0.5281   1.1688   0.00    0.0
2018/10/16 19:09:55.000   45.950207892  -66.641340541   -11.4170   6   4   1.1098   0.2440   1.2904  -0.4906  -0.5273   1.1672   0.00    0.0
2018/10/16 19:09:56.000   45.950207555  -66.641340458   -11.4429   6   4   1.1083   0.2436   1.2887  -0.4899  -0.5265   1.1657   0.00    0.0
2018/10/16 19:09:57.000   45.950207388  -66.641340420   -11.4539   6   4   1.1069   0.2431   1.2872  -0.4892  -0.5258   1.1644   0.00    0.0
2018/10/16 19:09:58.000   45.950206478  -66.641340139   -11.5748   6   4   1.1057   0.2427   1.2858  -0.4886  -0.5251   1.1631   0.00    0.0
2018/10/16 19:09:59.000   45.950206072  -66.641340030   -11.6106   6   4   1.1046   0.2423   1.2845  -0.4881  -0.5245   1.1621   0.00    0.0
2018/10/16 19:10:00.000   45.950204770  -66.641339572   -11.7680   6   4   1.1036   0.2420   1.2834  -0.4876  -0.5240   1.1611   0.00    0.0
2018/10/16 19:10:01.000   45.950204561  -66.641339500   -11.7861   6   4   1.1047   0.2421   1.2843  -0.4881  -0.5244   1.1622   0.00    0.0
2018/10/16 19:10:02.000   45.950203528  -66.641339159   -11.9164   6   4   1.1060   0.2423   1.2854  -0.4887  -0.5249   1.1635   0.00    0.0
2018/10/16 19:10:03.000   45.950202999  -66.641339003   -11.9757   6   4   1.1075   0.2425   1.2868  -0.4893  -0.5256   1.1650   0.00    0.0
2018/10/16 19:10:04.000   45.950202438  -66.641338822   -12.0472   6   4   1.1091   0.2428   1.2882  -0.4900  -0.5262   1.1666   0.00    0.0
2018/10/16 19:10:05.000   45.950202001  -66.641338670   -12.0997   6   4   1.1110   0.2430   1.2899  -0.4908  -0.5270   1.1684   0.00    0.0
2018/10/16 19:10:06.000   45.950201478  -66.641338483   -12.1694   6   4   1.1129   0.2434   1.2917  -0.4917  -0.5278   1.1703   0.00    0.0
2018/10/16 19:10:07.000   45.950200435  -66.641338099   -12.3104   6   4   1.1151   0.2437   1.2936  -0.4927  -0.5288   1.1724   0.00    0.0
2018/10/16 19:10:08.000   45.950199871  -66.641337899   -12.3846   6   4   1.1173   0.2441   1.2957  -0.4937  -0.5297   1.1747   0.00    0.0
2018/10/16 19:10:09.000   45.950199525  -66.641337772   -12.4259   6   4   1.1198   0.2445   1.2980  -0.4948  -0.5308   1.1771   0.00    0.0
2018/10/16 19:10:10.000   45.950198975  -66.641337535   -12.4946   6   4   1.1224   0.2450   1.3004  -0.4959  -0.5319   1.1797   0.00    0.0
2018/10/16 19:10:11.000   45.950198489  -66.641337330   -12.5531   6   4   1.1252   0.2455   1.3030  -0.4972  -0.5332   1.1825   0.00    0.0
2018/10/16 19:10:12.000   45.950197790  -66.641337024   -12.6460   6   4   1.1281   0.2461   1.3058  -0.4985  -0.5345   1.1854   0.00    0.0
2018/10/16 19:10:13.000   45.950197297  -66.641336821   -12.7104   6   4   1.1312   0.2466   1.3087  -0.4999  -0.5358   1.1885   0.00    0.0
2018/10/16 19:10:14.000   45.950197065  -66.641336667   -12.7384   6   4   1.1345   0.2472   1.3118  -0.5013  -0.5373   1.1917   0.00    0.0
2018/10/16 19:10:15.000   45.950196731  -66.641336497   -12.7845   6   4   1.1379   0.2479   1.3151  -0.5029  -0.5388   1.1951   0.00    0.0
2018/10/16 19:10:16.000   45.950196415  -66.641336356   -12.8297   6   4   1.1213   0.2440   1.2976  -0.4948  -0.5306   1.1782   0.00    0.0
2018/10/16 19:10:17.000   45.950195700  -66.641336079   -12.9235   6   4   1.1195   0.2435   1.2957  -0.4940  -0.5297   1.1764   0.00    0.0
2018/10/16 19:10:18.000   45.950195277  -66.641335911   -12.9828   6   4   1.1178   0.2430   1.2939  -0.4932  -0.5288   1.1748   0.00    0.0
2018/10/16 19:10:19.000   45.950195232  -66.641335865   -12.9855   6   4   1.1162   0.2425   1.2923  -0.4925  -0.5280   1.1733   0.00    0.0
2018/10/16 19:10:20.000   45.950195412  -66.641335892   -12.9641   6   4   1.1147   0.2421   1.2908  -0.4918  -0.5273   1.1719   0.00    0.0
2018/10/16 19:10:21.000   45.950195585  -66.641335907   -12.9435   6   4   1.1134   0.2417   1.2894  -0.4912  -0.5266   1.1707   0.00    0.0
2018/10/16 19:10:22.000   45.950195514  -66.641335846   -12.9587   6   4   1.1123   0.2413   1.2882  -0.4907  -0.5260   1.1696   0.00    0.0
2018/10/16 19:10:23.000   45.950194941  -66.641335581   -13.0298   6   4   1.1113   0.2409   1.2871  -0.4902  -0.5255   1.1686   0.00    0.0
2018/10/16 19:10:24.000   45.950194758  -66.641335482   -13.0499   6   4   1.1104   0.2406   1.2861  -0.4898  -0.5250   1.1678   0.00    0.0
2018/10/16 19:10:25.000   45.950194517  -66.641335381   -13.0815   6   4   1.1097   0.2403   1.2854  -0.4895  -0.5246   1.1672   0.00    0.0
2018/10/16 19:10:26.000   45.950194198  -66.641335226   -13.1244   6   4   1.1091   0.2401   1.2847  -0.4892  -0.5243   1.1667   0.00    0.0
2018/10/16 19:10:27.000   45.950194005  -66.641335166   -13.1438   6   4   1.1087   0.2399   1.2842  -0.4890  -0.5241   1.1663   0.00    0.0
2018/10/16 19:10:28.000   45.950193310  -66.641334927   -13.2333   6   4   1.1085   0.2397   1.2839  -0.4889  -0.5239   1.1661   0.00    0.0
2018/10/16 19:10:29.000   45.950192458  -66.641334626   -13.3458   6   4   1.1084   0.2396   1.2837  -0.4888  -0.5238   1.1661   0.00    0.0
2018/10/16 19:10:30.000   45.950192273  -66.641334513   -13.3701   6   4   1.1084   0.2395   1.2837  -0.4889  -0.5238   1.1662   0.00    0.0
2018/10/16 19:10:31.000   45.950191293  -66.641334084   -13.5069   6   4   1.1092   0.2395   1.2843  -0.4891  -0.5240   1.1669   0.00    0.0
2018/10/16 19:10:32.000   45.950190645  -66.641333819   -13.5851   6   4   1.1102   0.2396   1.2851  -0.4895  -0.5244   1.1679   0.00    0.0
2018/10/16 19:10:33.000   45.950190268  -66.641333577   -13.6404   6   4   1.1113   0.2397   1.2861  -0.4900  -0.5248   1.1690   0.00    0.0
2018/10/16 19:10:34.000   45.950190365  -66.641333523   -13.6347   6   4   1.1126   0.2399   1.2872  -0.4905  -0.5253   1.1703   0.00    0.0
2018/10/16 19:10:35.000   45.950189584  -66.641333150   -13.7469   6   4   1.1141   0.2401   1.2885  -0.4912  -0.5259   1.1717   0.00    0.0
2018/10/16 19:10:36.000   45.950189153  -66.641332934   -13.8116   6   4   1.1157   0.2404   1.2900  -0.4919  -0.5266   1.1733   0.00    0.0
2018/10/16 19:10:37.000   45.950188563  -66.641332634   -13.8978   6   4   1.1176   0.2406   1.2916  -0.4926  -0.5273   1.1751   0.00    0.0
2018/10/16 19:10:38.000   45.950188721  -66.641332571   -13.8855   6   4   1.1196   0.2410   1.2934  -0.4935  -0.5282   1.1771   0.00    0.0
2018/10/16 19:10:39.000   45.950189080  -66.641332594   -13.8456   6   4   1.1217   0.2413   1.2954  -0.4944  -0.5291   1.1793   0.00    0.0
2018/10/16 19:10:40.000   45.950188757  -66.641332441   -13.9036   6   4   1.1241   0.2417   1.2976  -0.4954  -0.5301   1.1816   0.00    0.0
2018/10/16 19:10:41.000   45.950188217  -66.641332164   -13.9758   6   4   1.1266   0.2422   1.3000  -0.4965  -0.5312   1.1841   0.00    0.0
2018/10/16 19:10:42.000   45.950188261  -66.641332099   -13.9832   6   4   1.1293   0.2427   1.3025  -0.4977  -0.5323   1.1868   0.00    0.0
2018/10/16 19:10:43.000   45.950188423  -66.641332093   -13.9770   6   4   1.1322   0.2432   1.3052  -0.4990  -0.5336   1.1896   0.00    0.0
2018/10/16 19:10:44.000   45.950189239  -66.641332274   -13.8760   6   4   1.1353   0.2437   1.3081  -0.5003  -0.5349   1.1926   0.00    0.0
2018/10/16 19:10:45.000   45.950189199  -66.641332255   -13.8940   6   4   1.1386   0.2443   1.3112  -0.5018  -0.5363   1.1959   0.00    0.0
2018/10/16 19:10:46.000   45.950189729  -66.641332413   -13.8399   6   4   1.1367   0.2438   1.3092  -0.5008  -0.5353   1.1940   0.00    0.0
2018/10/16 19:10:47.000   45.950189065  -66.641332087   -13.9417   6   4   1.1349   0.2433   1.3074  -0.5000  -0.5344   1.1924   0.00    0.0
2018/10/16 19:10:48.000   45.950189716  -66.641332311   -13.8729   6   4   1.1333   0.2428   1.3058  -0.4993  -0.5337   1.1908   0.00    0.0
2018/10/16 19:10:49.000   45.950189973  -66.641332327   -13.8504   6   4   1.1319   0.2423   1.3043  -0.4986  -0.5329   1.1895   0.00    0.0
2018/10/16 19:10:50.000   45.950189835  -66.641332221   -13.8866   6   4   1.1306   0.2419   1.3030  -0.4980  -0.5323   1.1882   0.00    0.0
2018/10/16 19:10:51.000   45.950190366  -66.641332328   -13.8358   6   4   1.1294   0.2416   1.3018  -0.4975  -0.5317   1.1872   0.00    0.0
2018/10/16 19:10:52.000   45.950189876  -66.641332060   -13.9223   6   4   1.1285   0.2412   1.3008  -0.4970  -0.5312   1.1863   0.00    0.0
2018/10/16 19:10:53.000   45.950189400  -66.641331850   -13.9952   6   4   1.1276   0.2409   1.2999  -0.4966  -0.5308   1.1855   0.00    0.0
2018/10/16 19:10:54.000   45.950189527  -66.641331793   -14.0019   6   4   1.1270   0.2407   1.2992  -0.4963  -0.5304   1.1849   0.00    0.0
2018/10/16 19:10:55.000   45.950188833  -66.641331480   -14.1079   6   4   1.1265   0.2405   1.2987  -0.4961  -0.5301   1.1845   0.00    0.0
2018/10/16 19:10:56.000   45.950188562  -66.641331328   -14.1447   6   4   1.1262   0.2403   1.2984  -0.4960  -0.5299   1.1843   0.00    0.0
2018/10/16 19:10:57.000   45.950188508  -66.641331263   -14.1559   6   4   1.1260   0.2401   1.2982  -0.4959  -0.5298   1.1842   0.00    0.0
2018/10/16 19:10:58.000   45.950187906  -66.641331042   -14.2402   6   4   1.1260   0.2400   1.2982  -0.4959  -0.5298   1.1843   0.00    0.0
2018/10/16 19:10:59.000   45.950187797  -66.641331004   -14.2599   6   4   1.1262   0.2399   1.2983  -0.4960  -0.5298   1.1845   0.00    0.0
2018/10/16 19:11:00.000   45.950187954  -66.641331032   -14.2515   6   4   1.1266   0.2399   1.2987  -0.4961  -0.5300   1.1850   0.00    0.0
2018/10/16 19:11:01.000   45.950188087  -66.641331074   -14.2419   6   4   1.1277   0.2400   1.2996  -0.4966  -0.5304   1.1861   0.00    0.0
2018/10/16 19:11:02.000   45.950187712  -66.641330936   -14.2904   6   4   1.1290   0.2402   1.3008  -0.4971  -0.5309   1.1874   0.00    0.0
2018/10/16 19:11:03.000   45.950187130  -66.641330678   -14.3697   6   4   1.1306   0.2404   1.3022  -0.4977  -0.5315   1.1889   0.00    0.0
2018/10/16 19:11:04.000   45.950186722  -66.641330483   -14.4285   6   4   1.1323   0.2407   1.3037  -0.4984  -0.5322   1.1906   0.00    0.0
2018/10/16 19:11:05.000   45.950186201  -66.641330319   -14.4977   6   4   1.1342   0.2410   1.3055  -0.4992  -0.5330   1.1925   0.00    0.0
2018/10/16 19:11:06.000   45.950186083  -66.641330245   -14.5204   6   4   1.1363   0.2413   1.3074  -0.5001  -0.5338   1.1946   0.00    0.0
2018/10/16 19:11:07.000   45.950186040  -66.641330216   -14.5346   6   4   1.1385   0.2417   1.3096  -0.5011  -0.5348   1.1968   0.00    0.0
2018/10/16 19:11:08.000   45.950186188  -66.641330263   -14.5215   6   4   1.1410   0.2421   1.3119  -0.5022  -0.5359   1.1993   0.00    0.0
2018/10/16 19:11:09.000   45.950185660  -66.641330048   -14.5964   6   4   1.1437   0.2426   1.3144  -0.5033  -0.5370   1.2019   0.00    0.0
2018/10/16 19:11:10.000   45.950185636  -66.641330068   -14.6021   6   4   1.1466   0.2431   1.3172  -0.5046  -0.5382   1.2048   0.00    0.0
2018/10/16 19:11:11.000   45.950185995  -66.641330169   -14.5619   6   4   1.1496   0.2436   1.3201  -0.5059  -0.5395   1.2078   0.00    0.0
2018/10/16 19:11:12.000   45.950186127  -66.641330177   -14.5534   6   4   1.1529   0.2442   1.3232  -0.5073  -0.5410   1.2111   0.00    0.0
2018/10/16 19:11:13.000   45.950186427  -66.641330217   -14.5272   6   4   1.1564   0.2449   1.3265  -0.5088  -0.5425   1.2145   0.00    0.0
2018/10/16 19:11:14.000   45.950186497  -66.641330187   -14.5196   6   4   1.1601   0.2455   1.3300  -0.5104  -0.5441   1.2182   0.00    0.0
2018/10/16 19:11:15.000   45.950186018  -66.641329996   -14.5815   6   4   1.1639   0.2463   1.3338  -0.5121  -0.5458   1.2220   0.00    0.0
2018/10/16 19:11:16.000   45.950186384  -66.641330108   -14.5323   6   4   1.1625   0.2458   1.3325  -0.5115  -0.5451   1.2208   0.00    0.0
2018/10/16 19:11:17.000   45.950186566  -66.641330206   -14.4909   6   4   1.1608   0.2454   1.3308  -0.5107  -0.5443   1.2192   0.00    0.0
2018/10/16 19:11:18.000   45.950186031  -66.641330008   -14.5577   6   4   1.1593   0.2449   1.3293  -0.5100  -0.5435   1.2177   0.00    0.0
2018/10/16 19:11:19.000   45.950185735  -66.641329917   -14.5872   6   4   1.1579   0.2445   1.3279  -0.5094  -0.5428   1.2164   0.00    0.0
2018/10/16 19:11:20.000   45.950185182  -66.641329683   -14.6442   6   4   1.1567   0.2441   1.3267  -0.5088  -0.5422   1.2153   0.00    0.0
2018/10/16 19:11:21.000   45.950185231  -66.641329703   -14.6332   6   4   1.1557   0.2438   1.3256  -0.5083  -0.5417   1.2144   0.00    0.0
2018/10/16 19:11:22.000   45.950184091  -66.641329303   -14.7832   6   4   1.1549   0.2435   1.3248  -0.5080  -0.5413   1.2136   0.00    0.0
2018/10/16 19:11:23.000   45.950183296  -66.641328976   -14.8818   6   4   1.1542   0.2432   1.3241  -0.5076  -0.5409   1.2130   0.00    0.0
2018/10/16 19:11:24.000   45.950183022  -66.641328838   -14.9228   6   4   1.1537   0.2430   1.3236  -0.5074  -0.5407   1.2126   0.00    0.0
2018/10/16 19:11:25.000   45.950182522  -66.641328632   -14.9969   6   4   1.1534   0.2428   1.3233  -0.5072  -0.5405   1.2124   0.00    0.0
2018/10/16 19:11:26.000   45.950182259  -66.641328515   -15.0339   6   4   1.1533   0.2427   1.3232  -0.5072  -0.5404   1.2124   0.00    0.0
2018/10/16 19:11:27.000   45.950182283  -66.641328436   -15.0409   6   4   1.1534   0.2426   1.3233  -0.5072  -0.5404   1.2125   0.00    0.0
2018/10/16 19:11:28.000   45.950182417  -66.641328444   -15.0457   6   4   1.1536   0.2425   1.3235  -0.5073  -0.5405   1.2129   0.00    0.0
2018/10/16 19:11:29.000   45.950182965  -66.641328564   -14.9847   6   4   1.1541   0.2425   1.3240  -0.5075  -0.5406   1.2134   0.00    0.0
2018/10/16 19:11:30.000   45.950182952  -66.641328523   -14.9933   6   4   1.1548   0.2426   1.3246  -0.5078  -0.5409   1.2141   0.00    0.0
2018/10/16 19:11:31.000   45.950183204  -66.641328583   -14.9584   6   4   1.1562   0.2428   1.3260  -0.5084  -0.5415   1.2156   0.00    0.0
2018/10/16 19:11:32.000   45.950182567  -66.641328327   -15.0389   6   4   1.1580   0.2430   1.3277  -0.5091  -0.5422   1.2174   0.00    0.0
2018/10/16 19:11:33.000   45.950182151  -66.641328146   -15.0924   6   4   1.1599   0.2433   1.3295  -0.5100  -0.5430   1.2193   0.00    0.0
2018/10/16 19:11:34.000   45.950181941  -66.641328108   -15.1073   6   4   1.1621   0.2437   1.3316  -0.5109  -0.5439   1.2215   0.00    0.0
2018/10/16 19:11:35.000   45.950182012  -66.641328151   -15.0977   6   4   1.1645   0.2440   1.3338  -0.5119  -0.5449   1.2239   0.00    0.0
2018/10/16 19:11:36.000   45.950182330  -66.641328269   -15.0584   6   4   1.1671   0.2445   1.3363  -0.5130  -0.5460   1.2265   0.00    0.0
2018/10/16 19:11:37.000   45.950183234  -66.641328605   -14.9390   6   4   1.1699   0.2450   1.3390  -0.5142  -0.5472   1.2293   0.00    0.0
2018/10/16 19:11:38.000   45.950182853  -66.641328505   -14.9819   6   4   1.1729   0.2455   1.3419  -0.5155  -0.5485   1.2323   0.00    0.0
2018/10/16 19:11:39.000   45.950182622  -66.641328418   -15.0098   6   4   1.1761   0.2461   1.3450  -0.5169  -0.5499   1.2355   0.00    0.0
2018/10/16 19:11:40.000   45.950183518  -66.641328759   -14.8976   6   4   1.1796   0.2467   1.3484  -0.5184  -0.5514   1.2390   0.00    0.0
2018/10/16 19:11:41.000   45.950182938  -66.641328571   -14.9673   6   4   1.1833   0.2474   1.3520  -0.5200  -0.5530   1.2427   0.00    0.0
2018/10/16 19:11:42.000   45.950182813  -66.641328564   -14.9797   6   4   1.1872   0.2481   1.3558  -0.5217  -0.5547   1.2466   0.00    0.0
2018/10/16 19:11:43.000   45.950182509  -66.641328465   -15.0194   6   4   1.1913   0.2489   1.3598  -0.5235  -0.5565   1.2507   0.00    0.0
2018/10/16 19:11:44.000   45.950182177  -66.641328381   -15.0584   6   4   1.1957   0.2497   1.3641  -0.5254  -0.5585   1.2550   0.00    0.0
2018/10/16 19:11:45.000   45.950182260  -66.641328423   -15.0591   6   4   1.2002   0.2506   1.3685  -0.5274  -0.5605   1.2596   0.00    0.0
2018/10/16 19:11:46.000   45.950181804  -66.641328237   -15.1290   6   4   1.2004   0.2504   1.3682  -0.5274  -0.5603   1.2596   0.00    0.0
2018/10/16 19:11:47.000   45.950181093  -66.641328022   -15.2206   6   4   1.1987   0.2499   1.3665  -0.5266  -0.5595   1.2580   0.00    0.0
2018/10/16 19:11:48.000   45.950180338  -66.641327755   -15.3262   6   4   1.1971   0.2495   1.3650  -0.5259  -0.5587   1.2565   0.00    0.0
2018/10/16 19:11:49.000   45.950180134  -66.641327715   -15.3421   6   4   1.1958   0.2491   1.3637  -0.5253  -0.5581   1.2553   0.00    0.0
2018/10/16 19:11:50.000   45.950180870  -66.641328010   -15.2440   6   4   1.1946   0.2487   1.3625  -0.5247  -0.5575   1.2542   0.00    0.0
2018/10/16 19:11:51.000   45.950181211  -66.641328158   -15.2008   6   4   1.1936   0.2484   1.3616  -0.5242  -0.5570   1.2533   0.00    0.0
2018/10/16 19:11:52.000   45.950181367  -66.641328275   -15.1741   6   4   1.1928   0.2481   1.3609  -0.5239  -0.5566   1.2526   0.00    0.0
2018/10/16 19:11:53.000   45.950180996  -66.641328200   -15.2046   6   4   1.1922   0.2479   1.3603  -0.5236  -0.5563   1.2521   0.00    0.0
2018/10/16 19:11:54.000   45.950181055  -66.641328233   -15.1908   6   4   1.1918   0.2477   1.3600  -0.5234  -0.5561   1.2518   0.00    0.0
2018/10/16 19:11:55.000   45.950180785  -66.641328184   -15.2194   6   4   1.1916   0.2475   1.3598  -0.5233  -0.5560   1.2517   0.00    0.0
2018/10/16 19:11:56.000   45.950180931  -66.641328261   -15.1911   6   4   1.1916   0.2474   1.3599  -0.5233  -0.5560   1.2518   0.00    0.0
2018/10/16 19:11:57.000   45.950179624  -66.641327844   -15.3544   6   4   1.1918   0.2474   1.3602  -0.5234  -0.5560   1.2522   0.00    0.0
2018/10/16 19:11:58.000   45.950179273  -66.641327772   -15.3916   6   4   1.1923   0.2474   1.3607  -0.5236  -0.5562   1.2527   0.00    0.0
2018/10/16 19:11:59.000   45.950178999  -66.641327668   -15.4267   6   4   1.1929   0.2474   1.3614  -0.5238  -0.5565   1.2535   0.00    0.0
2018/10/16 19:12:00.000   45.950179696  -66.641327928   -15.3368   6   4   1.1938   0.2475   1.3623  -0.5242  -0.5569   1.2544   0.00    0.0
2018/10/16 19:12:01.000   45.950179643  -66.641327890   -15.3433   6   4   1.1958   0.2478   1.3642  -0.5251  -0.5577   1.2564   0.00    0.0
2018/10/16 19:12:02.000   45.950179524  -66.641327875   -15.3486   6   4   1.1981   0.2481   1.3664  -0.5260  -0.5586   1.2587   0.00    0.0
2018/10/16 19:12:03.000   45.950179694  -66.641327955   -15.3216   6   4   1.2006   0.2485   1.3688  -0.5271  -0.5597   1.2613   0.00    0.0
2018/10/16 19:12:04.000   45.950179631  -66.641327963   -15.3097   6   4   1.2034   0.2490   1.3715  -0.5283  -0.5609   1.2640   0.00    0.0
2018/10/16 19:12:05.000   45.950179933  -66.641328059   -15.2674   6   4   1.2064   0.2495   1.3744  -0.5295  -0.5621   1.2670   0.00    0.0
2018/10/16 19:12:06.000   45.950179748  -66.641328028   -15.2787   6   4   1.2096   0.2501   1.3775  -0.5309  -0.5635   1.2703   0.00    0.0
2018/10/16 19:12:07.000   45.950180207  -66.641328209   -15.2153   6   4   1.2131   0.2507   1.3809  -0.5324  -0.5650   1.2738   0.00    0.0
2018/10/16 19:12:08.000   45.950180078  -66.641328199   -15.2119   6   4   1.2168   0.2514   1.3845  -0.5340  -0.5666   1.2775   0.00    0.0
2018/10/16 19:12:09.000   45.950180490  -66.641328337   -15.1502   6   4   1.2208   0.2521   1.3884  -0.5358  -0.5684   1.2815   0.00    0.0
2018/10/16 19:12:10.000   45.950179928  -66.641328201   -15.2100   6   4   1.2250   0.2529   1.3925  -0.5376  -0.5702   1.2857   0.00    0.0
2018/10/16 19:12:11.000   45.950179494  -66.641328089   -15.2664   6   4   1.2295   0.2537   1.3969  -0.5396  -0.5722   1.2902   0.00    0.0
2018/10/16 19:12:12.000   45.950179297  -66.641328070   -15.2930   6   4   1.2342   0.2546   1.4016  -0.5416  -0.5742   1.2949   0.00    0.0
2018/10/16 19:12:13.000   45.950179045  -66.641328007   -15.3255   6   4   1.2392   0.2555   1.4064  -0.5438  -0.5764   1.2999   0.00    0.0
2018/10/16 19:12:14.000   45.950178844  -66.641327938   -15.3501   6   4   1.2444   0.2565   1.4116  -0.5461  -0.5787   1.3051   0.00    0.0
2018/10/16 19:12:15.000   45.950178696  -66.641327907   -15.3745   6   4   1.2499   0.2576   1.4170  -0.5485  -0.5811   1.3106   0.00    0.0
2018/10/16 19:12:16.000   45.950178629  -66.641327866   -15.3833   6   4   1.2483   0.2571   1.4156  -0.5477  -0.5804   1.3091   0.00    0.0
2018/10/16 19:12:17.000   45.950177583  -66.641327555   -15.5140   6   4   1.2466   0.2566   1.4139  -0.5469  -0.5796   1.3075   0.00    0.0
2018/10/16 19:12:18.000   45.950177907  -66.641327684   -15.4718   6   4   1.2451   0.2562   1.4125  -0.5463  -0.5789   1.3062   0.00    0.0
2018/10/16 19:12:19.000   45.950177724  -66.641327618   -15.4956   6   4   1.2438   0.2558   1.4113  -0.5456  -0.5783   1.3050   0.00    0.0
2018/10/16 19:12:20.000   45.950177822  -66.641327619   -15.4805   6   4   1.2427   0.2555   1.4103  -0.5451  -0.5777   1.3040   0.00    0.0
2018/10/16 19:12:21.000   45.950177814  -66.641327617   -15.4807   6   4   1.2418   0.2552   1.4095  -0.5447  -0.5773   1.3033   0.00    0.0
2018/10/16 19:12:22.000   45.950178076  -66.641327695   -15.4508   6   4   1.2412   0.2549   1.4089  -0.5444  -0.5770   1.3027   0.00    0.0
2018/10/16 19:12:23.000   45.950178508  -66.641327852   -15.3905   6   4   1.2408   0.2547   1.4086  -0.5442  -0.5768   1.3024   0.00    0.0
2018/10/16 19:12:24.000   45.950178234  -66.641327746   -15.4279   6   4   1.2406   0.2546   1.4085  -0.5441  -0.5766   1.3023   0.00    0.0
2018/10/16 19:12:25.000   45.950178168  -66.641327757   -15.4320   6   4   1.2406   0.2545   1.4086  -0.5441  -0.5766   1.3025   0.00    0.0
2018/10/16 19:12:26.000   45.950178532  -66.641327895   -15.3816   6   4   1.2409   0.2544   1.4089  -0.5442  -0.5767   1.3029   0.00    0.0
2018/10/16 19:12:27.000   45.950178216  -66.641327815   -15.4205   6   4   1.2414   0.2544   1.4095  -0.5444  -0.5769   1.3035   0.00    0.0
2018/10/16 19:12:28.000   45.950178387  -66.641327909   -15.3998   6   4   1.2421   0.2545   1.4104  -0.5447  -0.5773   1.3043   0.00    0.0
2018/10/16 19:12:29.000   45.950178723  -66.641328061   -15.3685   6   4   1.2431   0.2546   1.4114  -0.5452  -0.5777   1.3054   0.00    0.0
2018/10/16 19:12:30.000   45.950179666  -66.641328330   -15.2496   6   4   1.2444   0.2548   1.4128  -0.5457  -0.5782   1.3068   0.00    0.0
2018/10/16 19:12:31.000   45.950179720  -66.641328268   -15.2429   6   4   1.2468   0.2552   1.4152  -0.5467  -0.5793   1.3093   0.00    0.0
